id,name.th,name.en,name.slug,code.dopa,geo.lat,geo.lon
46160201,บ้านจอมศรี,Ban Chom Si,46160201,46160201,16.778497985521163,104.0785101056099
46160202,บ้านหนองขามป้อม,Ban Nong Kham Pom,46160202,46160202,16.773736813577024,104.06315580010414
46160203,บ้านนากุดสิม,Ban Na Kut Sim,46160203,46160203,16.74776912264131,104.0507210791111
46160204,บ้านกุดตาใกล้,Ban Kut Ta Klai,46160204,46160204,16.727189696700535,104.03123751282692
46160205,บ้านนากระเดา,Ban Na Kradao,46160205,46160205,16.742231492743777,104.03374806046486
46160206,บ้านนากระเดาพัฒนา,Ban Na Kradao Phatthana,46160206,46160206,16.738943769879512,104.02976766228676
46160207,บ้านกุดตาใกล้พัฒนา,Ban Kut Ta Klai Phatthana,46160207,46160207,16.72571011165117,104.03383389115334
46160208,บ้านนากุดสิมพัฒนา,Ban Na Kut Sim Phatthana,46160208,46160208,16.749834134494826,104.05348911881447
