id,name.th,name.en,name.slug,code.dopa,geo.lat,geo.lon
62110301,บ้านบานดอกไม้ตก,Ban Lan Dokmai Tok,62110301,62110301,16.574855,99.458917
62110302,บ้านลานดอกไม้ตก,Ban Lan Dokmai Tok,62110302,62110302,16.589719223737056,99.44800481200218
62110303,บ้านเกาะพิมูล,Ban Ko Phimun,62110303,62110303,16.618666678113254,99.43047657608986
62110304,บ้านเนินกรวด,Ban Noen Kruat,62110304,62110304,16.563915,99.445092
62110305,บ้านใหม่เด่นหว้า,Ban Mai Taen Wa,62110305,62110305,16.596476,99.407579
62110306,บ้านน้ำดิบ,Ban Nam Dip,62110306,62110306,16.59307634436083,99.4188679754734
62110307,บ้านคลองคล้า,Ban Khlong Khla,62110307,62110307,16.616836707167117,99.43330362439156
62110308,บ้านอมฤต,Ban Ammarit,62110308,62110308,16.582282453072104,99.45434555411339
62110309,บ้านลานเพชร,Ban Lan Phet,62110309,62110309,16.599053981800445,99.44391444325447
