id,name.th,name.en,name.slug,code.dopa,geo.lat,geo.lon
19030701,บ้านโคกสลุด,Ban Khok Salut,19030701,19030701,14.347615822657346,100.84508031606674
19030702,บ้านคลองสิบ,Ban Khlong Sip,19030702,19030702,13.72606875088845,100.5340875685215
19030703,บ้านนาข่อย,Ban Na Khoi,19030703,19030703,14.348833240613315,100.82474648952484
19030704,บ้านโคกทอง,Ban Khok Thong,19030704,19030704,14.34910218904527,100.82247868180275
19030705,บ้านไผ่ต่ำ,Ban Phai Tam,19030705,19030705,13.72706875088845,100.5340875685215
19030706,บ้านไผ่ต่ำ,Ban Phai Tam,19030706,19030706,14.347615822657346,100.84508031606674
19030707,บ้านคลองสิบตัน,Ban Khlong Sip Tan,19030707,19030707,13.72706875088845,100.5340875685215
19030708,บ้านหนองปลาหมอ,Ban Nong Pla Mo,19030708,19030708,13.7270675088845,100.5340875685215
