id,name.th,name.en,name.slug,code.dopa,geo.lat,geo.lon
56070601,บ้านป่าเมี้ยง,Ban Pa Miang,56070601,56070601,19.397741432150056,99.69556465744972
56070602,บ้านพิจิตรพัฒนา,Ban Phichit Phatthana,56070602,56070602,19.407015984410876,99.76664990186691
56070603,บ้านต้นผึ้ง,Ban Ton Phueng,56070603,56070603,19.401312425058613,99.77797418832779
56070604,บ้านห้วยเจริญราษฎร์,Ban Huai Charoen Rat,56070604,56070604,19.394164035844906,99.77776631712914
56070605,บ้านสันต้นม่วง,Ban San Ton Muang,56070605,56070605,19.386777500991656,99.78618308901787
56070606,บ้านสันม่วงใหม่,Ban San Muang Mai,56070606,56070606,19.384382719261083,99.78043109178543
56070607,บ้านสันสลี,Ban San Sali,56070607,56070607,19.391556838576328,99.80089768767357
56070608,บ้านสันดอนแก้ว,Ban San Don Kaeo,56070608,56070608,19.415690475645626,99.77168440818787
