id,name.th,name.en,name.slug,code.dopa,geo.lat,geo.lon
17030601,บ้านหนองสับฟาก,Ban Nong Sap Fak,17030601,17030601,14.826732496872548,100.22865369915962
17030602,บ้านคลองตาชม,Ban Khlong Tachom,17030602,17030602,14.82981932522855,100.22790804505348
17030603,บ้านคลองสี่,Ban Khlong Si,17030603,17030603,14.82207300101953,100.22248327732086
17030604,บ้านหนองกระทุ่ม,Ban Nong Krathum,17030604,17030604,14.810996896583253,100.20789876580238
17030605,บ้านห้วงมะระ,Ban Huang Mara,17030605,17030605,14.798598974628325,100.21803751587868
17030606,บ้านคลองสี่,Ban Khlong Si,17030606,17030606,14.81732394588804,100.21642416715622
