id,name.th,name.en,name.slug,code.dopa,geo.lat,geo.lon
84120401,บ้านเขาน้อย,Ban Khao Noi,84120401,84120401,8.873261646282797,99.43048864603043
84120402,บ้านปลายน้ำ,Ban Plai Nam,84120402,84120402,8.88839080210387,99.42154347896576
84120403,บ้านคลองหาเหนือ,Ban Khlong Tha Nuea,84120403,84120403,8.848808283829586,99.40481051802635
84120404,บ้านหมาก,Ban Mak,84120404,84120404,8.812243144257696,99.39002484083176
84120405,บ้านปลายธารราชรักษา,Ban Plai Than Ratcha Raksa,84120405,84120405,8.873708189246656,99.41090852022171
84120406,บ้านกอบแก้ววัฒนา,Ban Kop Kaeo Watthana,84120406,84120406,8.821588855938185,99.40781056880951
84120407,บ้านสระบัว,Ban Sa Bua,84120407,84120407,8.877628998643578,99.43224146962166
