id,name.local,name.en,name.slug,code.id,zip_codes,geo.lat,geo.lon
400907,บ้านฝาง,Ban Fang,ban-fang-400907,400907,40170,16.769,103.05
400909,ดูนสาด,Dun Sat,dun-sat-400909,400909,40170,16.81,103.149
400912,หัวนาคำ,Hua Na Kham,hua-na-kham-400912,400912,40170,16.813,103.08
400905,ห้วยโจด,Huai Chot,huai-chot-400905,400905,40170,16.667,103.022
400906,ห้วยยาง,Huai Yang,huai-yang-400906,400906,40170,16.87,103.085
400911,น้ำอ้อม,Nam Om,nam-om-400911,400911,40170,16.671,103.127
400901,หนองโก,Nong Ko,nong-ko-400901,400901,40170,16.727,103.11
400902,หนองกุงใหญ่,Nong Kung Yai,nong-kung-yai-400902,400902,40170,16.646,103.086
400910,หนองโน,Nong No,nong-no-400910,400910,40170,16.722,103.03
