id,name.th,name.en,name.slug,code.dopa,geo.lat,geo.lon
81040701,บ้านเพหลาใต้,Ban Phela Tai,81040701,81040701,7.999834115489253,99.13189709186554
81040702,บ้านเพหลาเหนือ,Ban Phela Nuea,81040702,81040702,8.028978534812484,99.12310883402824
81040703,บ้านพรุเตยใต้,Ban Phru Toei Tai,81040703,81040703,8.095420139806789,99.14885804057121
81040704,บ้านพรุเตยเหนือ,Ban Phru Toei Nuea,81040704,81040704,8.10305457410435,99.14006978273392
81040705,บ้านพรุเตียว,Ban Phru Tiao,81040705,81040705,8.137843187324084,99.15614694356918
81040706,บ้านบางใหญ่,Ban Bang Yai,81040706,81040706,8.057032014065763,99.14094284176826
81040707,บ้านท่าเรือ,Ban Tha Ruea,81040707,81040707,8.021895142959238,99.11014303565025
81040708,บ้านทรายทอง,Ban Sai Thong,81040708,81040708,8.080739048048718,99.13512781262398
81040709,บ้านควนสบาย,Ban Khuan Sabai,81040709,81040709,8.10252747085893,99.13212239742279
