id,name.th,name.en,name.slug,code.dopa,geo.lat,geo.lon
21050301,บ้านไผ่,Ban Phai,21050301,21050301,12.740910542323256,101.28073006868362
21050302,บ้านเกาะ,Ban Ko,21050302,21050302,12.750930259338228,101.28438726067543
21050303,บ้านหนองสะพาน,Ban Nong Saphan,21050303,21050303,12.731607285859964,101.26171186566353
21050304,บ้านปากป่า,Ban Pak Pa,21050304,21050304,12.748234392732117,101.26324072480202
21050305,บ้านแหลมเหียง,Ban Laem Hiang,21050305,21050305,12.760741611043075,101.25930994749069
21050306,บ้านคลองช้างตาย,Ban Khlong Chang Tai,21050306,21050306,12.77948296866147,101.23572394251823
