id,name.th,name.en,name.slug,code.dopa,geo.lat,geo.lon
95060701,บ้านจะกว๊ะ,Ban Cha-kwa,95060701,95060701,6.496199454452066,101.54129326343536
95060702,บ้านกำปงบือแน,Ban Kampong Buemae,95060702,95060702,6.504027794379953,101.54606491327286
95060703,บ้านปูลาสะนอ,Ban Pula Samo,95060703,95060703,6.500400789738502,101.52836501598358
95060704,บ้านลีเซ็ง,Ban Liseng,95060704,95060704,6.498844447615922,101.49721652269363
95060705,บ้านยือนือเร๊ะ,Ban Yuemuere,95060705,95060705,6.500090321189386,101.52250304818153
95060706,บ้านกูแบกือโร๊ะ,Ban Kubae Kuero,95060706,95060706,6.506486201085075,101.53997763991356
