id,name.th,name.en,name.slug,code.dopa,geo.lat,geo.lon
21030301,บ้านวังล่าง,Ban Wang Lang,21030301,21030301,12.694550464495713,101.57164111733437
21030302,บ้านชากโดน,Ban Chak Don,21030302,21030302,12.698693885918287,101.62244215607643
21030303,บ้านหนองยายยม,Ban Nong Yai Yom,21030303,21030303,12.700133012389777,101.60628452897072
21030304,บ้านอ่างทอง,Ban Ang Thong,21030304,21030304,12.713324189271502,101.59858122467995
21030305,บ้านชากโดน,Ban Chak Don,21030305,21030305,12.696094279547067,101.63217857480049
21030306,บ้านนอก,Ban Nok,21030306,21030306,12.691224688711971,101.63706421852112
21030307,บ้านวังกลอย,Ban Wang Kloi,21030307,21030307,12.694214225568114,101.58588096499443
21030308,บ้านแขนคงมั่น,Ban Khaem Khong Man,21030308,21030308,12.689321048468853,101.60936504602432
