id,name.local,name.en,name.slug,code.id,zip_codes,geo.lat,geo.lon
120402,บางบัวทอง,Bang Bua Thong,bang-bua-thong-120402,120402,11110,13.944,100.39
120404,บางคูรัด,Bang Khu Rat,bang-khu-rat-120404,120404,11110,13.907,100.351
120408,บางรักพัฒนา,Bang Rak Phatthana,bang-rak-phatthana-120408,120408,11110,13.894,100.41
120403,บางรักใหญ่,Bang Rak Yai,bang-rak-yai-120403,120403,11110,13.878,100.438
120405,ละหาร,Lahan,lahan-120405,120405,11110,13.964,100.401
120406,ลำโพ,Lam Pho,lam-pho-120406,120406,11110,13.97,100.416
120407,พิมลราช,Phimon Rat,phimon-rat-120407,120407,11110,13.934,100.366
120401,โสนลอย,Sano Loi,sano-loi-120401,120401,11110,13.914,100.422
