id,name.th,name.en,name.slug,code.dopa,geo.lat,geo.lon
58050701,บ้านแม่ปาง,Ban Mae Pang,58050701,58050701,18.462567,97.946050
58050702,บ้านแม่แป,Ban Mae Pae,58050702,58050702,18.460440,97999742
58050703,บ้านแม่ฮุ,Ban Mae Hu,58050703,58050703,18.476443,98023711
58050704,บ้านห้วยมะกอก,Ban Huai Makok,58050704,58050704,18.543831,97.959260
58050705,บ้านหัวดอย,Ban Hua Doi,58050705,58050705,18.487671,98.052686
58050706,บ้านกะริคี,Ban Karikhi,58050706,58050706,18.463590,98.064989
58050707,บ้านหัวลา,Ban Hua La,58050707,58050707,18.543826,97.959898
58050708,บ้านห้วยตาด,Ban Huai Tat,58050708,58050708,18.486093,97.995081
