id,name.th,name.en,name.slug,code.dopa,geo.lat,geo.lon
19030401,บ้านหนองโนน้อย,Ban Nong No Noi,19030401,19030401,13.72706875088845,100.5340875685215
19030402,บ้านใหม่,Ban Mai,19030402,19030402,14.417986509932016,100.80264911055565
19030403,บ้านหนองหอย,Ban Nong Hoi,19030403,19030403,14.418630746774731,100.78076899051666
19030404,บ้านเหล่าใต้,Ban Lao Tai,19030404,19030404,14.414841932001654,100.76165288686752
19030405,บ้านแก้วเกาะลอย,Ban Kaeo Ko Loi,19030405,19030405,13.72706875088845,100.5340875685215
19030406,บ้านโคกตูม,Ban Khok Tum,19030406,19030406,14.419021704111975,100.79241514205933
19030407,บ้านสันติสุข,Ban Santi Suk,19030407,19030407,14.415195228388558,100.77717214822769
19030408,บ้านเหล่าเหนือ,Ban Lao Nuea,19030408,19030408,14.42253379508026,100.76848983764648
19030409,บ้านโคกแดง,Ban Khok Daeng,19030409,19030409,14.425541888149422,100.77292621135712
