id,name.th,name.en,name.slug,code.dopa,geo.lat,geo.lon
84171201,บ้านหัวหาญ,Ban Hua Han,84171201,84171201,9.164236847219893,99.15293231606483
84171202,บ้านตลาดมะลวน,Ban Talat Maluan,84171202,84171202,9.165370177832205,99.15895655751228
84171203,บ้านดอนแฝก,Ban Don Faek,84171203,84171203,9.18016404714142,99.18280944228172
84171204,บ้านกลาง,Ban Klang,84171204,84171204,9.171653741973687,99.13813725113869
84171205,บ้านต้นปาบ,Ban Don Pap,84171205,84171205,9.16034562966313,99.14005368947983
84171206,บ้านห้วยกรวด,Ban Huai Kruat,84171206,84171206,9.14645923621885,99.1064603626728
84171207,บ้านไผ่พระ,Ban Phai Phra,84171207,84171207,9.164904135775263,99.19942036271095
84171208,บ้านคลองสินทอง,Ban Khlong Sin Thong,84171208,84171208,9.164175943836927,99.06708151102066
84171209,บ้านหนองพอง,Ban Nong Pong,84171209,84171209,9.161996655043577,99.11875024437904
