id,name.th,name.en,name.slug,code.dopa,geo.lat,geo.lon
35090301,บ้านส้มผ่อ,Ban Som Pho,35090301,35090301,16.148950623659772,104.39946725964546
35090302,บ้านนาเงิน,Ban Na Ngoen,35090302,35090302,16.14786596719536,104.39889192581177
35090303,บ้านโนนแดง,Ban Non Daeng,35090303,35090303,16.157134306689418,104.4106775522232
35090304,บ้านศรีชุมพร,Ban Si Chumphon,35090304,35090304,16.15061881885037,104.39791023731232
35090305,บ้านนางาม,Ban Na Ngam,35090305,35090305,16.14672848853077,104.42414358258247
35090306,บ้านเหล่าหันทราย,Ban Lao Han Sai,35090306,35090306,16.19245692968111,104.39944446086884
35090307,บ้านใหม่ชมภู,Ban Mai Chom Phu,35090307,35090307,16.203390926831805,104.40198987722397
35090308,บ้านทุ่งเศรษฐี,Ban Thung Setthi,35090308,35090308,16.14786725538946,104.39789146184921
