id,name.th,name.en,name.slug,code.dopa,geo.lat,geo.lon
22021001,บ้านตรอกโสน,Ban Trok Son,22021001,22021001,12.52280823699111,102.25750878453255
22021002,บ้านตรอกนองบน,Ban Trok Nong Bon,22021002,22021002,12.532412344384666,102.25530669093132
22021003,บ้านตรอกนองกลาง,Ban Trok Nong Klang,22021003,22021003,12.53811625025686,102.27589800953865
22021004,บ้านตรอกนองกลาง,Ban Trok Nong Klang,22021004,22021004,12.547218411798921,102.27600529789925
22021005,บ้านตรอกนองล่าง,Ban Trok Nong Lang,22021005,22021005,12.538715827244618,102.27548897266388
22021006,บ้านคลองซาง,Ban Khlong Sang,22021006,22021006,12.515921756652471,102.27584302425385
