id,name.th,name.en,name.slug,code.dopa,geo.lat,geo.lon
30010501,บ้านหัวช้าง,Ban Hua Chang,30010501,30010501,14.97990566096392,102.15032637119293
30010502,บ้านใหม่,Ban Mai,30010502,30010502,14.978475392024277,102.1526437997818
30010503,บ้านสารภี,Ban Saraphi,30010503,30010503,14.97579490757023,102.1583166718483
30010504,บ้านพระ,Ban Phra,30010504,30010504,14.9806713173128,102.16010704636574
30010505,บ้านบึงสาร,Ban Bueng San,30010505,30010505,14.979945822363272,102.17006340622902
30010506,บ้านพระ,Ban Phra,30010506,30010506,14.980629860524758,102.16023579239845
30010507,บ้านโคก,Ban Khok,30010507,30010507,14.987387210984965,102.17349663376808
30010508,บ้านกระทอน,Ban Krathom,30010508,30010508,14.994411209178818,102.16868609189987
30010509,บ้านเคียงบึง,Ban Khiang Bueng,30010509,30010509,14.983338785643433,102.16383799910545
