id,name.th,name.en,name.slug,code.dopa,geo.lat,geo.lon
50050801,บ้านร้องต้นขาม,Ban Rong Ton Kham,50050801,50050801,18.82188437451228,99.09268319606781
50050802,บ้านสันต้นม่วงเหนือ,Ban San Ton Muang Nuea,50050802,50050802,18.816191062077152,99.09974277019501
50050803,บ้านป่าสักหลวง,Ban Pa Sak Luang,50050803,50050803,18.810352836497707,99.10616800189018
50050804,บ้านพันหลัง,Ban Phan Lang,50050804,50050804,18.804057379900566,99.10139232873917
50050805,บ้านป่าเหมือด,Ban Pa Mueat,50050805,50050805,18.801802688429092,99.09222319722176
50050806,บ้านสันมะเกี๋ยง,Ban San Ma Kiang,50050806,50050806,18.79119787011581,99.08529102802277
50050807,บ้านต้นผึ้ง,Ban Ton Phueng,50050807,50050807,18.79781881851002,99.10278707742691
50050808,บ้านสันโป่ง,Ban San Pong,50050808,50050808,18.796905993736907,99.08097937703133
