id,name.th,name.en,name.slug,code.dopa,geo.lat,geo.lon
30010801,บ้านประโดก,Ban Pra Dot,30010801,30010801,15.00510221925294,102.10523575544357
30010802,บ้านหมื่นไวย,Ban Muen Wai,30010802,30010802,15.019722634351838,102.0909771323204
30010803,บ้านโนนตาสุก,Ban Non Ta Suk,30010803,30010803,15.004327582663693,102.10303902626038
30010804,บ้านโพนสูง,Ban Phon Sung,30010804,30010804,15.015045298448118,102.09955349564552
30010805,บ้านคลองบริบูรฌ์,Ban Khlong Boribun,30010805,30010805,15.019810713912298,102.09743320941925
30010806,บ้านโคกไผ่,Ban Khok Phai,30010806,30010806,14.997170481416251,102.10265949368477
30010807,บ้านหนองนาลุ่ม,Ban Nong Na Lum,30010807,30010807,15.022788558849438,102.09186628460884
30010808,บ้านโคกพงาด,Ban Khok Pha-ngat,30010808,30010808,14.998551399602299,102.10801184177399
30010809,บ้านโคกไผ่สอง,Ban Khok Phai Song,30010809,30010809,14.999669340908058,102.10298404097557
