id,name.th,name.en,name.slug,code.dopa,geo.lat,geo.lon
50060701,บ้านแม่โจ้,Ban Mae Cho,50060701,50060701,19.213398464742067,99.00818824768066
50060702,บ้านแม่เลิม,Ban Mae Lim,50060702,50060702,19.198618863206125,99.00018185377121
50060703,บ้านสบเลิม,Ban Sop Lim,50060703,50060703,19.192490068294422,98.99763509631157
50060704,บ้านเป้า,Ban Pao,50060704,50060704,19.188369880119787,98.99680897593498
50060705,บ้านแพะ,Ban Phae,50060705,50060705,19.187611186825194,99.00217071175575
50060706,บ้านก๊างหงษ์,Ban Kang Hong,50060706,50060706,19.17602009722058,99.01282846927643
50060707,บ้านดง,Ban Dong,50060707,50060707,19.160615137223612,99.02564540505409
