id,name.th,name.en,name.slug,code.dopa,geo.lat,geo.lon
42060401,บ้านนามาลา,Ban Na Ma La,42060401,42060401,17.38470968577566,101.0478700697422
42060402,บ้านหัวด่าน,Ban Hua Dan,42060402,42060402,17.37873912086407,101.03985965251923
42060403,บ้านนาปูน,Ban Na Pun,42060403,42060403,17.37329441024762,101.04483783245087
42060404,บ้านซำทอง,Ban Sam Thong,42060404,42060404,17.35359661947088,101.03930711746216
42060405,บ้านหนองหวาย,Ban Nong Wai,42060405,42060405,17.3540766414884,101.0638278722763
42060406,บ้านโคก,Ban Khok,42060406,42060406,17.31287466052025,101.05614468455315
42060407,บ้านหนองสิม,Ban Nong Sim,42060407,42060407,17.32781055085091,101.09897151589394
42060408,บ้านโนนสว่าง,Ban Non Sawang,42060408,42060408,17.387698094745158,101.04556605219841
