id,name.local,name.en,name.slug,code.id,zip_codes,geo.lat,geo.lon
730405,บ้านหลวง,Ban Luang,ban-luang-730405,730405,73150,13.911,100.15
730404,ดอนพุทรา,Don Phutsa,don-phutsa-730404,730404,73150,13.936,100.124
730406,ดอนรวก,Don Ruak,don-ruak-730406,730406,73150,13.89,100.117
730407,ห้วยด้วน,Huai Duan,huai-duan-730407,730407,73150,13.902,100.1
730402,ห้วยพระ,Huai Phra,huai-phra-730402,730402,73150,13.93,100.084
730403,ลำเหย,Lam Hoei,lam-hoei-730403,730403,73150,13.957,100.044
730408,ลำลูกบัว,Lam Luk Bua,lam-luk-bua-730408,730408,73150,14.024,100.074
730401,สามง่าม,Sam Ngam,sam-ngam-730401,730401,73150,13.978,100.083
