id,name.th,name.en,name.slug,code.dopa,geo.lat,geo.lon
84090301,บ้านหาดคัน,Ban Hat Khan,84090301,84090301,8.947862538897457,98.90937969088554
84090302,บ้านบนทุ่ง,Ban Bon Thung,84090302,84090302,8.944006073277032,98.88025760650635
84090303,บ้านคลองหิน,Ban Khlong Hin,84090303,84090303,8.968887572229676,98.8888044655323
84090304,บ้านบางเน่า,Ban Bang Nao,84090304,84090304,8.935871724667948,98.9064721763134
84090305,บ้านพรุศรี,Ban Phru Si,84090305,84090305,8.958261941847592,98.90308991074562
84090306,บ้านท่าพรุไทย,Ban Tha Phru Thai,84090306,84090306,8.963636395663169,98.892353028059
84090307,บ้านคลองพิกุล,Ban Khlong Phikun,84090307,84090307,8.977850429190804,98.89369145035744
84090308,บ้านเชี่ยวขวาน,Ban Chiao Khwan,84090308,84090308,8.933214111476486,98.89651045203209
84090309,บ้านควนทอง,Ban Khuan Thong,84090309,84090309,8.961042572565885,98.86635839939117
