id,name.local,name.en,name.slug,code.id,zip_codes,geo.lat,geo.lon
960205,บางขุนทอง,Bang Khun Thong,bang-khun-thong-960205,960205,96110,6.234,101.967
960201,เจ๊ะเห,Chehe,chehe-960201,960201,96110,6.257,102.051
960208,โฆษิต,Khosit,khosit-960208,960208,96110,6.175,102.052
960206,เกาะสะท้อน,Ko Sathon,ko-sathon-960206,960206,96110,6.22,102.059
960207,นานาค,Na Nak,na-nak-960207,960207,96110,6.142,102.07
960202,ไพรวัน,Phrai Wan,phrai-wan-960202,960202,96110,6.3,101.958
960203,พร่อน,Phron,phron-960203,960203,96110,6.202,102.014
960204,ศาลาใหม่,Sala Mai,sala-mai-960204,960204,96110,6.282,102.008
