id,name.th,name.en,name.slug,code.dopa,geo.lat,geo.lon
24051301,บ้านดอนศาลเจ้า,Ban Don San Chao,24051301,24051301,13.603150391137344,101.22071027755737
24051302,บ้านเนินเลียบ,Ban Noen Liap,24051302,24051302,13.59834439709066,101.23332604765892
24051303,บ้านหนองปลาดุก,Ban Nong Pla Duk,24051303,24051303,13.583272730639127,101.22442379593849
24051304,บ้านแหลมประดู่,Ban Laem Pradu,24051304,24051304,13.580759389460493,101.21802806854248
24051305,บ้านวังอู่,Ban Wang U,24051305,24051305,13.598030250878173,101.18950814008713
24051306,บ้านหนองกระสังข์,Ban Nong Krasang,24051306,24051306,13.580033279192232,101.23272523283958
