id,name.th,name.en,name.slug,code.dopa,geo.lat,geo.lon
53070101,บ้านหน้าพระธาตุ,Ban Na Phrathat,53070101,53070101,17.305689227523757,100.06550565361977
53070102,บ้านหน้าพระธาตุ,Ban Na Phrathat,53070102,53070102,17.30245748364937,100.07528766989708
53070103,บ้านในเมือง,Ban Nai Mueang,53070103,53070103,17.294867015637898,100.08381977677345
53070104,บ้านหัวค่าย,Ban Hua Khai,53070104,53070104,17.29023549832589,100.09367555379868
53070105,บ้านวังพะเนียด,Ban Wang Phaniat,53070105,53070105,17.279761974891805,100.07652282714844
53070106,บ้านคลองละวาน,Ban Khlong Lawan,53070106,53070106,17.310905480339986,100.13539060950279
53070107,บ้านคลองกะชี,Ban Khlong Kachi,53070107,53070107,17.312592984544224,100.0882051885128
53070108,บ้านนาใต้-คลองโตงเตง,Ban Na Tai - Khlong Tong Teng,53070108,53070108,17.285373368175467,100.09066075086594
53070109,บ้านห้วยคา,Ban Huai Kha,53070109,53070109,17.31668492585364,100.11901840567589
