id,name.th,name.en,name.slug,code.dopa,geo.lat,geo.lon
81080601,บ้านคลองรั้ว,Ban Khlong Rua,81080601,81080601,7.950557702479167,98.97881805896759
81080602,บ้านตลิ่งชัน,Ban Taling Chan,81080602,81080602,7.99613281355535,98.9670042693615
81080603,บ้านคลองยวน,Ban Khlong Yuan,81080603,81080603,7.974686647513879,98.97595480084419
81080604,บ้านหาดยาว,Ban Hat Yao,81080604,81080604,7.976057280847972,98.95054891705513
81080605,บ้านปากหรา,Ban Pak Sa,81080605,81080605,7.988238715470639,98.95434021949768
81080606,บ้านหลังดา,Ban Lang Da,81080606,81080606,8.008349505638524,98.97548004984856
