id,name.th,name.en,name.slug,code.dopa,geo.lat,geo.lon
84140101,บ้านเคียนซา,Ban Khian Sa,84140101,84140101,8.842317679729343,99.20287102460861
84140102,บ้านปลายหริก,Ban Plai Rik,84140102,84140102,8.834515021814854,99.16129410266876
84140103,บ้านดอนพยอม,Ban Don Phayom,84140103,84140103,8.799907291212733,99.18059259653091
84140104,บ้านปลายคลอง,Ban Plai Khlong,84140104,84140104,8.847648782509284,99.1723769903183
84140105,บ้านบางประ,Ban Bang Pra,84140105,84140105,8.811091479648447,99.19891074299812
84140106,บ้านอุดมรัตน์,Ban Udom Rat,84140106,84140106,8.782013742428594,99.20201942324638
84140107,บ้านสุธรรมเจริญพัฒนา,Ban Sutham Charoen Phatthana,84140107,84140107,8.82697061689362,99.16657403111458
