id,name.th,name.en,name.slug,code.dopa,geo.lat,geo.lon
70080501,บ้านตลาดปากท่อ,Ban Talat Pak Tho,70080501,70080501,13.376301352117643,99.84458953142166
70080502,บ้านโคกพระ,Ban Khok Phra,70080502,70080502,13.384750587208114,99.8363484442234
70080503,บ้านโพธิ์เกี้ยว,Ban Pho Kiao,70080503,70080503,13.380862618992358,99.84417513012886
70080504,บ้านหนองสรวง,Ban Nong Suang,70080504,70080504,13.393780085916633,99.84588369727135
70080505,บ้านดงตาล,Ban Dong Tan,70080505,70080505,13.369540184989326,99.842848777771
70080506,บ้านไร่,Ban Rai,70080506,70080506,13.39370311286135,99.83619019389153
70080507,บ้านตาดง,Ban Ta Dong,70080507,70080507,13.375061862501807,99.84643623232841
70080508,บ้านดอนม่วง,Ban Don Muang,70080508,70080508,13.374097665644408,99.83942493796349
