id,name.th,name.en,name.slug,code.dopa,children_count.villages,zip_codes,geo.lat,geo.lon
571103,บ้านโป่ง,Ban Pong,ban-pong,571103,7,57170,19.302,99.459
571106,แม่เจดีย์,Mae Chedi,mae-chedi,571106,16,57260,19.164,99.367
571107,แม่เจดีย์ใหม่,Mae Chedi Mai,mae-chedi-mai,571107,14,57260,19.098,99.451
571104,ป่างิ้ว,Pa Ngio,pa-ngio,571104,16,57170,19.252,99.441
571101,สันสลี,San Sali,san-sali,571101,13,57170,19.419,99.514
571102,เวียง,Wiang,wiang,571102,12,57170,19.358,99.422
571105,เวียงกาหลง,Wiang Kalong,wiang-kalong,571105,15,57260,19.241,99.525
