id,name.th,name.en,name.slug,code.dopa,geo.lat,geo.lon
60050401,บ้านท่าแรต,Ban Tha Raet,60050401,60050401,15.877699123685998,99.92627754807472
60050402,บ้านคลอง,Ban Khlong,60050402,60050402,15.87081589420554,99.95479479432106
60050403,บ้านอ่างทอง,Ban Ang Thong,60050403,60050403,15.852972065518692,99.96116772294044
60050404,บ้านท่าแรต,Ban Tha Raet,60050404,60050404,15.879329599365425,99.9354399740696
60050405,บ้านหนองขี้วัว,Ban Nong Khi Wua,60050405,60050405,15.859659816146355,99.91863861680031
60050406,บ้านทุ่งไก่เถื่อน,Ban Thung Kai Thuean,60050406,60050406,15.890040877169662,99.9576486647129
60050407,บ้านคลองใต้,Ban Khlong Tai,60050407,60050407,15.867812792384466,99.95670452713966
