id,name.th,name.en,name.slug,code.dopa,geo.lat,geo.lon
92030301,บ้านไทรงาม,Ban Sai Ngam,92030301,92030301,7.468417702095531,99.76337626576424
92030302,บ้านควนหิน,Ban Khuan Hin,92030302,92030302,7.47669650682576,99.76415410637856
92030303,บ้านต้นปรง,Ban Ton Prong,92030303,92030303,7.477950414255203,99.73563015460968
92030304,บ้านลำพิกุล,Ban Lam Phikun,92030304,92030304,7.464609346060252,99.78551656007767
92030305,บ้านมาบเมา,Ban Map Mao,92030305,92030305,7.444997915276041,99.74190920591354
92030306,บ้านหนองเป็ด,Ban Nong Pet,92030306,92030306,7.453992580717699,99.7434675693512
92030307,บ้านทอนพลา,Ban Thon Phla,92030307,92030307,7.4442000353892555,99.75091606378555
92030308,บ้านลำขนุน,Ban Lam Khanun,92030308,92030308,7.464425842033695,99.78557422757149
92030309,บ้านโคกโดน,Ban Khok Don,92030309,92030309,7.469385742614511,99.75469931960106
