id,name.th,name.en,name.slug,code.dopa,geo.lat,geo.lon
71060401,บ้านท่าล้อ,Ban Tha Lo,71060401,71060401,13.989165548894123,99.56638276576996
71060402,บ้านท่านกเอี้ยง,Ban Na Nok Iang,71060402,71060402,13.979613593523377,99.5767092704773
71060403,บ้านศาลตึก,Ban San Tuek,71060403,71060403,13.977959529367963,99.60300162434578
71060404,บ้านหัวกวด,Ban Hua Kuat,71060404,71060404,13.966557745774397,99.61470142006874
71060405,บ้านดงไม้แดง,Ban Dong Mai Daeng,71060405,71060405,13.988605976614455,99.61678683757782
71060406,บ้านหนองสองตอน,Ban Nong Song Ton,71060406,71060406,13.998265564611792,99.60157871246338
