id,name.th,name.en,name.slug,code.dopa,geo.lat,geo.lon
62070401,บ้านฟากทุ่ง,Ban Fak Thung,62070401,62070401,16.58696356485267,99.85280245542526
62070402,บ้านโนนทอง,Ban Non Thong,62070402,62070402,16.591809076769586,99.86328586935997
62070403,บ้านเกาะสีเสียด,Ban Ko Sisiat,62070403,62070403,16.556903241740535,99.88556563854218
62070404,บ้านอินทรานุสรณ์,Ban Inthra Nuson,62070404,62070404,16.53393772806217,99.8513326048851
62070405,บ้านโนนพลวง,Ban Non Phluang,62070405,62070405,16.576007373900207,99.84569996595383
62070406,บ้านคุยมะม่วง,Ban Khui Mamuang,62070406,62070406,16.556425035686864,99.86165776848793
62070407,บ้านหนองสะเดือย,Ban Nong Sadueai,62070407,62070407,16.57304971239146,99.8336823284626
62070408,บ้านบัวสวรรค์,Ban Bua Sawan,62070408,62070408,16.558290289683896,99.85197097063065
