id,name.th,name.en,name.slug,code.dopa,geo.lat,geo.lon
92020401,บ้านหลังวัด,Ban Lang Wat,92020401,92020401,7.405400047300778,99.5268215239048
92020402,บ้านเกาะปอม,Ban Ko Pom,92020402,92020402,7.417006092143954,99.54142615199089
92020403,บ้านตลาดใหม่,Ban Talat Mai,92020403,92020403,7.398864779951188,99.54059198498726
92020404,บ้านแหลมม่วง,Ban Laem Muang,92020404,92020404,7.424441407068341,99.51838061213493
92020405,บ้านป่าเตียว,Ban Pa Tiao,92020405,92020405,7.429403089941852,99.5471379160881
92020406,บ้านควนทองสีห์,Ban Khuan Thong Si,92020406,92020406,7.429566660950925,99.52539727091789
92020407,บ้านท่าเรือ,Ban Tha Ruea,92020407,92020407,7.416412963774983,99.534060806036
