id,name.th,name.en,name.slug,code.dopa,geo.lat,geo.lon
21050401,บ้านเก่า,Ban Kao,21050401,21050401,12.728058301820862,101.28900200128555
21050402,บ้านน้ำโรง,Ban Nam Rong,21050402,21050402,12.728327780419685,101.29223272204399
21050403,บ้านหนองคอกหมู,Ban Nong Khok Mu,21050403,21050403,12.733048842045047,101.31911650300026
21050404,บ้านหนองตะแบก,Ban Nong Tabaek,21050404,21050404,12.748188611149402,101.30728662014008
21050405,บ้านตาขัน,Ban Ta Khan,21050405,21050405,12.720214517774817,101.30391508340836
21050406,บ้านหนองพังงาน,Ban Nong Phang Ngan,21050406,21050406,12.715327074114818,101.31624788045883
21050407,บ้านหนองหว้า,Ban Nong Wa,21050407,21050407,12.740905309991527,101.33326381444931
21050408,บ้านหนองฆ้อ,Ban Nong Kho,21050408,21050408,12.752679090981374,101.33155256509781
21050409,บ้านยางขาคีม,Ban Yang Kha Khim,21050409,21050409,12.748204307692973,101.3072919845581
