id,name.th,name.en,name.slug,code.dopa,geo.lat,geo.lon
20100401,บ้านเนินหิน,Ban Noen Hin,20100401,20100401,13.299454011533332,101.36174350976944
20100402,บ้านเนินดินแดง,Ban Noen Din Daeng,20100402,20100402,13.258876503829885,101.38717085123062
20100403,บ้านโปร่งเกตุ,Ban Prong Ket,20100403,20100403,13.235452074044023,101.41364827752113
20100404,บ้านบึงตะกู,Ban Bueng Taku,20100404,20100404,13.330643484576877,101.34480133652687
20100405,บ้านคลองมือไทร,Ban Khlong Mue Sai,20100405,20100405,13.288818212664934,101.38818874955177
20100406,บ้านเขากระถิน,Ban Khao Krathin,20100406,20100406,13.309319345176085,101.33317664265633
20100407,บ้านหนองเสือช่อ,Ban Nong Suea Cho,20100407,20100407,13.224108482860718,101.43540099263191
20100408,บ้านห้วยซุง,Ban Huai Sung,20100408,20100408,13.29958844065987,101.35777786374092
20100409,บ้านหนองน้ำขาว,Ban Nong Nam Khao,20100409,20100409,13.233116556774807,101.41359463334084
