id,name.th,name.en,name.slug,code.dopa,geo.lat,geo.lon
58050301,บ้านแม่สะกึ๊ด,Ban Mae Sakit,58050301,58050301,18.2966550,98.0183951
58050302,บ้านห้วยผึ้ง,Ban Huai Phueng,58050302,58050302,18.3068153,98.0347257
58050303,บ้านห้วยหมากหนุน,Ban Huai Mak Nun,58050303,58050303,13.683707606781773,100.50833836197853
58050304,บ้านท่าผาปุ้ม,Ban Tha Pha Pum,58050304,58050304,18.3051378,97.9095102
58050305,บ้านแม่เตี๋ย,Ban Mae Tia,58050305,58050305,18.2965798,97.9147536
58050306,บ้านแม่สะกั๊วะ,Ban Mae Sakua,58050306,58050306,18.3493483,98.0092166
58050307,บ้านแม่กวางเหนือ,Ban Mae Khwan Nuea,58050307,58050307,18.3163875,98.0163362
58050308,บ้านใหม่พัฒนา,Ban Mai Phatthana,58050308,58050308,18.3089270,97.9088151
