id,name.th,name.en,name.slug,code.dopa,geo.lat,geo.lon
90080101,บ้านทุ่งบัว,Ban Thung Bua,90080101,90080101,13.56258771426678,100.47812595963478
90080102,บ้านอ่าวบัว,Ban Ao Bua,90080102,90080102,7.537656428130275,100.27047738432884
90080103,บ้านไร่,Ban Rai,90080103,90080103,7.522483727742385,100.28868690133095
90080104,บ้านแหลมบ่อท่อ,Ban Laem Bo Tho,90080104,90080104,7.542961163821663,100.29934868216515
90080105,บ้านยางทอง,Ban Yang Thong,90080105,90080105,7.555442325432325,100.3002767264843
90080106,บ้านแหลมหาด,Ban Laem Hat,90080106,90080106,13.72706875088845,100.5340875685215
90080107,บ้านเกาะใหญ่,Ban Ko Yai,90080107,90080107,13.554577603942045,100.47812595963478
90080108,บ้านแหลมคูลา,Ban Laem Khula,90080108,90080108,13.72706875088845,100.5340875685215
90080109,บ้านแหลมชัน,Ban Laem Chan,90080109,90080109,13.72706875088845,100.5340875685215
