id,name.th,name.en,name.slug,code.dopa,geo.lat,geo.lon
50110601,บ้านโป่ง,Ban Pong,50110601,50110601,19.372703067801467,99.18055638670921
50110602,บ้านสันต้นม่วง,Ban San Ton Muang,50110602,50110602,19.379242611880436,99.18560564517975
50110603,บ้านดงหลวง,Ban Dong Luang,50110603,50110603,19.39225892637463,99.17058393359184
50110604,บ้านป่าฮิ้น,Ban Pa Hin,50110604,50110604,19.38481284641397,99.15541872382164
50110605,บ้านป่าลัน,Ban Pa Lan,50110605,50110605,19.378350698809687,99.15353178977966
50110606,บ้านทุ่งน้อย,Ban Thung Noi,50110606,50110606,19.38747707928713,99.17450398206711
50110607,บ้านหนองไฮ,Ban Nong Hai,50110607,50110607,19.386267679834074,99.16588738560677
50110608,บ้านดงป่าแดง,Ban Dong Pa Daeng,50110608,50110608,19.396599153262358,99.16481047868729
