id,name.th,name.en,name.slug,code.dopa,geo.lat,geo.lon
91010301,บ้านควนดินแดง,Ban Khuan Din Daeng,91010301,91010301,6.644185600944589,100.0597120821476
91010302,บ้านกะดุ,Ban Kadu,91010302,91010302,6.637834119427759,100.05572900176048
91010303,บ้านนาลาน,Ban Na Lan,91010303,91010303,6.633568669947973,100.04756435751915
91010304,บ้านไทรงาม,Ban Sai Ngam,91010304,91010304,6.61580844421765,100.04947274923325
91010305,บ้านเนินสูง,Ban Noen Sung,91010305,91010305,6.6472587401021395,100.02575531601906
91010306,บ้านท่าหิน,Ban Tha Hin,91010306,91010306,6.622995471259192,100.0214584171772
