id,name.local,name.en,name.slug,code.id,zip_codes,geo.lat,geo.lon
100303,คลองสิบ,Khlong Sip,khlong-sip-100303,100303,10530,13.914,100.82
100304,คลองสิบสอง,Khlong Sip Song,khlong-sip-song-100304,100304,10530,13.914,100.88
100305,โคกแฝด,Khok Faet,khok-faet-100305,100305,10530,13.84,100.836
100306,คู้ฝั่งเหนือ,Khu Fang Nuea,khu-fang-nuea-100306,100306,10530,13.872,100.81
100301,กระทุ่มราย,Krathum Rai,krathum-rai-100301,100301,10530,13.823,100.897
100307,ลำผักชี,Lam Phak Chi,lam-phak-chi-100307,100307,10530,13.797,100.844
100308,ลำต้อยติ่ง,Lam Toiting,lam-toiting-100308,100308,10530,13.781,100.877
100302,หนองจอก,Nong Chok,nong-chok-100302,100302,10530,13.869,100.885
