id,name.th,name.en,name.slug,code.dopa,geo.lat,geo.lon
17020801,บ้านทุ่งว้า,Ban Thung Wa,17020801,17020801,14.909320098021716,100.22101879119873
17020802,บ้านดอนเจดีย์,Ban Don Chedi,17020802,17020802,14.88938868035295,100.22334292531013
17020803,บ้านสามัคคีธรรม,Ban Samakkhi Tham,17020803,17020803,14.844399812819228,100.22259458899498
17020804,บ้านโพตะโกน,Ban Pho Takon,17020804,17020804,14.886745966899904,100.24163693189621
17020805,บ้านคีม,Ban Khim,17020805,17020805,14.869136554823983,100.23822113871574
17020806,บ้านหุบพรหม,Ban Hup Phrom,17020806,17020806,14.87054681242496,100.2446074783802
