id,name.th,name.en,name.slug,code.dopa,geo.lat,geo.lon
77080501,บ้านไร่ใหม่,Ban Rai Mai,77080501,77080501,12.201608837814922,99.8624275624752
77080502,บ้านสิบสองหุ้น,Ban Sip Song Hun,77080502,77080502,12.199854969698439,99.84584346413612
77080503,บ้านหนองแก,Ban Nong Kae,77080503,77080503,12.212080683146873,99.80636939406395
77080504,บ้านหนองจิก,Ban Nong Chik,77080504,77080504,12.231653494601556,99.79547157883644
77080505,บ้านเกาะไผ่,Ban Ko Phai,77080505,77080505,12.203674664592386,99.90636482834816
77080506,บ้านไร่ใหม่,Ban Rai Mai,77080506,77080506,12.210343924324174,99.86010208725929
77080507,บ้านวังไทร,Ban Wang Sai,77080507,77080507,12.198043413612995,99.77246358990669
