id,name.th,name.en,name.slug,code.dopa,geo.lat,geo.lon
80160201,บ้านหน้าสตน,Ban Na Saton,80160201,80160201,8.097008114063476,100.30733227729797
80160202,บ้านหน้าสตน,Ban Na Saton,80160202,80160202,8.090565892063097,100.30743151903152
80160203,บ้านหน้าศาล,Ban Na San,80160203,80160203,8.040242121723592,100.31625732779503
80160204,บ้านบางทราย,Ban Bang Sai,80160204,80160204,8.080047269575394,100.29492035508156
80160205,บ้านปากระวะ,Ban Pak Rawa,80160205,80160205,7.932817699197909,100.3340296447277
80160206,บ้านโพธิ์ทะเลงาม,Ban Pho Thale Ngam,80160206,80160206,7.98954555517491,100.3243388235569
80160207,บ้านหน้าศาล,Ban Na San,80160207,80160207,8.04103621803375,100.31634852290154
80160208,บ้านเกาะยาว,Ban Ko Yao,80160208,80160208,8.06763488934015,100.3116238117218
80160209,บ้านแพรกเมือง,Ban Phraek Mueang,80160209,80160209,8.015528749582835,100.32055154442787
