id,name.th,name.en,name.slug,code.dopa,geo.lat,geo.lon
33052701,บ้านเคาะ,Ban Kho,33052701,33052701,14.631928659334172,104.29527148604393
33052702,บ้านสนวนตะวันตก,Ban Sanuan Tawan Tok,33052702,33052702,14.641620298455146,104.29565906524658
33052703,บ้านสนวนตะวันออก,Ban Sanuan Tawan Ok,33052703,33052703,14.648059960543762,104.3059279024601
33052704,บ้านละเบิก,Ban Laboek,33052704,33052704,14.647775804549433,104.28386002779007
33052705,บ้านตาฮีง,Ban Tahing,33052705,33052705,15.068992286467662,104.29546192288399
33052706,บ้านโนน,Ban Non,33052706,33052706,12.94101486159164,100.43727055191994
33052707,บ้านหนองทับ,Ban Nong Thap,33052707,33052707,13.72706875088845,100.5340875685215
