id,name.th,name.en,name.slug,code.dopa,geo.lat,geo.lon
33080401,บ้านโพธิ์,Ban Pho,33080401,33080401,14.652597323935925,104.44696515798569
33080402,บ้านเขวา,Ban Khwao,33080402,33080402,14.657047663451158,104.44581180810928
33080403,บ้านกระมัล,Ban Kraman,33080403,33080403,13.72706875088845,100.5340875685215
33080404,บ้านปรือ,Ban Prue,33080404,33080404,14.664393769534234,104.45120573043823
33080405,บ้านตาหมื่น,Ban Ta Muen,33080405,33080405,14.67758163007823,104.46688324213028
33080406,บ้านกระมัลพัฒนา,Ban Kraman Phatthana,33080406,33080406,14.678120025598961,104.43880453705788
33080407,บ้านโนนแดง,Ban Non Daeng,33080407,33080407,14.64534035199368,104.45917591452599
33080408,บ้านโนนสันติสุข,Ban Non Santi Suk,33080408,33080408,14.684706506406693,104.47752222418785
