id,name.th,name.en,name.slug,code.dopa,geo.lat,geo.lon
21070401,บ้านทรัพย์แสน,Ban Sap Saen,21070401,21070401,12.990030646416898,101.63093000650406
21070402,บ้านมะเดื่อ,Ban Maduea,21070402,21070402,13.048712704059595,101.62539258599281
21070403,บ้านเขาน้อย,Ban Khao Noi,21070403,21070403,13.085858224189574,101.60098046064377
21070404,บ้านคลองยาง,Ban Khlong Yang,21070404,21070404,13.105840862927613,101.61048620939255
21070405,บ้านตะขบ,Ban Takhop,21070405,21070405,13.09003174880212,101.62633404135704
