id,name.th,name.en,name.slug,code.dopa,geo.lat,geo.lon
90031201,บ้านโคกยาง,Ban Khok Yang,90031201,90031201,6.816398048435309,100.6954774260521
90031202,บ้านแคเหนือ,Ban Khae Nuea,90031202,90031202,6.810775894647636,100.69858074188232
90031203,บ้านแคใต้,Ban Khae Tai,90031203,90031203,6.817552565935303,100.70045560598373
90031204,บ้านเพนียด,Ban Phaniat,90031204,90031204,6.810047486669882,100.68843796849251
90031205,บ้านทุ่งครก,Ban Thung Khrok,90031205,90031205,6.815033130848834,100.67799612879753
90031206,บ้านคูนายสังข์,Ban Khu Nai Sang,90031206,90031206,6.833690218733202,100.61905458569527
90031207,บ้านสำนักยอ,Ban Samnak Yo,90031207,90031207,6.831170868567643,100.59159681200981
