id,name.th,name.en,name.slug,code.dopa,geo.lat,geo.lon
71050101,บ้านปากบาง,Ban Pak Bang,71050101,71050101,13.868242970977326,99.8020376265049
71050102,บ้านปลักสะแก,Ban Plak Sakae,71050102,71050102,13.87369963331304,99.79772195219994
71050103,บ้านพงตึก,Ban Phong Tuek,71050103,71050103,13.882149329572371,99.79663699865341
71050104,บ้านอู่ตะเภา,Ban U Taphao,71050104,71050104,13.894599376221484,99.78512763977051
71050105,บ้านหนองใหญ่,Ban Nong Yai,71050105,71050105,13.87247837286106,99.76858109235764
71050106,บ้านหนองพันท้าว,Ban Nong Phan Thao,71050106,71050106,13.870397788543885,99.76848319172859
