id,name.th,name.en,name.slug,code.dopa,geo.lat,geo.lon
56060601,บ้านนาปรัง,Ban Na Prang,56060601,56060601,19.16534027186011,100.27971759438515
56060602,บ้านบุญยืน,Ban Bun Yuen,56060602,56060602,19.161724859294377,100.27394279837608
56060603,บ้านหมุ้น,Ban Mun,56060603,56060603,19.17904746301104,100.29877200722694
56060604,บ้านดอนแก้ว,Ban Don Kaeo,56060604,56060604,19.169106347864826,100.28994619846344
56060605,บ้านบ่อค้าง,Ban Bo Khang,56060605,56060605,19.167465904884708,100.27422845363617
56060606,บ้านห้วยแม่แดง,Ban Huai Mae Daeng,56060606,56060606,19.203482220592743,100.2705766260624
56060607,บ้านหนองท่าควาย,Ban Nong Tha Khwai,56060607,56060607,19.184635910102273,100.30465543270111
56060608,บ้านห้วยคอกหมู,Ban Huai Khok Mu,56060608,56060608,19.22090173859014,100.25515392422676
56060609,บ้านแสนสุข,Ban Saen Suk,56060609,56060609,19.171634751554322,100.28642043471336
