id,name.th,name.en,name.slug,code.dopa,geo.lat,geo.lon
95010201,บ้านบุดี,Ban Budi,95010201,95010201,6.5070045302857915,101.31563633680344
95010202,บ้านนิบง,Ban Nibong,95010202,95010202,6.49995973779386,101.31139039993286
95010203,บ้านจือนือแร,Ban Chue Nue Rae,95010203,95010203,6.493325257200766,101.30395397543907
95010204,บ้านบือแน,Ban Bue Nae,95010204,95010204,6.488900000700808,101.30917221307755
95010205,บ้านไบ้ก์,Ban Bai,95010205,95010205,6.471458435315109,101.31642356514931
95010206,บ้านบูเกะคละ,Ban Bu Ko Khla,95010206,95010206,6.477609490913529,101.32173970341682
95010207,บ้านรั้วตะวัน,Ban Rua Tawan,95010207,95010207,6.501027056185598,101.28980532288551
95010208,บ้านบุดีฮิเล,Ban Budi Hile,95010208,95010208,6.518840678453554,101.31803825497627
9501029,บาลูกาบารู,Baluka Baru,9501029,9501029,6.497514624075826,101.2975300848484
