id,name.th,name.en,name.slug,code.dopa,geo.lat,geo.lon
94030601,บ้านท่ากำซำ,Ban Tha Kamcham,94030601,94030601,6.837382667265282,101.08888104557991
94030602,บ้านปรัง,Ban Prang,94030602,94030602,6.816688342601301,101.07715710997581
94030603,บ้านท่ายามู,Ban Tha Yamu,94030603,94030603,6.835156282671849,101.06916144490242
94030604,บ้านตันหยงเปาว์,Ban Tanyong Pao,94030604,94030604,6.8562492620605004,101.0984243452549
94030605,บ้านบางราพา,Ban Bang Ra Pha,94030605,94030605,6.852100246423654,101.06508448719978
94030606,บ้านเกาะหม้อแกง,Ban Ko Mo Kaeng,94030606,94030606,6.804228172998839,101.07405915856361
94030607,บ้านปาแด,Ban Pa Dae,94030607,94030607,6.805072443933848,101.05509862303734
