id,name.th,name.en,name.slug,code.dopa,geo.lat,geo.lon
60100501,บ้านตานิว,Ban Ta Nio,60100501,60100501,15.551774451486178,100.11251673102379
60100502,บ้านหาดสะแก,Ban Hat Sakae,60100502,60100502,15.520422862689381,100.09023562073708
60100503,บ้านมะขามเทศ,Ban Makham Thet,60100503,60100503,15.520559835983173,100.09023562073708
60100504,บ้านมะขามเทศ,Ban Makham Thet,60100504,60100504,15.524803378634688,100.09158343076706
60100505,บ้านยางขาว,Ban Yang Khao,60100505,60100505,15.519471800330388,100.09147346019745
60100506,บ้านยางขาว,Ban Yang Khao,60100506,60100506,15.516463519876279,100.092743486166
60100507,บ้านท่าโก,Ban Tha Ko,60100507,60100507,15.50988856871257,100.10069623589516
60100508,บ้านดอนกระชาย,Ban Don Krachai,60100508,60100508,15.503672669586317,100.0455379486084
60100509,บ้านดอนกระชายใหม่,Ban Don Krachai Mai,60100509,60100509,15.496115124875468,100.03328695893288
