id,name.th,name.en,name.slug,code.dopa,geo.lat,geo.lon
14140701,บ้านคุ้งระกำ,Ban Khung Rakam,14140701,14140701,14.38740000366996,100.68396404385567
14140702,บ้านละมุใหม่,Ban Lamu Mai,14140702,14140702,14.397145223283466,100.68699225783348
14140703,บ้านละมุเก่า,Ban Lamu Kao,14140703,14140703,14.403394566372675,100.67702382802963
14140704,บ้านข่อยโทน,Ban Khoi Thon,14140704,14140704,14.395579937424582,100.71598157286644
14140705,บ้านดอนกระแส,Ban Don Krasae,14140705,14140705,14.397134831380352,100.72477251291275
14140706,บ้านแม่ลา,Ban Mae La,14140706,14140706,14.382980610372055,100.70209711790085
