id,name.th,name.en,name.slug,code.dopa,geo.lat,geo.lon
76030301,บ้านยางน้ำกลัดใต้,Ban Yang Nam Klat Tai,76030301,76030301,13.056569720570309,99.71859410405159
76030302,บ้านโปร่งวิเชียร,Ban Prong Wichian,76030302,76030302,13.052638630629874,99.71307143568993
76030303,บ้านพุพลูล่าง,Ban Phu Phlu Lang,76030303,76030303,13.12656241781885,99.68793645501137
76030304,บ้านพุพลูบน,Ban Phu Phlu Bon,76030304,76030304,13.1246895170534,99.68829318881035
76030305,บ้านวังหิน,Ban Wang Hin,76030305,76030305,13.059846234283212,99.67134565114975
76030306,บ้านห้วยรางโพธิ์,Ban Huai Rang Pho,76030306,76030306,13.075872828795784,99.63221356272697
76030307,บ้านปากรัตน์,Ban Pak Rat,76030307,76030307,13.054653175061945,99.66520071029663
