id,name.local,name.en,name.slug,code.id,zip_codes,geo.lat,geo.lon
441004,ดงบัง,Dong Bang,dong-bang-441004,441004,44180,15.663,103.257
441005,ดงดวน,Dong Duan,dong-duan-441005,441005,44180,15.731,103.162
441007,ดงยาง,Dong Yang,dong-yang-441007,441007,44180,15.757,103.296
441006,หัวดง,Hua Dong,hua-dong-441006,441006,44180,15.691,103.194
441008,กู่สันตรัตน์,Ku Santarat,ku-santarat-441008,441008,44180,15.719,103.277
441001,นาดูน,Na Dun,na-dun-441001,441001,44180,15.738,103.205
441003,หนองคู,Nong Khu,nong-khu-441003,441003,44180,15.782,103.226
441002,หนองไผ่,Nong Phai,nong-phai-441002,441002,44180,15.726,103.318
441009,พระธาตุ,Phra That,phra-that-441009,441009,44180,15.697,103.258
