id,name.local,name.en,name.slug,code.id,zip_codes,geo.lat,geo.lon
801106,บางรูป,Bang Rup,bang-rup-801106,801106,80240,8.4,99.279
801107,กรุงหยัน,Krung Yan,krung-yan-801107,801107,80240,8.187,99.403
801104,กุแหระ,Kurae,kurae-801104,801104,80240,8.194,99.337
801105,ปริก,Prik,prik-801105,801105,80240,8.28,99.432
801101,ท่ายาง,Tha Yang,tha-yang-801101,801101,80240,8.305,99.346
801102,ทุ่งสัง,Thung Sang,thung-sang-801102,801102,80240,8.372,99.342
801103,ทุ่งใหญ่,Thung Yai,thung-yai-801103,801103,80240,8.366,99.429
