id,name.th,name.en,name.slug,code.dopa,geo.lat,geo.lon
60020801,บ้านเนินกะพี้,Ban Noen Kaphi,60020801,60020801,15.529984930775576,99.98846590518951
60020802,บ้านเนินกลาง,Ban Noen Klang,60020802,60020802,15.521032780807955,99.97163906693459
60020803,บ้านเนินศาลา,Ban Noen Sala,60020803,60020803,15.521115481430977,99.96976152062416
60020804,บ้านเนินศาลา,Ban Noen Sala,60020804,60020804,15.524281339728958,99.96958985924721
60020805,บ้านท่ารวก,Ban Tha Ruak,60020805,60020805,15.50594970050343,99.95454534888268
60020806,บ้านเนินไร่,Ban Noen Rai,60020806,60020806,15.51652554672019,99.96125355362892
60020807,บ้านหนองเขาวัว,Ban Nong Khao Wua,60020807,60020807,15.536853840056626,99.98260125517845
60020808,บ้านเขาถ้ำพระ,Ban Khao Tham Phra,60020808,60020808,15.564163112268272,99.9631230533123
