id,name.th,name.en,name.slug,code.dopa,geo.lat,geo.lon
33011201,บ้านโพนค้อ,Ban Phon Kho,33011201,33011201,15.024867455988533,104.36706483364105
33011202,บ้านโพนค้อ,Ban Phon Kho,33011202,33011202,15.02140132089896,104.36960622668266
33011203,บ้านยานาง,Ban Ya Nang,33011203,33011203,15.01530565686354,104.36917304992676
33011204,บ้านกลาง,Ban Klang,33011204,33011204,15.016543974136853,104.36943456530571
33011205,บ้านโนน,Ban Non,33011205,33011205,15.000279477903916,104.3728007376194
33011206,บ้านทานตะวันออก,Ban Than Tawan Ok,33011206,33011206,15.018165692594868,104.36844080686569
