id,name.th,name.en,name.slug,code.dopa,geo.lat,geo.lon
93080601,บ้านน้ำตก,Ban Nam Tok,93080601,93080601,7.315959319996959,100.2480648458004
93080602,บ้านควนเคี่ยม,Ban Khuan Khiam,93080602,93080602,7.34703139548399,100.23027643561363
93080603,บ้านโหนด,Ban Not,93080603,93080603,7.278834931177444,100.18360197544098
93080604,บ้านท่าดินแดงออก,Ban Tha Din Daeng Ok,93080604,93080604,7.329843591510964,100.19729197025299
93080605,บ้านควนออก,Ban Khuan Ok,93080605,93080605,7.295487279260357,100.19289448857307
93080606,บ้านควนนายทน,Ban Khuan Nai Thon,93080606,93080606,7.234174643535635,100.14134913682938
93080607,บ้านน้ำรุ้ง,Ban Nam Rung,93080607,93080607,7.275857716690273,100.16988784074783
93080608,บ้านควนช้างตาย,Ban Khuan Chang Tai,93080608,93080608,7.309376178019963,100.21476656198502
