id,name.th,name.en,name.slug,code.dopa,geo.lat,geo.lon
30040901,บ้านดอนใหญ่,Ban Don Yai,30040901,30040901,15.389720657401453,102.31621831655502
30040902,บ้านศรีนิมิต,Ban Si Nimit,30040902,30040902,15.41011828684652,102.32523322105408
30040903,บ้านดอนน้อย,Ban Don Noi,30040903,30040903,15.38597863382845,102.31164246797562
30040904,บ้านหนองแขม,Ban Nong Khaem,30040904,30040904,15.430441,102.315758
30040905,บ้านไทรโยง,Ban Sai Yong,30040905,30040905,15.3870118,102.3374768
30040906,บ้านสี่เหลี่ยม,Ban Si Liam,30040906,30040906,15.400906,102.364612
30040907,บ้านโนนมะเกลือ,Ban Non Makluea,30040907,30040907,15.428153,102.321777
