id,name.th,name.en,name.slug,code.dopa,geo.lat,geo.lon
24051701,บ้านหนองตับปอ,Ban Nong Tap Po,24051701,24051701,13.613933868125159,101.14080592989922
24051702,บ้านสามกอ,Ban Sam Ko,24051702,24051702,13.607348875672328,101.13011062145233
24051703,บ้านหนองหน้าบ้าน,Ban Nong Na Ban,24051703,24051703,13.590789130394546,101.12870648503304
24051704,บ้านดอนควายโทน,Ban Don Khwai Thon,24051704,24051704,13.602163651740613,101.14756375551224
24051705,บ้านหนองแบน,Ban Nong Baen,24051705,24051705,13.606566797887881,101.16464272141457
