id,name.th,name.en,name.slug,code.dopa,geo.lat,geo.lon
61020201,บ้านหนองโรง,Ban Nong Rong,61020201,61020201,15.436973750295035,99.93075951933861
61020202,บ้านทุ่งกระถิน,Ban Thung Krathin,61020202,61020202,15.4488509455219,99.91141274571419
61020203,บ้านเขาโคกโค,Ban Khao Khok Kho,61020203,61020203,15.451785237020815,99.9262923002243
61020204,บ้านวัดมะเดื่อ,Ban Wat Maduea,61020204,61020204,15.46260427002148,99.9033835530281
61020205,บ้านวังขอน,Ban Wang Khon,61020205,61020205,15.469841202607542,99.91283968091011
61020206,บ้านดอนกลาง,Ban Don Klang,61020206,61020206,15.46450691370261,99.92058053612709
61020207,บ้านเขาโคกโค,Ban Khao Khok Kho,61020207,61020207,15.454750509666951,99.930469840765
