id,name.th,name.en,name.slug,code.dopa,geo.lat,geo.lon
64061001,บ้านทับผึ้ง,Ban Thap Phueng,64061001,64061001,17.109700262831588,99.82201874256134
64061002,บ้านเกาะวงเกียรติ์,Ban Ko Wong Kiat,64061002,64061002,13.72706875088845,100.5340875685215
64061003,บ้านเกาะวงเกียรติ์,Ban Ko Wong Kiat,64061003,64061003,13.72706875088845,100.5340875685215
64061004,บ้านเตว็ดกลาง,Ban Tawet Klang,64061004,64061004,17.080975277487564,99.83251959085464
64061005,บ้านเตว็ดนอก,Ban Tawet Nok,64061005,64061005,17.087534896082083,99.83726978302002
64061006,บ้านท่าช้าง,Ban Tha Chang,64061006,64061006,17.07331034578155,99.83722016215324
64061007,บ้านท่าช้าง,Ban Tha Chang,64061007,64061007,17.06431175764884,99.83330145478249
64061008,บ้านทับผึ้ง,Ban Thap Phueng,64061008,64061008,17.107173913402566,99.8231291770935
64061009,บ้านเตว็ดนอก,Ban Tawet Nok,64061009,64061009,17.08261231941362,99.83545392751694
