id,name.th,name.en,name.slug,code.dopa,geo.lat,geo.lon
31050501,บ้านโคกสว่าง,Ban Khok Sawang,31050501,31050501,14.79349801321734,102.50913351774216
31050502,บ้านโนนมะกอก,Ban Non Makok,31050502,31050502,14.792341398269912,102.50794798135757
31050503,บ้านตะกรุมทอง,Ban Takrum Thong,31050503,31050503,14.785505314974664,102.49480918049812
31050504,บ้านโคกลอย,Ban Khok Loi,31050504,31050504,14.762674453092009,102.52672478556633
31050505,บ้านโนนพะไล,Ban Non Phalai,31050505,31050505,13.72706875088845,100.5340875685215
31050506,บ้านเขื่อนด่าน,Ban Khuean Dan,31050506,31050506,14.792550159944003,102.44245648384094
31050507,บ้านโคกล่าม,Ban Khok Lam,31050507,31050507,14.762649813242632,102.52436444163322
31050508,บ้านหนองแสง,Ban Nong Saeng,31050508,31050508,14.763791024388366,102.50690326094627
31050509,บ้านไทรทอง,Ban Sai Thong,31050509,31050509,14.794755760141609,102.5124004483223
