id,name.th,name.en,name.slug,code.dopa,geo.lat,geo.lon
67070901,บ้านบัววัฒนา,Ban Bua Watthana,67070901,67070901,15.941234039726865,101.03103920817375
67070902,บ้านไร่เหนือ,Ban Rai Nuea,67070902,67070902,15.937897995656098,100.99560990929604
67070903,บ้านเนินมะค่า,Ban Noen Makha,67070903,67070903,15.956431874486192,101.04211673140526
67070904,บ้านวังอ่าง,Ban Wang Ang,67070904,67070904,15.973420724722448,100.97437083721161
67070905,บ้านโคกพัฒนา,Ban Khok Phatthana,67070905,67070905,15.950233473669226,101.00632131099701
67070906,บ้านลำตาเณร,Ban Lam Ta Nen,67070906,67070906,15.966427310620864,100.94338998198509
67070907,บ้านซับวารินทร์,Ban Sap Warin,67070907,67070907,15.931332777483705,100.98109915852547
67070908,บ้านลำประสาน,Ban Lam Prasan,67070908,67070908,15.976293317395882,100.90258687734604
