id,name.th,name.en,name.slug,code.dopa,geo.lat,geo.lon
71051001,บ้านหนองแก,Ban Nong Kae,71051001,71051001,14.03605416460088,99.75576147437096
71051002,บ้านหนองทะเบียน,Ban Nong Thabian,71051002,71051002,14.046977633812793,99.78241056203842
71051003,บ้านหนองซ่อนผึ้ง,Ban Nong Son Phueng,71051003,71051003,14.049524980619184,99.79530662298203
71051004,บ้านหนองสามเกวียน,Ban Nong Sam Kwian,71051004,71051004,14.081490601034371,99.79967057704926
71051005,บ้านดอนตาลเสี้ยน,Ban Don Tan Sian,71051005,71051005,14.068696823637152,99.77037817239761
71051006,บ้านดอนตาไล้,Ban Don Talai,71051006,71051006,14.02677739375526,99.76486757397652
71051007,บ้านแจงงาม,Ban Chaeng Ngam,71051007,71051007,14.061721409226363,99.78176280856133
71051008,บ้านหนองพงษ์,Ban Nong Phong,71051008,71051008,14.082199538772624,99.77228924632072
