id,name.th,name.en,name.slug,code.dopa,geo.lat,geo.lon
71080301,บ้านเสน่ห์พ่อง,Ban Sane Phong,71080301,71080301,15.222641391166922,98.48124414682388
71080302,บ้านกองม่องทะ,Ban Kong Mong Tha,71080302,71080302,15.170196123626834,98.5552342236042
71080303,บ้านเกาะสะเดิ่ง,Ban Ko Sadoeng,71080303,71080303,15.2107,98.556
71080304,บ้านไล่โว่,Ban Laiwo,71080304,71080304,15.330237287681967,98.64787235856056
71080305,บ้านทิไล่ป้า,Ban Thi Lai Pa,71080305,71080305,15.368142,98.582558
71080306,บ้านจะแก,Ban Cha Kae,71080306,71080306,15.462627,98.655548
