id,name.th,name.en,name.slug,code.dopa,geo.lat,geo.lon
95060401,บ้านกอตอตือร๊ะ,Ban Koto Tuera,95060401,95060401,6.5004207769775855,101.38484805822372
95060402,บ้านบาต๊ะตีงี,Ban Bata Ti-ngi,95060402,95060402,6.504873914034302,101.38349756598473
95060403,บ้านอาตะคูวอ,Ban Ata Khuwo,95060403,95060403,6.496026230233244,101.40101507306099
95060404,บ้านจือแร,Ban Chue Rae,95060404,95060404,6.489227798812059,101.38963982462883
95060405,บ้านกาดือแป,Ban Kaduepae,95060405,95060405,6.47957898550674,101.38243809342384
