id,name.th,name.en,name.slug,code.dopa,geo.lat,geo.lon
27061301,บ้านด่าน,Ban Dan,27061301,27061301,13.723542048295739,102.47415751218796
27061302,บ้านหนองขาม,Ban Nong Kham,27061302,27061302,13.715577784963276,102.46138483285904
27061303,บ้านไทยสามารถ,Ban Thai Samarot,27061303,27061303,13.745348909568843,102.52010643482208
27061304,บ้านตุ่น,Ban Tun,27061304,27061304,13.748919575100999,102.47853621840477
27061305,บ้านโรงเรียน,Ban Rong Rian,27061305,27061305,13.720094765786401,102.45737627148628
27061306,บ้านกุดม่วง,Ban Kut Muang,27061306,27061306,13.704621758630193,102.44239076972008
27061307,บ้านสุขมงคล,Ban Suk Mongkhon,27061307,27061307,13.747524403622238,102.48071953654289
