id,name.th,name.en,name.slug,code.dopa,geo.lat,geo.lon
19100901,บ้านมะกรูด,Ban Makrut,19100901,19100901,14.560522531318366,100.81580802798271
19100902,บ้านกลาง,Ban Klang,19100902,19100902,14.555943027795095,100.80500811338425
19100903,บ้านกลาง,Ban Klang,19100903,19100903,14.556190956865152,100.81098407506943
19100904,บ้านม่วงงาม,Ban Muang Ngam,19100904,19100904,14.565551048970454,100.80333039164543
19100905,บ้านโคก,Ban Khok,19100905,19100905,14.531252571052958,100.80582350492477
19100906,บ้านธรรมจินดา,Ban Tham Chinda,19100906,19100906,14.559739816788245,100.80263569951057
19100907,บ้านโคก,Ban Khok,19100907,19100907,14.536960699509724,100.81108197569847
19100908,บ้านโคก,Ban Khok,19100908,19100908,14.533580238234482,100.80810740590096
