id,name.th,name.en,name.slug,code.dopa,geo.lat,geo.lon
57120501,บ้านแม่ต๋ำเหนือ,Ban Mae Tam Nuea,57120501,57120501,19.975011296689605,100.22060438990593
57120502,บ้านใหม่โชคชัย,Ban Mai Chok Chai,57120502,57120502,19.974773076007313,100.23440703749657
57120503,บ้านแม่ต๋ำภูรี,Ban Mae Tham Phu Ri,57120503,57120503,19.974814670120626,100.22314041852951
57120504,บ้านเย้าแม่ต๋ำ,Ban Yao Mae Tam,57120504,57120504,19.997543580474417,100.16910061240196
57120505,บ้านใหม่ทุ่งก่อ,Ban Mai Thung Ko,57120505,57120505,19.975352871748726,100.22938191890717
57120506,บ้านแม่ต๋ำน้ำตก,Ban Mae Tam Nam Tok,57120506,57120506,19.9777148871405,100.21738842129707
57120507,บ้านสันติชัย,Ban Santi Chai,57120507,57120507,19.95731644457109,100.2401053905487
57120508,บ้านทุ่งโค้ง,Ban Thung Khong,57120508,57120508,19.974867608067182,100.22472560405731
5712059,บ้านรักษ์พนา,,5712059,5712059,19.99410307219674,100.14966532588005
