id,name.th,name.en,name.slug,code.dopa,geo.lat,geo.lon
84130201,บ้านปากด่าน,Ban Pak Dan,84130201,84130201,8.924493,99.272392
84130202,บ้านท่าเรือเหนือ,Ban Tha Ruea Nuea,84130202,84130202,8.942841,99.254591
84130203,บ้านท่าเรือใต้,Ban Tha Ruea Tai,84130203,84130203,8.951789,99.252054
84130204,บ้านทุ่งคายาว,Ban Thung Kha Yao,84130204,84130204,8.935461,99.283971
84130205,บ้านเขาพลู,Ban Khao Phlu,84130205,84130205,8.970035,99.292431
84130206,บ้านควนทอง,Ban Khuan Thong,84130206,84130206,8.951934,99.258520
