id,name.th,name.en,name.slug,code.dopa,geo.lat,geo.lon
82080301,บ้านกลาง,Ban Klang,82080301,82080301,8.427998011321142,98.34842383861542
82080302,บ้านบางทอง,Ban Bang Thong,82080302,82080302,8.38544295647375,98.36081698536873
82080303,บ้านแร่,Ban Rae,82080303,82080303,8.417059860839563,98.34345504641533
82080304,บ้านใหญ่,Ban Yai,82080304,82080304,8.391975903827204,98.32949951291084
82080305,บ้านราชา,Ban Racha,82080305,82080305,8.397488490207776,98.3289523422718
82080306,บ้านค่าย,Ban Khai,82080306,82080306,8.383749997690376,98.32511007785797
82080307,บ้านหาดทรายขาว,Ban Hat Sai Khao,82080307,82080307,8.4769339829602,98.34901660680771
