id,name.th,name.en,name.slug,code.dopa,geo.lat,geo.lon
20061101,บ้านท่าข้าม,Ban Tha Kham,20061101,20061101,13.581838773686298,101.16509199142456
20061102,บ้านสะแกลาย,Ban Sakae Lai,20061102,20061102,13.565734841906078,101.1501856148243
20061103,บ้านดอนกลุ่ม,Ban Don Klum,20061103,20061103,13.585436685624119,101.14080727100372
20061104,บ้านหมอสอ,Ban Mo So,20061104,20061104,13.554648006478564,101.16632178425789
20061105,บ้านมาบใหญ่,Ban Map Yai,20061105,20061105,13.568357850968855,101.18171364068985
20061106,บ้านไผ่แก้ว,Ban Phai Kaeo,20061106,20061106,13.570235135885035,101.17570549249649
20061107,บ้านหัวไผ่,Ban Hua Phai,20061107,20061107,13.559048123621544,101.13513305783272
