id,name.th,name.en,name.slug,code.dopa,geo.lat,geo.lon
80130501,บ้านหนองโพรงเข้,Ban Nong Phrong Khe,80130501,80130501,8.135647330755148,99.95140716433525
80130502,บ้านขลิม,Ban Khlim,80130502,80130502,8.162681814359072,99.94831055402756
80130503,บ้านโคกมะกรูด,Ban Khok Makrut,80130503,80130503,8.149205955320705,99.95698615908623
80130504,บ้านปลายสระ,Ban Plai Sa,80130504,80130504,8.19455158548179,99.94183033704758
80130505,บ้านกลอง,Ban Klong,80130505,80130505,8.214717110257832,99.94602531194687
80130506,บ้านเกาะป่ายาง,Ban Ko Pa Yang,80130506,80130506,8.12687042238651,99.96064200997353
80130507,บ้านทำเนียบ,Ban Thamniap,80130507,80130507,8.147691203735334,99.93723571300507
80130508,บ้านต้นไทร,Ban Ton Sai,80130508,80130508,8.193737881370815,99.95165258646011
