id,name.th,name.en,name.slug,code.dopa,geo.lat,geo.lon
90020901,บ้านหัวยาง,Ban Hua Yang,90020901,90020901,7.393511746683391,100.46705514192581
90020902,บ้านบ่อประดู่,Ban Bo Pradu,90020902,90020902,7.3893968491648465,100.47238603234291
90020903,บ้านบ่อหูด,Ban Bo Hut,90020903,90020903,7.380599032488693,100.47364801168442
90020904,บ้านปอ,Ban Po,90020904,90020904,7.377541367837328,100.47864362597466
90020905,บ้านพังเถร,Ban Phang Then,90020905,90020905,7.387111960624215,100.46128839254379
90020906,บ้านพลี,Ban Phli,90020906,90020906,7.3762007235193074,100.46402022242546
