id,name.th,name.en,name.slug,code.dopa,geo.lat,geo.lon
53011401,บ้านแสนตอ,Ban Saen To,53011401,53011401,17.661844362026063,100.30350878834724
53011402,บ้านกลาง,Ban Klang,53011402,53011402,17.660891053669577,100.31069979071617
53011403,บ้านโคกปู่ดา,Ban Khok Puda,53011403,53011403,17.659257894373475,100.3224290907383
53011404,บ้านทุ่ง,Ban Thung,53011404,53011404,17.6575199308017,100.30923262238503
53011405,บ้านทุ่ง,Ban Thung,53011405,53011405,17.658592102958856,100.31477674841881
53011406,บ้านปากสิงห์,Ban Pak Sing,53011406,53011406,17.66756155040006,100.30167415738106
53011407,บ้านปากสิงห์,Ban Pak Sing,53011407,53011407,17.665246072662622,100.3120382130146
53011408,บ้านหนองหมู,Ban Nong Mu,53011408,53011408,17.60887315151325,100.32737508416176
