id,name.th,name.en,name.slug,code.dopa,geo.lat,geo.lon
66041201,บ้านทับหมัน,Ban Thap Man,66041201,66041201,16.20893110244164,100.3033035993576
66041202,บ้านทับปรู,Ban Thap Pru,66041202,66041202,16.18749328740675,100.28987109661102
66041203,บ้านย่านขาด,Ban Yan Khat,66041203,66041203,16.22062394184783,100.2873082458973
66041204,บ้านเถาวัลย์เหล็ก,Ban Thao Wan Lek,66041204,66041204,16.204828142155137,100.2639488875866
66041205,บ้านบึงประดู่,Ban Bueng Pradu,66041205,66041205,16.220084386668745,100.29855743050575
66041206,บ้านทับหมันเหนือ,Ban Thap Man Nuea,66041206,66041206,16.207746326696746,100.28853803873062
