id,name.th,name.en,name.slug,code.dopa,geo.lat,geo.lon
20011101,บ้านท่าถ่านล่าง,Ban Tha Than Lang,20011101,20011101,13.378094034239666,100.98752439022064
20011102,บ้านท่าถ่านบน,Ban Tha Than Bon,20011102,20011102,13.381038753137972,100.98779261112213
20011103,บ้านคงคาไลย,Ban Khong Kha Lai,20011103,20011103,13.38365726557726,100.98757803440094
20011104,บ้านบ่อใหญ่,Ban Bo Yai,20011104,20011104,13.383653351529087,100.98807692527771
20011105,บ้านหัวหินพัฒนา,Ban Hua Hin Phatthana,20011105,20011105,13.389665254507328,100.98617255687714
20011106,บ้านหน้าวัดเขาบางทราย,Ban Na Wat Khao Bang Sai,20011106,20011106,13.397992692354217,100.98569512367249
