id,name.th,name.en,name.slug,code.dopa,geo.lat,geo.lon
96080401,บ้านนูโร๊ะ,Ban Nuro,96080401,96080401,5.857496488619712,101.92357510328293
96080402,บ้านลีแย๊ะ,Ban Liyae,96080402,96080402,5.841901948967906,101.87288269400597
96080403,บ้านเจ๊ะยอ,Ban Cheyo,96080403,96080403,5.84196198524359,101.87459662556648
96080404,บ้านเจ๊ะเด็ง,Ban Chedeng,96080404,96080404,5.8333433785033275,101.85684576630592
96080405,บ้านบาลา,Ban Bala,96080405,96080405,5.8211890501381385,101.85620605945587
96080406,บ้านเขาสามสิบ,Ban Khao Sam Sip,96080406,96080406,5.868382657463533,101.8575619161129
96080407,บ้านโละจูด,Ban Lochut,96080407,96080407,5.85036433204536,101.85086578130722
96080408,บ้านสาวอ,Ban Sawo,96080408,96080408,5.815485364121787,101.86460539698601
96080409,บ้านราษฎร์พัฒนา,Ban Rat Phatthana,96080409,96080409,5.8688549202739955,101.88853606581688
