id,name.th,name.en,name.slug,code.dopa,geo.lat,geo.lon
47080501,บ้านคูสะคาม,Ban Khu Sakham,47080501,47080501,13.72706875088845,100.5340875685215
47080502,บ้านหนองปลาหมัด,Ban Nong Pla Mat,47080502,47080502,17.757088347578573,103.53129386901855
47080503,บ้านหาดทรายมูล,Ban Hat Sai Mun,47080503,47080503,17.735518773887378,103.6279445886612
47080504,บ้านคำเจริญ,Ban Kham Charoen,47080504,47080504,17.725368539385112,103.59465032815933
47080505,บ้านโคกแสง,Ban Khok Saeng,47080505,47080505,17.732180986495887,103.57116892933846
47080506,บ้านสามแยกขันอาสา,Ban Sam Yaek Khan Asa,47080506,47080506,17.72128835614604,103.61925825476646
47080507,บ้านหนองบัวงาม,Ban Nong Bua Ngam,47080507,47080507,17.745384874009922,103.53170156478882
47080508,บ้านแสงอรุณ,Ban Saeng Arun,47080508,47080508,17.73035047814738,103.57265084981918
