id,name.th,name.en,name.slug,code.dopa,geo.lat,geo.lon
56051050,ชุมชนบ้านสายลมโชย,,56051050,56051050,19.159934858700208,99.98904794454575
56051051,ชุมชนบ้านร่มโพธิ์งาม,,56051051,56051051,19.155808788982444,99.98601704835892
56051052,ชุมชนบ้านสันช้างหิน,,56051052,56051052,19.160858364617923,99.9854926764965
56051053,ชุมชนบ้านบุญเกิด,,56051053,56051053,19.159929791438113,99.99060899019241
56051054,ชุมชนบ้านบุญเรือง,,56051054,56051054,19.1548966564765,99.99263137578964
56051055,ชุมชนบ้านหัวฝาย,,56051055,56051055,19.14994444905576,99.99529615044594
56051056,ชุมชนบ้านทุ่งหลวง,,56051056,56051056,19.143111957784466,100.01316502690315
56051057,ชุมชนบ้านศูนย์พัฒนา,,56051057,56051057,19.14994444905576,99.99529615044594
56051058,ชุมชนบ้านใหม่พัฒนา,,56051058,56051058,19.14994444905576,99.99529615044594
