id,name.th,name.en,name.slug,code.dopa,geo.lat,geo.lon
94100201,บ้านลือเม๊าะ,Ban Lue Mo,94100201,94100201,6.821286418943049,101.29321441054344
94100202,บ้านสิเดะ,Ban Si De,94100202,94100202,6.82847307191135,101.29625737667084
94100203,บ้านอีบุ๊,Ban I Pu,94100203,94100203,6.817977353104492,101.30088150501251
94100204,บ้านศาลาสอง,Ban Sala Song,94100204,94100204,6.82116524228735,101.31259337067604
94100205,บ้านอาโห,Ban A Ho,94100205,94100205,6.832322687282897,101.3198983669281
94100206,บ้านบากง,Ban Bakong,94100206,94100206,6.814207520276194,101.3310281932354
94100207,บ้านกูแบบาเดาะ,Ban Kubae Bado,94100207,94100207,6.808658581373484,101.31568998098373
94100208,บ้านปูตะ,Ban Puta,94100208,94100208,6.824663373629972,101.33016586303711
