id,name.th,name.en,name.slug,code.dopa,children_count.villages,zip_codes,geo.lat,geo.lon
810808,ห้วยยูง,Huai Yung,huai-yung,810808,8,81130,8.120,99.026
810804,คลองเขม้า,Khlong Khamao,khlong-khamao,810804,4,81130,8.036,98.976
810803,คลองขนาน,Khlong Khanan,khlong-khanan,810803,9,81130,7.960,99.030
810805,โคกยาง,Khok Yang,khok-yang,810805,7,81130,8.090,99.087
810802,เกาะศรีบอยา,Ko Si Boya,ko-si-boya,810802,7,81130,7.836,98.963
810801,เหนือคลอง,Nuea Khlong,nuea-khlong,810801,7,81130,8.086,98.990
810807,ปกาสัย,Pakasai,pakasai,810807,9,81130,8.015,99.062
810806,ตลิ่งชัน,Taling Chan,taling-chan,810806,6,81130,7.963,98.969
