id,name.local,name.en,name.slug,code.id,zip_codes,geo.lat,geo.lon
340305,ห้วยไผ่,Huai Phai,huai-phai-340305,340305,34220,15.42,105.551
340302,ห้วยยาง,Huai Yang,huai-yang-340302,340302,34220,15.467,105.455
340301,โขงเจียม,Khong Chiam,khong-chiam-340301,340301,34220,15.307,105.53
340303,นาโพธิ์กลาง,Na Pho Klang,na-pho-klang-340303,340303,34220,15.553,105.557
340304,หนองแสงใหญ่,Nong Saeng Yai,nong-saeng-yai-340304,340304,34220,15.339,105.389
