id,name.th,name.en,name.slug,code.dopa,geo.lat,geo.lon
16060101,บ้านหัวบึง,Ban Hua Bueng,16060101,16060101,15.110676472040028,100.47017052769661
16060102,บ้านไผ่ใหญ่,Ban Phai Yai,16060102,16060102,15.096846961536462,100.48278763890266
16060103,บ้านโป่ง,Ban Pong,16060103,16060103,15.100195336870367,100.46992644667625
16060104,บ้านน้ำจั้น,Ban Nam Chan,16060104,16060104,15.09722893277465,100.45729994773865
16060105,บ้านหนองนางาม,Ban Nong Na Ngam,16060105,16060105,15.088056254003918,100.47120854258537
16060106,บ้านหนองกวาง,Ban Nong Kwang,16060106,16060106,15.065219951306124,100.4379491508007
