id,name.th,name.en,name.slug,code.dopa,geo.lat,geo.lon
33010150,ชุมชนหนองอุทัย,Chumchon Nong Uthai,33010150,33010150,15.121243832432638,104.33896198868752
33010151,ชุมชนหนองยวน,Chumchon Nong Yuan,33010151,33010151,15.121018559720303,104.32601362466812
33010152,ชุมชนทุ่งนาดี,Chumchon Thung Na Di,33010152,33010152,15.11874380978457,104.33649435639381
33010153,ชุมชนเมืองเก่าหลักเมือง,Chumchon Mueang Kao Lak Mueang,33010153,33010153,15.119261683286862,104.32278424501419
33010154,ชุมชนตลาดนอก,Chumchon Talat Nok,33010154,33010154,15.120956415481675,104.33475762605667
33010155,ชุมชนหนองหล่ม,Chumchon Nong Lom,33010155,33010155,15.120540825417715,104.32924300432205
33010156,ชุมชนศรีนครลำดวน,Chumchon Si Nakhon Lamduan,33010156,33010156,15.123892710854768,104.31989684700966
33010157,ชุมชนหัวนา,Chumchon Hua Na,33010157,33010157,15.115817800740034,104.33714881539345
33010158,ชุมชนวัดพระโต,Chumchon Wat Phra To,33010158,33010158,15.117352018480918,104.33218941092491
