id,name.th,name.en,name.slug,code.dopa,geo.lat,geo.lon
34041701,บ้านธาตุเทิง,Ban That Thoeng,34041701,34041701,15.36193575733693,104.4644545018673
34041702,บ้านธาตุเทิง,Ban That Thoeng,34041702,34041702,15.362102578652017,104.46545898914337
34041703,บ้านธาตุกลาง,Ban That Klang,34041703,34041703,15.357313848619414,104.4611419737339
34041704,บ้านธาตุลุ่ม,Ban That Lum,34041704,34041704,15.348228796769776,104.46114867925644
34041705,บ้านธาตุลุ่ม,Ban That Lum,34041705,34041705,15.348469345588336,104.46057736873627
34041706,บ้านโนนกอก,Ban Non Kok,34041706,34041706,15.346499682319815,104.46871384978294
34041707,บ้านธาตุวาที,Ban That Wathi,34041707,34041707,15.351279607753916,104.4680406153202
