id,name.th,name.en,name.slug,code.dopa,children_count.villages,zip_codes,geo.lat,geo.lon
770405,ชัยเกษม,Chai Kasem,chai-kasem,770405,12,77190,11.375,99.473
770401,กำเนิดนพคุณ,Kamnoet Nopphakhun,kamnoet-nopphakhun,770401,8,77140,11.248,99.516
770407,แม่รำพึง,Mae Ramphueng,mae-ramphueng,770407,8,77140,11.227,99.544
770402,พงศ์ประศาสน์,Phong Prasat,phong-prasat,770402,10,77140,11.188,99.466
770403,ร่อนทอง,Ron Thong,ron-thong,770403,12,77230,11.299,99.393
770404,ธงชัย,Thong Chai,thong-chai,770404,11,77190,11.318,99.525
770406,ทองมงคล,Thong Mongkhon,thong-mongkhon,770406,10,77230,11.204,99.369
