id,name.th,name.en,name.slug,code.dopa,geo.lat,geo.lon
94100601,บ้านชามู,Ban Cha Mu,94100601,94100601,6.760366660093765,101.28593355417252
94100602,บ้านบาซาเวาะเซ็ง,Ban Ba Sa Wo Seng,94100602,94100602,6.754915653654018,101.29364356398582
94100603,บ้านราบอ,Ban Ra Bo,94100603,94100603,6.736930759199737,101.28593757748604
94100604,บ้านโต๊ะทูวอ,Ban To Thu Wo,94100604,94100604,6.734661290854852,101.28418207168579
94100605,บ้านปอซัน,Ban Po San,94100605,94100605,6.727077673525233,101.28464207053185
