id,name.th,name.en,name.slug,code.dopa,geo.lat,geo.lon
63080101,บ้านอุ้มผาง,Ban Umphang,63080101,63080101,16.016378955889135,98.86271193623543
63080102,บ้านแปโดทะ,Ban Pae Totha,63080102,63080102,15.979005997219318,98.89471873641014
63080103,บ้านกิ่วห้าง,Ban Kio Hang,63080103,63080103,15.985142912807579,98.87443318963051
63080104,บ้านอุ้มผางคี,Ban Umphang Khi,63080104,63080104,15.998063340859954,98.9402063190937
63080105,บ้านยะโม่คี,Ban Yamo Khi,63080105,63080105,16.047950366208106,98.91364172101021
63080106,บ้านใหม่ท่าแพ,Ban Mai Thaphae,63080106,63080106,16.021192198104398,98.851827532053
