id,name.local,name.en,name.slug,code.id,zip_codes,geo.lat,geo.lon
220701,ปะตง,Patong,patong-220701,220701,22180,13.17,102.194
220704,ทรายขาว,Sai Khao,sai-khao-220704,220704,22180,13.086,102.197
220705,สะตอน,Saton,saton-220705,220705,22180,13.174,102.371
220703,ทับช้าง,Thap Chang,thap-chang-220703,220703,22180,13.265,102.161
220702,ทุ่งขนาน,Thung Khanan,thung-khanan-220702,220702,22180,13.232,102.319
