id,name.th,name.en,name.slug,code.dopa,geo.lat,geo.lon
49040401,บ้านก้านเหลืองดง,Ban Kan Lueang Dong,49040401,49040401,16.756294857121755,104.53403636813164
49040402,บ้านหนองแคน,Ban Nong Khaen,49040402,49040402,16.758123493310404,104.50877666473389
49040403,บ้านโพนไฮ,Ban Phon Hai,49040403,49040403,16.76441571669314,104.47295308113098
49040404,บ้านก้านเหลืองดง,Ban Kan Lueang Dong,49040404,49040404,16.75452013862497,104.53175649046898
49040405,บ้านก้านเหลืองดง,Ban Kan Lueang Dong,49040405,49040405,16.753843378370586,104.53428983688354
49040406,บ้านบางทรายพัฒนา,Ban Bang Sai Phatthana,49040406,49040406,16.7564939019412,104.50774937868118
49040407,บ้านโคกยาว,Ban Khok Yao,49040407,49040407,16.729308874035194,104.44558247923851
