id,name.th,name.en,name.slug,code.dopa,geo.lat,geo.lon
24040601,บ้านบางเกลือ,Ban Bang Kluea,24040601,24040601,13.524520335960462,100.944634526968
24040602,บ้านสกัด 40 ตะวันออก,Ban Sakat 40 Tawan Ok,24040602,24040602,13.524122641376549,100.9399862587452
24040603,บ้านหน้าวัดบางเกลือ,Ban Na Wat Bang Kluea,24040603,24040603,13.52526747841612,100.93792632222176
24040604,บ้านคลองพระยาวิสูตร,Ban Khlong Phraya Wisut,24040604,24040604,13.51261137737105,100.92153131961823
24040605,บ้านลาดยาว,Ban Lat Yao,24040605,24040605,13.527567567178796,100.9298837184906
24040606,บ้านบางครก,Ban Bang Khrok,24040606,24040606,13.532427148783704,100.91564252972603
24040607,บ้านคลองใหม่,Ban Khlong Mai,24040607,24040607,13.535470367247312,100.93213945627213
