id,name.th,name.en,name.slug,code.dopa,geo.lat,geo.lon
90150401,บ้านหนองโด,Ban Nong Do,90150401,90150401,7.283239522801209,100.48640862107277
90150402,บ้านขมวน,Ban Khamuan,90150402,90150402,7.29554714039498,100.48023417592049
90150403,บ้านรำแดง,Ban Ram Daeng,90150403,90150403,7.307199955369872,100.47731056809425
90150404,บ้านหนองโอย,Ban Nong Oi,90150404,90150404,7.30591230763696,100.46938195824623
90150405,บ้านนอก,Ban Nok,90150405,90150405,7.315388669584733,100.47527477145195
90150406,บ้านรำแดง,Ban Ram Daeng,90150406,90150406,7.303757351684897,100.4798050224781
90150407,บ้านป่าขวาง,Ban Pa Khwang,90150407,90150407,7.320118794078259,100.47062650322914
