id,name.th,name.en,name.slug,code.dopa,geo.lat,geo.lon
74030701,บ้านคลองเจ็ดริ้วเก่า,Ban Khlong Chet Rio Kao,74030701,74030701,13.62225869422452,100.15454426407814
74030702,บ้านหลักสอง,Ban Lak Song,74030702,74030702,13.624099057744948,100.13794139027596
74030703,บ้านปากคลองเขื่อนขันธ์,Ban Pak Khlong Khuean Khan,74030703,74030703,13.622918202912192,100.1234681904316
74030704,บ้านคลองเขื่อนขันธ์,Ban Khlong Khuean Khan,74030704,74030704,13.622918202912192,100.1234681904316
74030705,บ้านกระโจมทอง,Ban Krachom Thong,74030705,74030705,13.643756947437288,100.11688604950905
74030706,บ้านพัฒนา,Ban Phatthana,74030706,74030706,13.633600423301452,100.12100994586945
74030707,บ้านรางช้างสี,Ban Rang Chang Si,74030707,74030707,13.6209830,100.1265866
