id,name.th,name.en,name.slug,code.dopa,geo.lat,geo.lon
42030101,บ้านเชียงคาน,Ban Chiang Khan,42030101,42030101,17.891574026697228,101.6471479833126
42030102,บ้านเชียงคาน,Ban Chiang Khan,42030102,42030102,17.895221506422573,101.65710300207138
42030103,บ้านคกมาด,Ban Khok Mat,42030103,42030103,17.854551314509546,101.60536587238312
42030104,บ้านน้อย,Ban Noi,42030104,42030104,17.907419216149037,101.68955102562904
42030105,บ้านโนนสว่าง,Ban Non Sawang,42030105,42030105,17.847640132874407,101.70462906360626
42030106,บ้านท่านาจันทร์,Ban Tha Na Chan,42030106,42030106,17.88165219631549,101.64999514818192
