id,name.th,name.en,name.slug,code.dopa,geo.lat,geo.lon
43080101,บ้านโสกกล้า,Ban Sok Kla,43080101,43080101,18.00838749111727,102.2385361790657
43080102,บ้านนาขาม,Ban Na Kham,43080102,43080102,18.03715828948464,102.24571377038956
43080103,บ้านแก้งไก่,Ban Kaeng Kai,43080103,43080103,18.063305538204187,102.2743771970272
43080104,บ้านเจื้อง,Ban Choeng,43080104,43080104,18.06631198018431,102.27049335837364
43080105,บ้านสังกะลี,Ban Sak Kali,43080105,43080105,18.042943763799336,102.24694222211838
43080106,บ้านหนองแสง,Ban Nong Saeng,43080106,43080106,18.031098448315927,102.20830768346786
