id,name.th,name.en,name.slug,code.dopa,geo.lat,geo.lon
48120101,บ้านวังยาง,Ban Wang Yang,48120101,48120101,17.060147568317177,104.45173412561417
48120102,บ้านหนองนางด่อน,Ban Nong Nang Don,48120102,48120102,17.05377289661662,104.458909034729
48120103,บ้านหนองสะโน,Ban Nong Sano,48120103,48120103,17.059255229947464,104.45235639810562
48120104,บ้านนาขาม,Ban Na Kham,48120104,48120104,17.00857470158194,104.42840829491615
48120105,บ้านหัวภูธร,Ban Hua Phuthon,48120105,48120105,17.008982518941735,104.42881062626839
48120106,บ้านสามแยก,Ban Sam Yaek,48120106,48120106,17.03403280706509,104.41687077283859
48120107,บ้านนาขามใต้,Ban Na Kham Tai,48120107,48120107,17.00857470158194,104.42840829491615
48120108,บ้านนาสมบูรณ์,Ban Na Sombun,48120108,48120108,17.04074978675551,104.47755038738251
48120109,บ้านใหม่ไทยเจริญ,Ban Mai Thai Charoen,48120109,48120109,17.0911805595631485,104.44971978664398
