id,name.th,name.en,name.slug,code.dopa,geo.lat,geo.lon
53010701,บ้านทับใหม่,Ban Thap Mai,53010701,53010701,17.572828860561867,100.13665527105331
53010702,บ้านหาดกรวด,Ban Hat Kruat,53010702,53010702,17.5660987,100.1344344
53010703,บ้านบุ่งจิก,Ban Bung Chik,53010703,53010703,17.5580333,100.132626
53010704,บ้านวังหมู,Ban Wang Mu,53010704,53010704,17.5498697,100.1244504
53010705,บ้านท่า,Ban Tha,53010705,53010705,17.5414737,100.1186488
53010706,บ้านซ่าน,Ban San,53010706,53010706,17.5388844,100.1150655
53010707,บ้านไผ่ใหญ่,Ban Phai Yai,53010707,53010707,17.5675424,100.1924572
53010708,บ้านดงช้างดี,Ban Dong Chang Di,53010708,53010708,17.5499407,100.1751906
53010709,บ้านเขาตอง,Ban Khao Tong,53010709,53010709,17.5648058,100.1707101
