id,name.th,name.en,name.slug,code.dopa,geo.lat,geo.lon
16070601,บ้านซับยาง,Ban Sap Yang,16070601,16070601,15.064758926701641,101.26639232039452
16070602,บ้านหนองแก,Ban Nong Kae,16070602,16070602,15.075508569211483,101.23845040798187
16070603,บ้านซับน้อย,Ban Sap Noi,16070603,16070603,15.061921531381829,101.28193438053131
16070604,บ้านหัวลำ,Ban Hua Lam,16070604,16070604,15.033507938574722,101.28800958395004
16070605,บ้านหนองจาน,Ban Nong Chan,16070605,16070605,15.019893612288966,101.27628833055496
16070606,บ้านทุ่งดินแดง,Ban Thung Din Daeng,16070606,16070606,14.997780625541683,101.28050610423088
16070607,บ้านหัวลำสุด,Ban Huai Lam Sut,16070607,16070607,15.030278969910734,101.30412429571152
16070608,บ้านเขาใหญ่,Ban Khao Yai,16070608,16070608,15.009085465072246,101.3197186589241
