id,name.th,name.en,name.slug,code.dopa,geo.lat,geo.lon
50240401,บ้านสันมะค่า,Ban San Makha,50240401,50240401,18.535041,98.839344
50240402,บ้านหนองเหียง,Ban Nong Hiang,50240402,50240402,18.523755,98.831963
50240403,บ้านทุ่งปุย,Ban Thung Pui,50240403,50240403,18.5236,98.8445
50240404,บ้านสบอาว,Ban Sop Ao,50240404,50240404,18.5339,98.8565
50240405,บ้านสันนกแก้ว,Ban San Nok Kaeo,50240405,50240405,18.531758,98820019
50240406,บ้านใหม่หนองหอย,Ban Mai Nong Hoi,50240406,50240406,18.533859,98.797502
50240407,บ้านหนองหอย,Ban Nong Hoi,50240407,50240407,18.53115861962525,98.7695749104023
50240408,บ้านแม่แตง,Ban Mae Taeng,50240408,50240408,18.545241943318246,98.77420574426651
50240409,บ้านสันติสุข,Ban Santi Suk,50240409,50240409,18.518725,98.836129
