id,name.th,name.en,name.slug,code.dopa,geo.lat,geo.lon
61010401,บ้านดอนปอแดง,Ban Don Po Daeng,61010401,61010401,15.43387507108159,99.98938590288162
61010402,บ้านเนินสำโรง,Ban Noen Samrong,61010402,61010402,15.411213361604686,100.02513974905014
61010403,บ้านหนองตางู,Ban Nong Ta Ngu,61010403,61010403,15.41820386223779,100.02499893307686
61010404,บ้านห้วยปลาขาว,Ban Huai Pla Khao,61010404,61010404,15.4109353915808,100.00026360154152
61010405,บ้านดอนขวาง,Ban Don Khwang,61010405,61010405,15.405779303467737,100.01078590750694
61010406,บ้านหนองสลิด,Ban Nong Salit,61010406,61010406,15.419637616268712,99.98956426978111
61010407,บ้านกลางเขา,Ban Klang Khao,61010407,61010407,15.391856709807527,100.01096293330193
