id,name.th,name.en,name.slug,code.dopa,geo.lat,geo.lon
94030801,บ้านบางไร่,Ban Bang Rai,94030801,94030801,6.845265476676827,101.14852532744408
94030802,บ้านบากง,Ban Bakong,94030802,94030802,6.848425221676075,101.15560233592987
94030803,บ้านบางทัน,Ban Bang Than,94030803,94030803,6.8368327299301495,101.10778793692589
94030804,บ้านดอนยาง,Ban Don Yang,94030804,94030804,6.806892814857279,101.13733515143394
94030805,บ้านดอนนา,Ban Don Na,94030805,94030805,6.8280429676820455,101.11424535512924
94030806,บ้านสายหมอ,Ban Sai Mo,94030806,94030806,6.8558125252732225,101.13140344619751
94030807,บ้านแคนา,Ban Khae Na,94030807,94030807,6.851663505834976,101.11334681510925
