id,name.th,name.en,name.slug,code.dopa,geo.lat,geo.lon
90110801,บ้านโคกขี้เหล็ก,Ban Khok Khilek,90110801,90110801,6.998313792683695,100.3095169365406
90110802,บ้านม่วงค่าย,Ban Muang Khai,90110802,90110802,6.985514966518668,100.29382601380348
90110803,บ้านท่าแร่–หลุมหัวล้าน,Ban Tha Rae - Lum Hua Lan,90110803,90110803,6.99273905846193,100.34502804279327
90110804,บ้านหัวจักร–ทุ่งรื่น,Ban Hua Chak - Thung Ruen,90110804,90110804,7.018841764378565,100.34442454576492
90110805,บ้านไร่อ้อย,Ban Rai Oi,90110805,90110805,6.990060819600577,100.37728562951088
90110806,บ้านสวนพลู,Ban Suan Phlu,90110806,90110806,6.999614288201724,100.39259433746338
90110807,บ้านฉลุง,Ban Chalung,90110807,90110807,6.992210600021713,100.29659941792488
