id,name.th,name.en,name.slug,code.dopa,geo.lat,geo.lon
90100301,บ้านพังลาตก,Ban Phang La Tok,90100301,90100301,6.743969506316934,100.44344767928123
90100302,บ้านพังลาออก,Ban Phang La Ok,90100302,90100302,6.7432836158703235,100.45128509402275
90100303,บ้านระตะ,Ban Rata,90100303,90100303,6.768683554869069,100.45761913061142
90100304,บ้านแม่น้ำ,Ban Mae Nam,90100304,90100304,6.795226075190006,100.4563370347023
90100305,บ้านคลองแงะ,Ban Khlong Ngae,90100305,90100305,6.790028485450205,100.45568391680717
90100306,บ้านคลองผ่าน,Ban Khlong Phan,90100306,90100306,6.788652839311612,100.44662609696388
90100307,บ้านม่วงก็อง,Ban Muang Kong,90100307,90100307,6.8215793733686265,100.44342622160912
