id,name.th,name.en,name.slug,code.dopa,geo.lat,geo.lon
54010201,บ้านแต,Ban Tae,54010201,54010201,18.105291613725974,100.18288046121597
54010202,บ้านโกศัยประชาพัฒนา,Ban Kosai Pracha Phatthana,54010202,54010202,18.130312235592914,100.1543739438057
54010203,บ้านนาจักร,Ban Na Chak,54010203,54010203,18.111793750261814,100.17172515392303
54010204,บ้านตอน,Ban Ton,54010204,54010204,18.109999026628408,100.16690120100975
54010205,บ้านเหล่า,Ban Lao,54010205,54010205,18.12215384083189,100.168476998806
54010206,บ้านนาจักร,Ban Na Chak,54010206,54010206,18.112816020702812,100.17308235168457
54010207,บ้านพระยาไชยบูรณ์,Ban Phraya Chai Bun,54010207,54010207,18.126180191913566,100.14434248209
54010208,บ้านเหล่า,Ban Lao,54010208,54010208,18.118221718190693,100.16537770628929
54010209,บ้านน้ำทอง,Ban Nam Thong,54010209,54010209,18.13187479053568,100.15010118484497
