id,name.th,name.en,name.slug,code.dopa,geo.lat,geo.lon
94101101,บ้านกอลำ,Ban Kolam,94101101,94101101,6.6832,101.3171
94101102,บ้านละหารยามู,Ban Lahan Yamu,94101102,94101102,6.6826,101.3263
94101103,บ้านสะตา,Ban Sa Ta,94101103,94101103,6.6876,101.3335
94101104,บ้านปูลากาซิง,Ban Pulo Kaching,94101104,94101104,6.6644,101.3284
94101105,บ้านลานควาย,Ban Lan Khwai,94101105,94101105,6.6521,101.3307
