id,name.th,name.en,name.slug,code.dopa,geo.lat,geo.lon
16040901,บ้านซับตะเคียน,Ban Sap Takhian,16040901,16040901,15.164327365385223,101.31258264183998
16040902,บ้านหนองโก,Ban Nong Ko,16040902,16040902,15.15462297610617,101.34080082178116
16040903,บ้านเขาตะแคง,Ban Khao Takhaeng,16040903,16040903,15.074719943859447,101.32661998271942
16040904,บ้านซับกระโดน,Ban Sap Kradon,16040904,16040904,15.136976079292184,101.3114869594574
16040905,บ้านหนองโก,Ban Nong Ko,16040905,16040905,15.076879915693299,101.32715240120888
16040906,บ้านสี่แยกเขาน้อย,Ban Si Yaek Khao Noi,16040906,16040906,15.120806233496486,101.33809849619865
