id,name.th,name.en,name.slug,code.dopa,geo.lat,geo.lon
61011401,บ้านบุญลือ,Ban Bun Lue,61011401,61011401,15.455941001700769,100.03218322992325
61011402,บ้านตากแดด,Ban Tak Daet,61011402,61011402,15.483824478265921,100.00180721282959
61011403,บ้านตานาด,Ban Ta Nat,61011403,61011403,15.46752112049165,100.01698181033134
61011404,บ้านตานาด,Ban Ta Nat,61011404,61011404,15.47267825932852,100.01286059617996
61011405,บ้านเนินตารักษ์,Ban Noen Ta Rak,61011405,61011405,15.464225137412233,100.021151304245
61011406,บ้านวังงิ้ว,Ban Wang Ngio,61011406,61011406,15.443675116027025,100.04386827349663
61011407,บ้านเขาพะแวง,Ban Khao Pawaeng,61011407,61011407,15.488726608192247,100.02140879631042
61011408,บ้านหนองอีเติ่ง,Ban Nong I Toeng,61011408,61011408,15.435328107896964,100.05945861339569
61011409,บ้านเขาพะแวงเหนือ,Ban Khao Phawaeng Nuea,61011409,61011409,15.496199127832114,100.02422779798508
