id,name.local,name.en,name.slug,code.id,zip_codes,geo.lat,geo.lon
480806,บ้านข่า,Ban Kha,ban-kha-480806,480806,48150,17.666,104.121
480803,บ้านเอื้อง,Ban Ueang,ban-ueang-480803,480803,48150,17.548,104.232
480809,หาดแพง,Hat Phaeng,hat-phaeng-480809,480809,48150,17.712,104.3
480802,นาเดื่อ,Na Duea,na-duea-480802,480802,48150,17.555,104.333
480807,นาคำ,Na Kham,na-kham-480807,480807,48150,17.619,104.354
480808,โพนสว่าง,Phon Sawang,phon-sawang-480808,480808,48150,17.542,104.167
480804,สามผง,Sam Phong,sam-phong-480804,480804,48150,17.73,104.164
480801,ศรีสงคราม,Si Songkhram,si-songkhram-480801,480801,48150,17.641,104.289
480805,ท่าบ่อสงคราม,Tha Bo Songkhram,tha-bo-songkhram-480805,480805,48150,17.633,104.196
