id,name.local,name.en,name.slug,code.id,zip_codes,geo.lat,geo.lon
640202,บ้านด่าน,Ban Dan,ban-dan-640202,640202,64140,17.048,99.549
640201,ลานหอย,Lan Hoi,lan-hoi-640201,640201,64140,16.887,99.609
640206,หนองหญ้าปล้อง,Nong Ya Plong,nong-ya-plong-640206,640206,64140,16.995,99.481
640205,ตลิ่งชัน,Taling Chan,taling-chan-640205,640205,64140,17.156,99.414
640207,วังลึก,Wang Luek,wang-luek-640207,640207,64140,17.04,99.461
640204,วังน้ำขาว,Wang Nam Khao,wang-nam-khao-640204,640204,64140,17.096,99.608
640203,วังตะคร้อ,Wang Takhro,wang-takhro-640203,640203,64140,16.948,99.5
