id,name.th,name.en,name.slug,code.dopa,geo.lat,geo.lon
26020201,บ้านห้วยโรง,Ban Huai Rong,26020201,26020201,14.190598122630783,101.25003352761269
26020202,บ้านเกาะโพธิ์,Ban Ko Pho,26020202,26020202,14.138428843467317,101.23175829648972
26020203,บ้านสะแกซึง,Ban Sakae Sueng,26020203,26020203,14.12931619544537,101.238923817873
26020204,บ้านดงข่า,Ban Dong Kha,26020204,26020204,14.164092373624218,101.24050498008728
26020205,บ้านคลองกระทุ่ม,Ban Khlong Krathum,26020205,26020205,14.18190234197007,101.23764842748642
26020206,บ้านหัวถนน,Ban Hua Thanon,26020206,26020206,14.15045666773492,101.2238658964634
26020207,บ้านท่าขอน,Ban Tha Khom,26020207,26020207,14.122005785485078,101.20848476886749
