id,name.th,name.en,name.slug,code.dopa,geo.lat,geo.lon
92050501,บ้านห้วยไทร,Ban Huai Sai,92050501,92050501,7.558368459540991,99.43088158965111
92050502,บ้านเขาแก้ว,Ban Khao Kaeo,92050502,92050502,7.5623567975868236,99.46352139115334
92050503,บ้านห้วยน้ำดำ,Ban Huai Nam Dam,92050503,92050503,7.558597125251274,99.47667494416237
92050504,บ้านนาเมืองเพชร,Ban Na Mueang Phet,92050504,92050504,7.542994401308989,99.50066462159157
92050505,บ้านไทรห้อย,Ban Sai Hoi,92050505,92050505,7.548494505536153,99.49412941932678
92050506,บ้านกลิ้งกลอง,Ban Kling Klong,92050506,92050506,7.537748164713373,99.45106387138367
92050507,บ้านเขาเพดาน,Ban Khao Phedan,92050507,92050507,7.587542300271269,99.44089695811272
