id,name.th,name.en,name.slug,code.dopa,geo.lat,geo.lon
84110501,บ้านกลาง,Ban Klang,84110501,84110501,9.328395503195283,99.08838629722595
84110502,บ้านเสวียด,Ban Sawiat,84110502,84110502,9.323374604783504,99.07006815075874
84110503,บ้านศรีน้อย,Ban Si Noi,84110503,84110503,9.330193957135215,99.11189451813698
84110504,บ้านเหนือท่า,Ban Nuea Tha,84110504,84110504,9.330193957135215,99.11189451813698
84110505,บ้านแหลมสน,Ban Laem Son,84110505,84110505,9.313704473848395,99.09944772720337
84110506,บ้านห้วยเรียน,Ban Huai Rian,84110506,84110506,9.318986222183655,99.14490312337875
84110507,บ้านนาวะ,Ban Na Wa,84110507,84110507,9.300668496742468,99.1236774623394
84110508,บ้านชายวัด,Ban Chai Wat,84110508,84110508,9.317395486039528,99.10342410206795
84110509,บ้านอำดี,Ban Am Di,84110509,84110509,9.317399456271879,99.10342544317245
