id,name.th,name.en,name.slug,code.dopa,geo.lat,geo.lon
19090150,ยุคลธร,,19090150,19090150,14.728731063695577,100.78611999750137
19090151,กุมภกัณฑ์ทดน้ำ,,19090151,19090151,14.724788037594793,100.78724518418312
19090152,ศรีรักษา,,19090152,19090152,14.722383275482493,100.78263983130455
19090153,ท้ายพิกุล1,,19090153,19090153,14.715630603198719,100.78735783696175
19090154,ท้ายพิกุล2,,19090154,19090154,14.716434812554366,100.78575924038887
19090155,อินทร์พิทักษ์,,19090155,19090155,14.722956581479105,100.78662022948265
19090156,ภัณฑคีรี,,19090156,19090156,14.724305530819018,100.7812263071537
19090157,ประชาบำรุง,,19090157,19090157,14.717127467913283,100.78264519572258
19090158,อินทรักษาสามัคคี,,19090158,19090158,14.723935867647391,100.78852191567421
19090159,ปทุมกรสุขสำราญ,,19090159,19090159,14.73122654730373,100.78174665570259
19090160,หมู่5พระพุทธบาท,,19090160,19090160,14.73515908093259,100.77707424759865
19090161,เปรมประชาคม,,19090161,19090161,14.724481931269473,100.79017952084541
