id,name.local,name.en,name.slug,code.id,zip_codes,geo.lat,geo.lon
571007,เจดีย์หลวง,Chedi Luang,chedi-luang-571007,571007,57180,19.569,99.546
571003,แม่พริก,Mae Phrik,mae-phrik-571003,571003,57180,19.63,99.524
571001,แม่สรวย,Mae Suai,mae-suai-571001,571001,57180,19.676,99.56
571002,ป่าแดด,Pa Daet,pa-daet-571002,571002,57180,19.715,99.427
571004,ศรีถ้อย,Si Thoi,si-thoi-571004,571004,57180,19.677,99.317
571005,ท่าก๊อ,Tha Ko,tha-ko-571005,571005,57180,19.504,99.528
571006,วาวี,Wawi,wawi-571006,571006,57180,19.848,99.497
