id,name.th,name.en,name.slug,code.dopa,geo.lat,geo.lon
94030401,บ้านเปี๊ยะ,Ban Pia,94030401,94030401,6.72311267577088,101.26200959086418
94030402,บ้านโคกหมัก,Ban Khok Mak,94030402,94030402,6.728625305789413,101.23983576893806
94030403,บ้านขอเลาะปีแน,Ban Cho Lo Pi Nae,94030403,94030403,6.736984032977004,101.2510447204113
94030404,บ้านบาโงกาเสาะ,Ban Ba Ngo Ka So,94030404,94030404,6.713749452294294,101.24094486236572
94030405,บ้านกูแบกีแย,Ban Ku Bae Ki Yae,94030405,94030405,6.711570445850169,101.25392138957977
