id,name.th,name.en,name.slug,code.dopa,geo.lat,geo.lon
24050701,บ้านปากคลองขุนพิทักษ์,Ban Pak Khlong Khun Phithak,24050701,24050701,13.640584791125711,101.00904509425163
24050702,บ้านปากลัดยายมุด,Ban Pak Lat Yai Mut,24050702,24050702,13.648483824358284,100.99638640880585
24050703,บ้านคลองแขวงกลั่น,Ban Khlong Khwaeng Klan,24050703,24050703,13.625030964403347,100.97642675042152
24050704,บ้านคลองแขวงกลั่น,Ban Khlong Khwaeng Klan,24050704,24050704,13.65658067801485,100.97881257534027
24050705,บ้านปากคลองพระยาสมุทร,Ban Pak Khlong Phraya Samut,24050705,24050705,13.657393866691672,100.96347972750664
24050706,บ้านตลาดคลองสวน,Ban Talat Khlong Suan,24050706,24050706,13.661805105752796,100.9564657509327
