id,name.th,name.en,name.slug,code.dopa,geo.lat,geo.lon
76060301,บ้านไร่โพธิ์,Ban Rai Pho,76060301,76060301,13.08186228573594,99.85564157366753
76060302,บ้านไร่สัตว์,Ban Rai Sat,76060302,76060302,13.084746578641647,99.86139759421349
76060303,บ้านไร่ขนุน,Ban Rai Nun,76060303,76060303,13.081610169761513,99.85709130764008
76060304,บ้านหนองพระ,Ban Nong Phra,76060304,76060304,13.084933377245124,99.84680905938148
76060305,บ้านไร่ตอ,Ban Rai To,76060305,76060305,13.080484135682303,99.85026776790619
76060306,บ้านดงห้วยหลวง,Ban Dong Huai Luang,76060306,76060306,13.076051796138481,99.8286934196949
