id,name.th,name.en,name.slug,code.dopa,geo.lat,geo.lon
80130601,บ้านควนชุม,Ban Khuan Chum,80130601,80130601,8.162462773883675,99.9265068769455
80130602,บ้านไทรทอง,Ban Sai Thong,80130602,80130602,8.222422268451455,99.9215541779995
80130603,บ้านปัง,Ban Pang,80130603,80130603,8.147015471336466,99.91051688790321
80130604,บ้านทุ่งเลน,Ban Thung Len,80130604,80130604,8.174444775137768,99.9112343788147
80130605,บ้านทุ่งยาง,Ban Thung Yang,80130605,80130605,8.143993911330519,99.92628425359726
80130606,บ้านหัวควน,Ban Hua Khuan,80130606,80130606,8.15125437888687,99.92556273937225
80130607,บ้านทุ่งหล่อ,Ban Thung Lo,80130607,80130607,8.219336241147614,99.91607576608658
