id,name.th,name.en,name.slug,code.dopa,geo.lat,geo.lon
41110301,บ้านดงเย็น,Ban Dong Yen,41110301,41110301,17.599209205821467,103.38273704051971
41110302,บ้านป่าเป้า,Ban Pa Pao,41110302,41110302,13.332858007473515,100.68171635270119
41110303,บ้านดงแสนสุข,Ban Dong Saen Suk,41110303,41110303,17.599822805050177,103.3833821117878
41110304,บ้านดงสง่า,Ban Dong Sa-nga,41110304,41110304,13.707890770392774,100.53528919816017
41110305,บ้านดงสวรรค์,Ban Dong Sawan,41110305,41110305,17.60144883292492,103.37978526949883
41110306,บ้านป่าเป้าน้อย,Ban Pa Pao Noi,41110306,41110306,17.646586988442845,103.41559812426567
41110307,บ้านโนนชัยศิลป์,Ban Non Chai Sin,41110307,41110307,17.650990916256728,103.38664099574089
41110308,บ้านป่าเป้าทอง,Ban Pa Pao Thong,41110308,41110308,17.634023828495057,103.38271424174309
