id,name.th,name.en,name.slug,code.dopa,geo.lat,geo.lon
93090101,บ้านทุ่งรวงทอง,Ban Thung Ruang Thong,93090101,93090101,7.422775088251259,100.16846895217896
93090102,บ้านเกาะประดู่,Ban Ko Pradu,93090102,93090102,7.436149346131493,100.16298785805702
93090103,บ้านสังเขย่า,Ban Sang Khayao,93090103,93090103,7.452471319702634,100.16151666641235
93090104,บ้านท่ามะเดื่อ,Ban Tha Maduea,93090104,93090104,7.461911297217955,100.17068177461624
93090105,บ้านหูแร่,Ban Hu Rae,93090105,93090105,7.417366490381344,100.14129012823105
93090106,บ้านทุ่งเหนียง,Ban Thung Niang,93090106,93090106,7.42644417296446,100.1697389781475
93090107,บ้านทุ่งสงวน,Ban Thung Sa-nguan,93090107,93090107,7.4367238303380745,100.14018505811691
