id,name.th,name.en,name.slug,code.dopa,geo.lat,geo.lon
90010401,บ้านบางดาน,Ban Bang Dan,90010401,90010401,7.143198762013805,100.58965489268303
90010402,บ้านน้ำกระจาย,Ban Nam Krachai,90010402,90010402,7.128197585957135,100.58279648423195
90010403,บ้านควนหิน,Ban Khuan Hin,90010403,90010403,7.098948339048113,100.56795045733452
90010404,บ้านห้วยขัน,Ban Huai Chan,90010404,90010404,7.098385400203692,100.58729723095894
90010405,บ้านดอนขี้เหล็ก,Ban Don Khilek,90010405,90010405,13.72706875088845,100.52481785416603
90010406,บ้านบ่อระกำ,Ban Bo Rakam,90010406,90010406,7.074750663705475,100.59862017631531
90010407,บ้านนาป๋อง,Ban Na Pong,90010407,90010407,7.079701561918449,100.60959443449974
90010408,บ้านโคกไร่,Ban Khok Rai,90010408,90010408,7.157579361723041,100.58153182268143
