id,name.th,name.en,name.slug,code.dopa,geo.lat,geo.lon
22030401,บ้านไร่โอ๋,Ban Rai O,22030401,22030401,12.60107205603044,102.04331964254379
22030402,บ้านตลาด,Ban Talat,22030402,22030402,12.599086597384252,102.02418878674507
22030403,บ้านหมู่,Ban Mu,22030403,22030403,12.59408689049243,102.03627616167068
22030404,บ้านโรงน้ำมัน,Ban Rong Nam Man,22030404,22030404,12.601907069640701,102.03781709074974
22030405,บ้านบ่อเตา,Ban Bo Tao,22030405,22030405,12.595982078819102,102.0269675552845
22030406,บ้านห้างสูง,Ban Hang Sung,22030406,22030406,12.596582829653556,102.03048795461655
22030407,บ้านวัดกลาง,Ban Wat Klang,22030407,22030407,12.59618363807951,102.02722102403641
22030408,บ้านวัดบน,Ban Wat Bon,22030408,22030408,12.594835543908388,102.02902212738991
