id,name.th,name.en,name.slug,code.dopa,geo.lat,geo.lon
94030201,บ้านคอลอตันหยง,Ban Kholo Tanyong,94030201,94030201,6.738620866931463,101.25139340758324
94030202,บ้านบาโงสากอ,Ban Ba Ngo Sa Ko,94030202,94030202,3.73271012560479,101.24052375555038
94030203,บ้านโคกโหนด,Ban Khok Not,94030203,94030203,6.728133846508393,101.21264353394508
94030204,บ้านต้นสะท้อน,Ban Ton Sathon,94030204,94030204,6.757661807261749,101.23334482312202
94030205,บ้านกาแลภูมิ,Ban Ka Lae Phum,94030205,94030205,6.760719581675951,101.23068809509277
94030206,บ้านไร่,Ban Rai,94030206,94030206,6.758107955866101,101.2206794321537
94030207,บ้านแม่โอน,Ban Mae On,94030207,94030207,6.7280286288741085,101.21870398521423
94030208,บ้านบาโงแนแต,Ban Ba Ngo Mae Tae,94030208,94030208,6.733503911185531,101.203623265028
