id,name.th,name.en,name.slug,code.dopa,geo.lat,geo.lon
17010801,บ้านบางกระบือใต้,Ban Bang Krabue Tai,17010801,17010801,14.903096831156562,100.38270503282547
17010802,บ้านบางกระบือเหนือ,Ban Bang Krabue Nuea,17010802,17010802,14.908913167702737,100.38170456886291
17010803,บ้านวัดประโชติ,Ban Wat Pra Chot,17010803,17010803,14.9162222447312,100.36779060959816
17010804,บ้านลาดเค้า,Ban Lat Khao,17010804,17010804,14.901256513692283,100.3534783422947
17010805,บ้านสมัครใต้,Ban Samak Tai,17010805,17010805,14.9248584,100.3684068
17010806,บ้านบางสักเหล็ก,Ban Bang Sak Lek,17010806,17010806,14.941584370030862,100.36615446209908
17010807,บ้านแม่ลา,Ban Mae La,17010807,17010807,14.9239678,100.3470122
17010808,บ้านสมัครเหนือ,Ban Samak Nuea,17010808,17010808,14.936388306782735,100.36512985825539
