id,name.th,name.en,name.slug,code.dopa,geo.lat,geo.lon
65090201,บ้านมุงเหนือ,Ban Mung Nuea,65090201,65090201,16.562288119925793,100.69261953234673
65090202,บ้านมุงใต้,Ban Mung Tai,65090202,65090202,16.55958862950028,100.69785118103027
65090203,บ้านใหม่สามัคคี,Ban Mai Samakkhi,65090203,65090203,16.53128541052756,100.70836007595062
65090204,บ้านลำพาด,Ban Lam Phat,65090204,65090204,16.49226655022471,100.70215746760368
65090205,บ้านห้วยบ่อทอง,Ban Huai Bo Thong,65090205,65090205,16.489580226177168,100.73066532611847
65090206,บ้านหัวเขา,Ban Hua Khao,65090206,65090206,16.50026229071309,100.66102847456932
65090207,บ้านเนินสว่าง,Ban Noen Sawang,65090207,65090207,16.488394579673574,100.70552632212639
65090208,บ้านทุ่งพระ,Ban Thung Phra,65090208,65090208,16.530548720615506,100.72049170732498
