id,name.local,name.en,name.slug,code.id,zip_codes,geo.lat,geo.lon
540501,เด่นชัย,Den Chai,den-chai-540501,540501,54110,17.973,100.04
540504,ห้วยไร่,Huai Rai,huai-rai-540504,540504,54110,17.898,100.09
540502,แม่จั๊วะ,Mae Chua,mae-chua-540502,540502,54110,17.975,100.104
540505,ปงป่าหวาย,Pong Pa Wai,pong-pa-wai-540505,540505,54110,18.024,99.991
540503,ไทรย้อย,Sai Yoi,sai-yoi-540503,540503,54110,17.892,99.956
