id,name.th,name.en,name.slug,code.dopa,geo.lat,geo.lon
96080501,บ้านจือแร,Ban Chue Rae,96080501,96080501,5.9160098093755416,101.87554076313972
96080502,บ้านตอแล,Ban Tolae,96080502,96080502,5.909432004335841,101.86854690313339
96080503,บ้านยะหอ,Ban Yaho,96080503,96080503,5.918545665054414,101.8643170595169
96080504,บ้านควนกาแม,Ban Khuan Kamae,96080504,96080504,5.893429376510105,101.88384354114532
96080505,บ้านแม่ดง,Ban Mae Dong,96080505,96080505,5.903244981107374,101.84983178973198
96080506,บ้านบาละ,Ban Bala,96080506,96080506,5.895267647833432,101.84216067194939
96080507,บ้านเปราะห์,Ban Pro,96080507,96080507,5.895479755671193,101.83234244585037
