id,name.th,name.en,name.slug,code.dopa,geo.lat,geo.lon
16061401,บ้านกระเบากลัก,Ban Krabao Klak,16061401,16061401,15.189309231001575,100.61068207025528
16061402,บ้านกุดขาม,Ban Kut Kham,16061402,16061402,15.147548600916023,100.60851886868477
16061403,บ้านแหลมเพิ่ม,Ban Laem Phoem,16061403,16061403,15.106640745997268,100.60644015669823
16061404,บ้านโป่งแค,Ban Pong Khae,16061404,16061404,15.102976545846413,100.6072823703289
16061405,บ้านน้ำบ่อ,Ban Nam Bo,16061405,16061405,15.114585239714604,100.63117414712906
16061406,บ้านน้ำสร้าง,Ban Nam Sang,16061406,16061406,15.167584067409287,100.59310153126717
16061407,บ้านหนองไผ่ล้อม,Ban Nong Phai Lom,16061407,16061407,15.180289385250697,100.62672168016434
16061408,บ้านกระเบากลักพัฒนา,Ban Krabao Klak Phatthana,16061408,16061408,15.183720570154144,100.60752645134926
