id,name.th,name.en,name.slug,code.dopa,geo.lat,geo.lon
58040601,บ้านเสาหิน,Ban Sao Hin,58040601,58040601,18.550815953672334,97.66747131943703
58040602,บ้านแม่เหลอ,Ban Mae Loe,58040602,58040602,18.403818304282133,97.69769847393036
58040603,บ้านขุนแม่สอง,Ban Khun Mae Song,58040603,58040603,18.535848103694338,97.68289938569069
58040604,บ้านแม่เจ,Ban Mae Che,58040604,58040604,18.381026076574248,97.68849581480026
58040605,บ้านโพซอ,Ban Pho So,58040605,58040605,18.34043420075622,97.68845692276955
58040606,บ้านสล่าเชียงตอง,Ban Sala Chiang Thong,58040606,58040606,18.523340831442507,97.67491713166237
