id,name.th,name.en,name.slug,code.dopa,geo.lat,geo.lon
81050801,บ้านควนเคียนทอง,Ban Khuan Khian Thong,81050801,81050801,8.397537579073012,98.85884821414948
81050802,บ้านคลองทรายขาว,Ban Khlong Sai Khao,81050802,81050802,8.37903329072918,98.87926116585732
81050803,บ้านคลองยา,Ban Khlong Ya,81050803,81050803,8.393005456589348,98.87804478406906
81050804,บ้านเขาแก้ว,Ban Khao Kaeo,81050804,81050804,8.364881499974954,98.90884056687355
81050805,บ้านปากช่อง,Ban Pak Chong,81050805,81050805,8.389115431055728,98.89837592840195
81050806,บ้านคลองไร่,Ban Khlong Rai,81050806,81050806,8.378166896424668,98.88462960720062
