id,name.th,name.en,name.slug,code.dopa,geo.lat,geo.lon
96050801,บ้านบาโงตา,Ban Ba-ngo Ta,96050801,96050801,6.274548162080861,101.69857263565063
96050802,บ้านเจ๊ะเก,Ban Chaeko,96050802,96050802,6.259629553830904,101.69070571660995
96050803,บ้านลูโบ๊ะบาตู,Ban Lubo Batu,96050803,96050803,6.2683720086638735,101.68566316366196
96050804,บ้านบละแต,Ban Balatae,96050804,96050804,6.287529443333437,101.69070705771446
96050805,บ้านตราแด๊ะ,Ban Tradae,96050805,96050805,6.294609157373918,101.67372062802315
96050806,บ้านบาตูบือซา,Ban Batu Bueso,96050806,96050806,6.285011329368112,101.68352544307709
96050807,บ้านบาโงสะโต,Ban Ba-ngo Sato,96050807,96050807,6.286653636947396,101.69628739356995
96050808,บ้านบาโย,Ban Bayo,96050808,96050808,6.273188428132241,101.68855458498001
