id,name.th,name.en,name.slug,code.dopa,geo.lat,geo.lon
47140301,บ้านนาอ่าง,Ban Na Ang,47140301,47140301,16.972806437229607,104.12812560796738
47140302,บ้านคำข่า,Ban Kham Kha,47140302,47140302,16.990233544806234,104.14596229791641
47140303,บ้านนาตาล,Ban Na Tan,47140303,47140303,16.993411729890916,104.13944855332375
47140304,บ้านม่วงคำ,Ban Muang Kham,47140304,47140304,16.97451882133311,104.1457249224186
47140305,บ้านโคกสะอาด,Ban Khok Sa-at,47140305,47140305,16.986212640248045,104.15553107857704
47140306,บ้านโนนเจริญ,Ban Non Charoen,47140306,47140306,16.999956466743427,104.13212612271309
47140307,บ้านอ่างคำ,Ban Ang Kham,47140307,47140307,16.975466718625427,104.12819802761078
