id,name.th,name.en,name.slug,code.dopa,geo.lat,geo.lon
34200301,บ้านจิกเทิง,Ban Chik Thoeng,34200301,34200301,15.35059547470566,105.10797277092934
34200302,บ้านจิกลุ่ม,Ban Chik Lum,34200302,34200302,15.341851565459942,105.11373147368431
34200303,บ้านเชียงแก้ว,Ban Chiang Kaeo,34200303,34200303,15.371269786657662,105.10620653629303
34200304,บ้านเชียงแก้ว,Ban Chiang Kaeo,34200304,34200304,15.368206336544201,105.10379657149315
34200305,บ้านดอนโด่,Ban Don Do,34200305,34200305,15.366765762337769,105.12109413743019
34200306,บ้านดอนยูง,Ban Don Yung,34200306,34200306,15.353725138744366,105.12694269418716
34200307,บ้านค้อโคน,Ban Kho Khon,34200307,34200307,15.335599594603531,105.1134243607521
34200308,บ้านดอนแป้นลม,Ban Don Paen Lom,34200308,34200308,15.334288131382362,105.12007489800453
34200309,บ้านสร้างคำ,Ban Sarang Kham,34200309,34200309,15.371414617291737,105.10716944932938
