id,name.local,name.en,name.slug,code.id,zip_codes,geo.lat,geo.lon
311303,บ้านดู่,Ban Du,ban-du-311303,311303,31230,15.713,102.977
311302,บ้านคู,Ban Khu,ban-khu-311302,311302,31230,15.712,102.933
311304,ดอนกอก,Don Kok,don-kok-311304,311304,31230,15.763,102.895
311301,นาโพธิ์,Na Pho,na-pho-311301,311301,31230,15.635,102.944
311305,ศรีสว่าง,Si Sawang,si-sawang-311305,311305,31230,15.673,102.934
