id,name.th,name.en,name.slug,code.dopa,geo.lat,geo.lon
76020501,บ้านเขาสมอระบัง,Ban Khao Samo Rabang,76020501,76020501,13.198412756109143,99.87316578626633
76020502,บ้านหนองปลาไหล,Ban Nong Pla Lai,76020502,76020502,13.19023645405507,99.86806020140648
76020503,บ้านไผ่,Ban Phai,76020503,76020503,13.191864685489923,99.84705850481987
76020504,บ้านคลองน้ำเชี่ยว,Ban Khlong Nam Chiao,76020504,76020504,13.196686641662232,99.8833018541336
76020505,บ้านท่าเรือ,Ban Tha Ruea,76020505,76020505,13.203255473514202,99.86075788736343
