id,name.th,name.en,name.slug,code.dopa,geo.lat,geo.lon
12010901,บ้านวัดแดง,Ban Wat Daeng,12010901,12010901,13.886349325958681,100.48238396644592
12010902,บ้านคลองบางกำลัง,Ban Khlong Bang Kamlang,12010902,12010902,13.88495888300904,100.46606808900833
12010903,บ้านคลองหลุมมะดัน,Ban Khlong Lum Madan,12010903,12010903,13.851103972641484,100.34663334488869
12010904,บ้านไทรม้าเหนือ,Ban Sai Ma Nuea,12010904,12010904,13.86108570827017,100.47621622681618
12010905,บ้านไทรม้าใต้,Ban Sai Ma Tai,12010905,12010905,13.864875947099051,100.4664047062397
12010906,บ้านบางประดู่,Ban Bang Pradu,12010906,12010906,13.857684726776496,100.46628400683403
