id,name.th,name.en,name.slug,code.dopa,geo.lat,geo.lon
16090401,บ้านห้วยสาราม,Ban Huai Saram,16090401,16090401,15.46247242857539,100.86316242814064
16090402,บ้านหนองปากช่อง,Ban Nong Pak Chong,16090402,16090402,15.459101395255368,100.86399927735329
16090403,บ้านวังทอง,Ban Wang Thong,16090403,16090403,15.427394454737499,100.86011543869972
16090404,บ้านคุ้งตะแบก,Ban Khung Tabaek,16090404,16090404,15.42449860226731,100.8781050145626
16090405,บ้านคลองบง,Ban Khlong Bong,16090405,16090405,15.396596805906956,100.88162943720818
16090406,บ้านพุกระชัด,Ban Phu Kra Chat,16090406,16090406,15.381649491551943,100.85956022143364
16090407,บ้านหนองเป็ดวังหิน,Ban Nong Pet Wang Hin,16090407,16090407,15.414925195458524,100.84349915385246
16090408,บ้านพุแว้,Ban Phu Wae,16090408,16090408,15.367363200963633,100.88105008006096
16090409,บ้านหนองร่าเริง,Ban Nong Raroeng,16090409,16090409,15.480608886751103,100.8143462240696
