id,name.th,name.en,name.slug,code.dopa,geo.lat,geo.lon
15060301,บ้านลาดมะไฟ,Ban Lat Mafai,15060301,15060301,14.533573747283668,100.3882746398449
15060302,บ้านลาดจินจาน,Ban Lat Chin Chan,15060302,15060302,14.55277574186759,100.38498759269714
15060303,บ้านไผ่ดำ,Ban Phai Dam,15060303,15060303,14.53429813621711,100.39460197091103
15060304,บ้านไผ่ดำ,Ban Phai Dam,15060304,15060304,14.540737044591287,100.3998014330864
15060305,บ้านไผ่ดำ,Ban Phai Dam,15060305,15060305,14.53637003124121,100.3952269256115
15060306,บ้านคลองเจ้าเจ็ด,Ban Khlong Chao Chet,15060306,15060306,14.53117857342321,100.39421573281288
15060307,บ้านคลองแพ,Ban Khlong Phae,15060307,15060307,14.532703958151385,100.38975656032562
15060308,บ้านคลองสุคนธ์,Ban Khlong Sukhon,15060308,15060308,14.530215303772396,100.38704350590706
