id,name.th,name.en,name.slug,code.dopa,geo.lat,geo.lon
30101601,บ้านป่ารัง,Ban Pa Rang,30101601,30101601,15.081719053536935,102.3407256603241
30101602,บ้านโนนทอง,Ban Non Thong,30101602,30101602,15.083900967544457,102.34275206923485
30101603,บ้านมะค่า,Ban Makha,30101603,30101603,15.081313745976281,102.33590438961983
30101604,บ้านนาราด,Ban Na Rat,30101604,30101604,15.077646519127676,102.3290205001831
30101605,บ้านนาราดพัฒนา,Ban Na Rat Phatthana,30101605,30101605,15.076293306807287,102.32499316334724
30101606,บ้านหนองโจด,Ban Nong Chot,30101606,30101606,15.06269207378733,102.31067687273026
30101607,บ้านโนนมันเทศ,Ban Non Man Thet,30101607,30101607,15.03783646730587,102.27896377444267
