id,name.th,name.en,name.slug,code.dopa,geo.lat,geo.lon
25090101,บ้านสระมะเขือ,Ban Sa Makhuea,25090101,25090101,13.905624588185601,101.42405524849892
25090102,บ้านโคกวัด,Ban Khok Wat,25090102,25090102,13.8985583065821,101.41185522079468
25090103,บ้านโคกปีบ,Ban Khok Pip,25090103,25090103,13.8935526763176,101.40288591384888
25090104,บ้านโคกปีบ,Ban Khok Pip,25090104,25090104,13.88980456660306,101.40030026435852
25090105,บ้านทางข้าม,Ban Thang Kham,25090105,25090105,13.878744750933652,101.40277862548828
25090106,บ้านม่วงขาว,Ban Muang Khao,25090106,25090106,13.875750242744795,101.40470311045647
25090107,"บ้านด่าน, ชำหว้า","Ban Dan, Cham Wa",25090107,25090107,13.863399440945011,101.41460046172142
25090108,บ้านหนองสะแก,Ban Nong Sakae,25090108,25090108,13.897234331155923,101.40941441059113
25090109,บ้านหนองเรือ,Ban Nong Ruea,25090109,25090109,13.870599598227761,101.44181817770004
