id,name.th,name.en,name.slug,code.dopa,geo.lat,geo.lon
50150501,บ้านต้นแก้ว,Ban Ton Kaeo,50150501,50150501,18.68017735280759,98.95411625504494
50150502,บ้านถวาย,Ban Thawai,50150502,50150502,18.684324072593952,98.95244255661964
50150503,บ้านหนองโขง,Ban Nong Khong,50150503,50150503,18.680029979771444,98.94729271531105
50150504,บ้านสารภี,Ban Saraphi,50150504,50150504,18.674831186881534,98.9438809454441
50150505,บ้านขุนคงหลวง,Ban Khun Khong Luang,50150505,50150505,18.668773350248994,98.94981399178505
50150506,บ้านกาด,Ban Kat,50150506,50150506,18.672971169465566,98.95774260163307
50150507,บ้านท่าขุนคง,Ban Tha Khun Khong,50150507,50150507,18.657094124952298,98.96301046013832
50150508,บ้านท่ามะโก๋,Ban Tha Mako,50150508,50150508,18.64637983796375,98.95307555794716
50150509,บ้านแพะใหม่,Ban Phae Mai,50150509,50150509,18.67105904012584,98.96237075328827
