id,name.th,name.en,name.slug,code.dopa,geo.lat,geo.lon
45021001,บ้านยางจ้อง,Ban Yang Chong,45021001,45021001,15.671857012241261,103.50986033678055
45021002,บ้านน้ำอ้อม,Ban Nam Om,45021002,45021002,15.639716605162857,103.52442741394043
45021003,บ้านโนนจาน,Ban Non Chan,45021003,45021003,15.615044523750695,103.49927768111229
45021004,บ้านน้ำอ้อม,Ban Nam Om,45021004,45021004,15.640699397282255,103.52183908224106
45021005,บ้านหนองแวงยาว,Ban Nong Waeng Yao,45021005,45021005,15.67029846954988,103.5163003206253
45021006,บ้านน้ำอ้อม,Ban Nam Om,45021006,45021006,15.63741522591447,103.52100893855095
45021007,บ้านสว่างธรรมวิเศษ,Ban Sawang Tham Wiset,45021007,45021007,15.639015345877146,103.5221529006958
45021008,บ้านคุ้มหนองบัวพัฒนา,Ban Khum Nong Bua Phatthana,45021008,45021008,13.72706875088845,100.5340875685215
45021009,บ้านส้มโฮพัฒนา,Ban Som Ho Phatthana,45021009,45021009,15.639734685480981,103.5181725025177
