id,name.th,name.en,name.slug,code.dopa,geo.lat,geo.lon
81011701,บ้านหนองทะเล,Ban Nong Thale,81011701,81011701,8.092771289219678,98.81174594163895
81011702,บ้านคลองม่วง,Ban Khlong Muang,81011702,81011702,8.052288847048143,98.76172140240669
81011703,บ้านเกาะกวาง,Ban Ko Kwang,81011703,81011703,8.061343573708378,98.7494046986103
81011704,บ้านแหลมสอบ,Ban Laem Sop,81011704,81011704,8.094503997964818,98.80516111850739
81011705,บ้านในไร่,Ban Nai Rai,81011705,81011705,8.116894438328169,98.80163535475731
81011706,บ้านดินแดงน้อย,Ban Din Daeng Noi,81011706,81011706,8.117182542487651,98.77658486366272
81011707,บ้านเขากลม,Ban Khao Klom,81011707,81011707,8.106871736950243,98.80210071802139
