id,name.th,name.en,name.slug,code.dopa,geo.lat,geo.lon
55090801,บ้านน้ำคา,Ban Nam Kha,55090801,55090801,19.27581526437694,100.8731858432293
55090802,บ้านคันนา,Ban Khan Na,55090802,55090802,19.284576481057876,100.89624613523483
55090803,บ้านพูล,Ban Phun,55090803,55090803,19.28461572255769,100.8998242020607
55090804,บ้านพญาแก้ว,Ban Phaya Kaeo,55090804,55090804,19.287657543102874,100.89809149503708
55090805,บ้านผาน้ำย้อย,Ban Pha Nam Yoi,55090805,55090805,19.28002946682923,100.95211923122406
55090806,บ้านเกวต,Ban Kwet,55090806,55090806,19.307285609948707,101.01203039288521
55090807,บ้านม่วง,Ban Muang,55090807,55090807,19.284027099072983,100.90282827615738
