id,name.th,name.en,name.slug,code.dopa,geo.lat,geo.lon
86011301,บ้านกลางนา,Ban Klang Na,86011301,86011301,10.47584577114069,99.12064522504807
86011302,บ้านกลาง,Ban Klang,86011302,86011302,10.472991981914587,99.11920756101608
86011303,บ้านคนฑี,Ban Khonthi,86011303,86011303,10.470787002928914,99.1188132762909
86011304,บ้านขุนกระทิง,Ban Khun Krathing,86011304,86011304,10.470533798596524,99.11844849586487
86011305,บ้านดอนสมอ,Ban Don Samo,86011305,86011305,10.498933594144013,99.13238257169724
86011306,บ้านวัดพระขวาง,Ban Wat Phra Khwang,86011306,86011306,10.492245318177899,99.1419567167759
86011307,บ้านช่องชะอม,Ban Chong Cha-om,86011307,86011307,10.448127034484576,99.10198912024498
86011308,บ้านถ้ำ,Ban Tham,86011308,86011308,10.456798472608922,99.12173822522163
