id,name.th,name.en,name.slug,code.dopa,geo.lat,geo.lon
41110901,บ้านถ่อนนาลับ,Ban Thon Na Lap,41110901,41110901,17.841060601950446,103.20899426937103
41110902,บ้านนามั่ง,Ban Na Mang,41110902,41110902,17.844032527295205,103.18985804915428
41110903,บ้านทุ่งใหญ่,Ban Thung Yai,41110903,41110903,17.845838892379426,103.22626233100891
41110904,บ้านหนองลาด,Ban Nong Lat,41110904,41110904,13.788094312797403,100.53855076432228
41110905,บ้านหนองแวง,Ban Nong Waeng,41110905,41110905,13.72706875088845,100.5340875685215
41110906,บ้านโพธิ์ชัย,Ban Pho Chai,41110906,41110906,17.8427623161341,103.22894588112831
41110907,บ้านโพธิ์ท่าเมือง,Ban Phon Tha Mueang,41110907,41110907,13.72706875088845,100.5340875685215
41110908,บ้านเทพเทว,Ban Thep Theo,41110908,41110908,17.807227200576747,103.21976467967033
