id,name.th,name.en,name.slug,code.dopa,geo.lat,geo.lon
46080801,บ้านโนนสวัสดี,Ban Non Sawat Di,46080801,46080801,16.55330895428252,103.32359164953232
46080802,บ้านโนนสวรรค์,Ban Non Sawan,46080802,46080802,16.554109833149607,103.31631883978844
46080803,บ้านโนนขี้ควง,Ban Non Khu Khuang,46080803,46080803,16.554490345859413,103.32600831985474
46080804,บ้านหนองกุงไทย,Ban Nong Kung Thai,46080804,46080804,16.519987903925056,103.3277477324009
46080805,บ้านท่าวัด,Ban Tha Wat,46080805,46080805,16.552115985691433,103.3292081952095
46080806,บ้านหนองกุงไทย,Ban Nong Kung Thai,46080806,46080806,16.519855472194806,103.32649782299995
46080807,บ้านโนนสะอาด,Ban Non Sa-at,46080807,46080807,16.553503068085508,103.32819432020187
