id,name.th,name.en,name.slug,code.dopa,geo.lat,geo.lon
61020401,บ้านท่าดาน,Ban Tha Dan,61020401,61020401,15.506230127659887,99.9117936193943
61020402,บ้านคลองยาง,Ban Khlong Yang,61020402,61020402,15.486692361158156,99.91583570837975
61020403,บ้านดอนหวาย,Ban Don Wai,61020403,61020403,15.486828064410474,99.90928173065186
61020404,บ้านสำนักโก,Ban Samnak Ko,61020404,61020404,15.486917240784937,99.90928441286087
61020405,บ้านหนองหญ้าปล้อง,Ban Nong Ya Plong,61020405,61020405,15.497668527874033,99.9057050049305
61020406,บ้านทุ่งรกฟ้า,Ban Thung Rok Fa,61020406,61020406,15.493534278937478,99.88010331988335
