id,name.th,name.en,name.slug,code.dopa,geo.lat,geo.lon
80190401,บ้านทุ่งโพธิ์,Ban Thung Pho,80190401,80190401,8.118017645081919,99.87572059035301
80190402,บ้านโคกแร่,Ban Khok Rae,80190402,80190402,8.1313923265619,99.85471218824387
80190403,บ้านเขานา,Ban Khao Na,80190403,80190403,8.136288564600369,99.8342415690422
80190404,บ้านใสหินตั้ง,Ban Sai Hin Tang,80190404,80190404,8.090239263884435,99.87203791737556
80190405,บ้านอ้ายเลา,Ban Ai Lao,80190405,80190405,8.123782328181257,99.80222806334496
80190406,บ้านเตาปูน,Ban Tao Pun,80190406,80190406,8.107579401769307,99.87964868545532
80190407,บ้านเหนือคลอง,Ban Nuea Khlong,80190407,80190407,8.0752366544293,99.77508544921875
80190408,บ้านควนตอ,Ban Khuan To,80190408,80190408,8.121168183434182,99.8328723013401
