id,name.th,name.en,name.slug,code.dopa,geo.lat,geo.lon
66041301,บ้านคลองข่อย,Ban Khlong Khoi,66041301,66041301,16.15928547835832,100.3912653028965
66041302,บ้านไผ่หลวง,Ban Phai Luang,66041302,66041302,16.18749071153505,100.40682345628738
66041303,บ้านคลองข่อย,Ban Khlong Khoi,66041303,66041303,16.164570563019694,100.39453491568565
66041304,บ้านหาดแตงโม,Ban Hat Taengmo,66041304,66041304,16.19593166255674,100.4038716852665
66041305,บ้านไดกระพังปลา,Ban Dai Kraphang Pla,66041305,66041305,16.201532576434456,100.38404479622841
66041306,บ้านคลองข่อยพัฒนา,Ban Khlong Khoi Phatthana,66041306,66041306,16.159407849695906,100.39135783910751
