id,name.th,name.en,name.slug,code.dopa,geo.lat,geo.lon
24041001,บ้านหัวแหลม,Ban Hua Laem,24041001,24041001,13.49849797625365,100.98343804478645
24041002,บ้านล่าง,Ban Lang,24041002,24041002,13.487769250934502,100.99518477916718
24041003,บ้านท่าข้าม,Ban Tha Kham,24041003,24041003,13.47968359191734,100.99408239126205
24041004,บ้านคลองพานทอง,Ban Khlong Phan Thong,24041004,24041004,13.484085093458802,101.00408032536507
24041005,บ้านบางไทร,Ban Bang Sai,24041005,24041005,13.475152895011426,101.00669547915459
24041006,บ้านบางแสม,Ban Bang Samae,24041006,24041006,13.492067580191307,101.02369666099548
24041007,บ้านคลองบางนาง,Ban Khlong Bang Nang,24041007,24041007,13.506663847043233,101.0333351790905
24041008,บ้านคลองตำหรุ,Ban Khlong Tamru,24041008,24041008,13.464207921303549,100.98916724324226
