id,name.th,name.en,name.slug,code.dopa,geo.lat,geo.lon
73021301,บ้านรางพิกุล,Ban Rang Phikun,73021301,73021301,13.992511242186403,99.96938735246658
73021302,บ้านห้วยด้วน,Ban Huai Duan,73021302,73021302,14.005546098525024,99.9473811686039
73021303,บ้านกำแพงแสน,Ban Kamphaeng Saen,73021303,73021303,13.996355280873406,99.94488537311554
73021304,บ้านดอนกำเพา,Ban Don Kamphao,73021304,73021304,13.99585428421336,99.91403728723526
73021305,บ้านรางหมัน,Ban Rang Man,73021305,73021305,13.995647378780625,99.90423783659935
73021306,บ้านไผ่โน้ม,Ban Phai Nom,73021306,73021306,14.008771841307622,99.959015250206
73021307,บ้านทุ่งพัฒนา,Ban Thung Phatthana,73021307,73021307,14.010200574540598,99.95432138442993
73021308,บ้านห้วยด้วน,Ban Huai Duan,73021308,73021308,14.013134784770145,99.94220986962318
73021309,บ้านทุ่งกระถิน,Ban Thung Krathin,73021309,73021309,14.010315081008745,99.94760915637016
