id,name.th,name.en,name.slug,code.dopa,geo.lat,geo.lon
40161401,บ้านทุ่งชมพู,Ban Thung Chomphu,40161401,40161401,16.725202786009028,102.49126866459846
40161402,บ้านห้วยขี้หนู,Ban Huai Khi Nu,40161402,40161402,16.739140264285645,102.52240240573883
40161403,บ้านดอนดู่,Ban Don Du,40161403,40161403,16.756778985126417,102.50166222453117
40161404,บ้านโคกสงเปือย,Ban Khok Song Pueai,40161404,40161404,16.76620061563431,102.5013242661953
40161405,บ้านกุดแคน,Ban Kut Khaen,40161405,40161405,16.76256531097075,102.51575723290443
40161406,บ้านหนองพลวง,Ban Nong Phluang,40161406,40161406,16.778862644258325,102.48570576310158
40161407,บ้านดอนเพิ่ม,Ban Don Phoem,40161407,40161407,16.734054461459415,102.50632256269455
40161408,บ้านพระบาทโนนคูณ,Ban Phrabat Non Khun,40161408,40161408,16.69535553598244,102.4660786986351
