id,name.th,name.en,name.slug,code.dopa,geo.lat,geo.lon
82060201,บ้านบางวัน,Ban Bang Wan,82060201,82060201,8.97290671105201,98.40097904205322
82060202,บ้านตำหนัง,Ban Tam Nang,82060202,82060202,9.002165334574453,98.42125117778778
82060203,บ้านบางครั่ง,Ban Bang Khrang,82060203,82060203,9.050889567763056,98.41974914073944
82060204,บ้านทุ่งละออง,Ban Thung La-ok,82060204,82060204,9.042156325807852,98.32463398575783
82060205,บ้านคุรอด,Ban Khu Rot,82060205,82060205,9.089505,98.443107
82060206,บ้านบางติบ,Ban Bang Tip,82060206,82060206,9.090178,98.425515
82060207,บ้านโค้งศรราม,Ban Khong Son Ram,82060207,82060207,8.977355000668057,98.42141345143318
82060208,บ้านไทรทอง,Ban Sai Thong,82060208,82060208,9.019944806485318,98.43837171792984
82060209,บ้านบางเอียง,Ban Bang Iang,82060209,82060209,9.117300,98.383695
