id,name.th,name.en,name.slug,code.dopa,geo.lat,geo.lon
52100501,บ้านบอม,Ban Bom,52100501,52100501,18.064481091194573,99.49360772967339
52100502,บ้านแม่ไทย,Ban Mae Thai,52100502,52100502,18.048869310223292,99.50369149446487
52100503,บ้านหัวทุ่ง,Ban Hua Thung,52100503,52100503,18.063277488036743,99.5035171508789
52100504,บ้านโป่งแน่น,Ban Pong Naen,52100504,52100504,18.070739949659284,99.5122866332531
52100505,บ้านบอมสามัคคี,Ban Bom Samakkhi,52100505,52100505,18.066974971490723,99.49169129133224
52100506,บ้านบอมพัฒนา,Ban Bom Phatthana,52100506,52100506,18.07126905458216,99.4908544421196
