id,name.th,name.en,name.slug,code.dopa,geo.lat,geo.lon
30012201,บ้านบุ,Ban Bu,30012201,30012201,15.034364066875066,102.15753749012947
30012202,บ้านบุ,Ban Bu,30012202,30012202,15.03453762347927,102.16386079788208
30012203,บ้านตลาด,Ban Talat,30012203,30012203,15.030253065431863,102.15979188680649
30012204,บ้านโพธิ์,Ban Pho,30012204,30012204,15.026900999333296,102.1672859787941
30012205,บ้านกระฉอด,Ban Krachot,30012205,30012205,15.031105321136916,102.1725457906723
30012206,บ้านราษฎร์ประสงค์,Ban Rat Prasong,30012206,30012206,15.039149773733829,102.17054083943367
30012207,บ้านหนองตะคอง,Ban Nong Takhong,30012207,30012207,15.048122522707937,102.17435091733932
30012208,บ้านบุพัฒนา,Ban Bu Phatthana,30012208,30012208,15.034720246320772,102.15910390019417
