id,name.th,name.en,name.slug,code.dopa,geo.lat,geo.lon
32080301,บ้านนาดี,Ban Na Di,32080301,32080301,15.150690351718882,103.74357461929321
32080302,บ้านนาดี,Ban Na Di,32080302,32080302,15.152637255877705,103.74479368329048
32080303,บ้านปะ,Ban Pa,32080303,32080303,15.16837105305727,103.75457301735878
32080304,บ้านหนองระฆัง,Ban Nong Rakhang,32080304,32080304,15.153452775567251,103.75572368502617
32080305,บ้านโนนธาตุ,Ban Non That,32080305,32080305,15.15643651525781,103.74183923006058
32080306,บ้านหนองทิดลา,Ban Non Thit La,32080306,32080306,15.126705975106349,103.76323655247688
32080307,บ้านสะทืด,Ban Sathuet,32080307,32080307,15.116079330624784,103.76535013318062
32080308,บ้านหนองระฆัง,Ban Nong Rakhang,32080308,32080308,15.149243106834154,103.75736251473427
