id,name.th,name.en,name.slug,code.dopa,geo.lat,geo.lon
16020601,บ้านห้วยสำราญพัฒนา,Ban Huai Samran Phatthana,16020601,16020601,14.826404494463876,100.95852434635162
16020602,บ้านห้วยแก้วสามัคคี,Ban Huai Kaeo Samakkhi,16020602,16020602,14.818022762337023,100.97767665982246
16020603,บ้านใหม่โพธิ์ทอง,Ban Mai Pho Thong,16020603,16020603,14.801666754857816,100.99815398454666
16020604,บ้านชอนน้อย,Ban Chon Noi,16020604,16020604,14.781795430788836,100.97866505384445
16020605,บ้านศรีประชา,Ban Si Pracha,16020605,16020605,14.782734254029483,100.99148064851761
