id,name.th,name.en,name.slug,code.dopa,geo.lat,geo.lon
49020601,บ้านชัยมงคล,Ban Chai Mongkhon,49020601,49020601,16.34326024184511,104.52895626425743
49020602,บ้านคลองน้ำใส,Ban Khlong Nam Sai,49020602,49020602,13.72706875088845,100.5340875685215
49020603,บ้านหนองแวงน้อย,Ban Nong Waeng Noi,49020603,49020603,16.350330422933947,104.49893832206726
49020604,บ้านคำบง,Ban Kham Bong,49020604,49020604,13.72706875088845,100.5340875685215
49020605,บ้านคำพอก,Ban Kham Phok,49020605,49020605,13.72706875088845,100.5340875685215
49020606,บ้านป่าข่า,Ban Pa Kha,49020606,49020606,16.34739505482632,104.51274499297142
49020607,บ้านหนองหลี่,Ban Nong Li,49020607,49020607,16.353128054061887,104.48654115200043
49020608,บ้านหนองแวงเหนือ,Ban Nong Waeng Nuea,49020608,49020608,16.335144789624426,104.49665978550911
49020609,บ้านหนองลำดวน,Ban Nong Lamduan,49020609,49020609,16.35875407956829,104.46307584643364
