id,name.th,name.en,name.slug,code.dopa,geo.lat,geo.lon
30300401,บ้านหนองแวง,Ban Nong Waeng,30300401,30300401,15.641307667044194,102.56157740950584
30300402,บ้านหนองผือ,Ban Nong Phue,30300402,30300402,15.656352405100975,102.57668226957321
30300403,บ้านคึมมะอุ,Ban Khuem Ma-u,30300403,30300403,15.67977350233642,102.58846655488014
30300404,บ้านหนองจาน,Ban Nong Chan,30300404,30300404,15.684194517335065,102.5710617005825
30300405,บ้านตลาดหนองแวง,Ban Talat Nong Waeng,30300405,30300405,15.638949481621902,102.56938397884369
30300406,บ้านหนองตาดน้อย,Ban Nong Tat Noi,30300406,30300406,15.642123856325716,102.55759164690971
30300407,บ้านหนองหว้า,Ban Nong Wa,30300407,30300407,15.636343306433007,102.55878522992134
30300408,บ้านหัวนาคำ,Ban Hua Na Kham,30300408,30300408,15.627876236760903,102.574842274189
30300409,บ้านสวนหม่อน,Ban Suan Mon,30300409,30300409,15.681269995647297,102.58897349238396
