id,name.th,name.en,name.slug,code.dopa,geo.lat,geo.lon
84180401,บ้านบางปาน,Ban Bang Pan,84180401,84180401,8.402037807581916,99.0673591196537
84180402,บ้านบ้านสองแพรก,Ban Song Phraek,84180402,84180402,8.369019883898895,99.06452938914299
84180403,บ้านไทรงาม,Ban Sai Ngam,84180403,84180403,8.387702434647082,99.07430604100227
84180404,บ้านควรสระ,Ban Khuan Sa,84180404,84180404,8.398831134770592,98.99987876415253
84180405,บ้านควนสินชัย,Ban Khuan Sin Chai,84180405,84180405,8.399940272427438,99.17554065585136
84180406,บ้านสองแพรกใหม่,Ban Song Phraek Mai,84180406,84180406,8.378332745407182,99.08958792686462
84180407,บ้านคลองเพร็ง,Ban Khlong Phreng,84180407,84180407,8.42081561479724,99.14926305413246
84180408,บ้านสระแก้ว,Ban Sa Kaeo,84180408,84180408,8.422816192279937,98.99621352553368
