id,name.local,name.en,name.slug,code.id,zip_codes,geo.lat,geo.lon
810808,ห้วยยูง,Huai Yung,huai-yung-810808,810808,81130,8.12,99.026
810804,คลองเขม้า,Khlong Khamao,khlong-khamao-810804,810804,81130,8.036,98.976
810803,คลองขนาน,Khlong Khanan,khlong-khanan-810803,810803,81130,7.96,99.03
810805,โคกยาง,Khok Yang,khok-yang-810805,810805,81130,8.09,99.087
810802,เกาะศรีบอยา,Ko Si Boya,ko-si-boya-810802,810802,81130,7.836,98.963
810801,เหนือคลอง,Nuea Khlong,nuea-khlong-810801,810801,81130,8.086,98.99
810807,ปกาสัย,Pakasai,pakasai-810807,810807,81130,8.015,99.062
810806,ตลิ่งชัน,Taling Chan,taling-chan-810806,810806,81130,7.963,98.969
