id,name.th,name.en,name.slug,code.dopa,geo.lat,geo.lon
14071001,บ้านคลองสาร,Ban Khlong San,14071001,14071001,14.461812445247295,100.51385432481766
14071002,บ้านลำปู่เฒ่า,Ban Lam Pu Thao,14071002,14071002,14.472837376249734,100.50843223929405
14071003,บ้านกลาง,Ban Klang,14071003,14071003,14.479485833249097,100.50793200731277
14071004,บ้านทับน้ำ,Ban Thap Nam,14071004,14071004,14.481598494576836,100.50640717148781
14071005,บ้านปลายน้ำ,Ban Plai Nam,14071005,14071005,13.622654921008488,100.48808231949806
