id,name.th,name.en,name.slug,code.dopa,geo.lat,geo.lon
23050301,บ้านอ่าวตาลคู่,Ban Ao Tan Khu,23050301,23050301,12.21115004398698,102.28560492396355
23050302,บ้านบางปิดล่าง,Ban Bang Pit Lang,23050302,23050302,12.2171218068579,102.30739787220955
23050303,บ้านบางปิดบน,Ban Bang Pit Bon,23050303,23050303,12.235049393076336,102.30307281017303
23050304,บ้านบางกระดาน,Ban Nang Kradan,23050304,23050304,12.25645526159279,102.28733763098717
23050305,บ้านปากคลอง,Ban Pak Khlong,23050305,23050305,12.270979542784929,102.26631045341492
23050306,บ้านหินดาษ,Ban Hin Dat,23050306,23050306,12.269594377890312,102.28261962532997
23050307,บ้านช่องลม,Ban Chong Lom,23050307,23050307,12.222630756569389,102.30850428342819
23050308,บ้านพรงสน,Ban Phrong Son,23050308,23050308,12.249907737613903,102.28649541735649
