id,name.local,name.en,name.slug,code.id,zip_codes,geo.lat,geo.lon
960403,จอเบาะ,Chobo,chobo-960403,960403,96180,6.382,101.66
960402,ละหาร,Lahan,lahan-960402,960402,96180,6.396,101.745
960404,ลุโบะบายะ,Lubo Baya,lubo-baya-960404,960404,96180,6.422,101.663
960405,ลุโบะบือซา,Lubo Buesa,lubo-buesa-960405,960405,96180,6.43,101.725
960406,ตะปอเยาะ,Tapoyo,tapoyo-960406,960406,96180,6.457,101.663
960401,ยี่งอ,Yi-ngo,yi-ngo-960401,960401,96180,6.382,101.703
