id,name.local,name.en,name.slug,code.id,zip_codes,geo.lat,geo.lon
720302,ด่านช้าง,Dan Chang,dan-chang-720302,720302,72180,14.744,99.527
720303,ห้วยขมิ้น,Huai Khamin,huai-khamin-720303,720303,72180,14.922,99.534
720306,นิคมกระเสียว,Nikhom Krasiao,nikhom-krasiao-720306,720306,72180,14.844,99.548
720301,หนองมะค่าโมง,Nong Makha Mong,nong-makha-mong-720301,720301,72180,14.882,99.737
720304,องค์พระ,Ong Phra,ong-phra-720304,720304,72180,14.8,99.386
720305,วังคัน,Wang Khan,wang-khan-720305,720305,72180,14.937,99.666
720307,วังยาว,Wang Yao,wang-yao-720307,720307,72180,14.954,99.381
