id,name.th,name.en,name.slug,code.dopa,geo.lat,geo.lon
16050901,บ้านลาดสาลี่,Ban Lat Sali,16050901,16050901,14.788570686996712,100.51566079258919
16050902,บ้านลาดสาลี,Ban Lat Sali,16050902,16050902,14.777876707631544,100.51837116479874
16050903,บ้านลำอ้ายด้วน,Ban Lam Ai Duan,16050903,16050903,14.75713819782946,100.53527846932411
16050904,บ้านไผ่ตล่อม,Ban Phai Talom,16050904,16050904,14.750026,100.5477142
16050905,บ้านกระทุ่มสูง,Ban Krathum Sung,16050905,16050905,14.75128017018485,100.54228708148003
16050906,บ้านโคกแฝก,Ban Khok Faek,16050906,16050906,14.752027184476649,100.53679123520851
16050907,บ้านกระเบาเรียง,Ban Krabao Riang,16050907,16050907,14.758152345551638,100.53416937589645
