id,name.th,name.en,name.slug,code.dopa,geo.lat,geo.lon
70070801,บ้านใหญ่,Ban Yai,70070801,70070801,13.641190814421396,99.85830634832382
70070802,บ้านบางลาน,Ban Bang Lan,70070802,70070802,13.64083893011651,99.85844045877457
70070803,บ้านน้อย,Ban Noi,70070803,70070803,13.638487808191796,99.86778259277344
70070804,บ้านวังลึก,Ban Wang Luek,70070804,70070804,13.62797003056721,99.84689086675644
70070805,บ้านดอนทราย,Ban Don Sai,70070805,70070805,13.632484782067065,99.85213860869408
70070806,บ้านท่ามะขาม,Ban Tha Makham,70070806,70070806,13.623723687311765,99.84761238098145
70070807,บ้านท่ามะขาม,Ban Tha Makham,70070807,70070807,13.621242056675468,99.84545454382896
70070808,บ้านวังลึก,Ban Wang Luek,70070808,70070808,13.620798905606616,99.84703570604324
70070809,บ้านหัวโพ,Ban Hua Pho,70070809,70070809,13.631756223791118,99.85289499163628
