id,name.th,name.en,name.slug,code.dopa,geo.lat,geo.lon
20050901,บ้านเนินถำวร,Ban Noen Thamwon,20050901,20050901,13.49236100093938,101.07114091515541
20050902,บ้านเนินแสนสุข,Ban Noen Saen Suk,20050902,20050902,13.496783133968286,101.07624515891075
20050903,บ้านบางแสม,Ban Bang Samae,20050903,20050903,13.480636931424772,101.04110017418861
20050904,บ้านบางนาง,Ban Bang Nang,20050904,20050904,13.508643330960787,101.05373203754425
20050905,บ้านบางสมัน,Ban Bang Saman,20050905,20050905,13.480526078189046,101.06342151761055
20050906,บ้านใน,Ban Nai,20050906,20050906,13.497106542429346,101.058908700943
20050907,บ้านเนินตาพูน,Ban Noen Taphun,20050907,20050907,13.480914716366115,101.07632160186768
20050908,บ้านอินพลาด,Ban In Phlat,20050908,20050908,13.45897392887779,101.01740151643753
20050909,บ้านเนินสระ,Ban Noen Sa,20050909,20050909,13.466859436704915,101.0602055490017
