id,name.th,name.en,name.slug,code.dopa,geo.lat,geo.lon
84120301,บ้านหัวถนน,Ban Hua Thanon,84120301,84120301,8.920426561233795,99.40010592341423
84120302,บ้านใสใหญ่,Ban Sai Nai,84120302,84120302,8.900339452134777,99.39521759748459
84120303,บ้านไร่เหนือ,Ban Rai Nuea,84120303,84120303,8.914748066930017,99.43635061383247
84120304,บ้านทุ่งในไร่,Ban Thung Nai Rai,84120304,84120304,8.922851089757676,99.38314095139503
84120305,บ้านคลองขนุน,Ban Khlong Khanun,84120305,84120305,8.927249646830962,99.37694236636162
