id,name.th,name.en,name.slug,code.dopa,geo.lat,geo.lon
80220301,บ้านสวนขัน,Ban Suan Khan,80220301,80220301,8.424230387363858,99.60273072123528
80220302,บ้านเทพรัตนา,Ban Thep Rattana,80220302,80220302,8.42352594374209,99.59868058562279
80220303,บ้านคลองปีก,Ban Khlong Pik,80220303,80220303,8.42463766397621,99.61035087704659
80220304,บ้านน้ำน้อย,Ban Nam Noi,80220304,80220304,8.385927226242842,99.60972458124161
80220305,บ้านไทรงาม,Ban Sai Ngam,80220305,80220305,8.384258151453821,99.59523797035217
80220306,บ้านคลองปีกเหนือ,Ban Khlong Pik Nuea,80220306,80220306,8.406629525842824,99.61119845509529
80220307,บ้านนายน,Ban Na Yon,80220307,80220307,8.40520332619419,99.60409194231033
80220308,บ้านพรุแชง,Ban Phru Chaeng,80220308,80220308,8.413209876724748,99.58866387605667
80220309,บ้านจอมทอง,Ban Chom Thong,80220309,80220309,8.416905968342594,99.6186925470829
