id,name.th,name.en,name.slug,code.dopa,geo.lat,geo.lon
57012001,บ้านดอยฮางใน,Ban Doi Hang Nai,57012001,57012001,19.913090809477666,99.75558176636696
57012002,บ้านฮ่องอ้อ,Ban Hong O,57012002,57012002,19.907038276168404,99.77741494774818
57012003,บ้านดอยฮางนอก,Ban Doi Hang Nok,57012003,57012003,19.921937178975647,99.76661637425423
57012004,บ้านโป่งนาคำ,Ban Pong Na Kham,57012004,57012004,19.947953933028035,99.72774043679237
57012005,บ้านยางคำนุ,Ban Yang Kham Nu,57012005,57012005,19.941257259923848,99.71971526741982
57012006,บ้านผาเสริฐ,Ban Pha Soet,57012006,57012006,19.957895043930904,99.69114437699318
57012007,บ้านโป่งน้ำร้อน,Ban Pong Nam Ron,57012007,57012007,19.936777944882376,99.6798549592495
57012008,บ้านห้วยปูพัฒนา,Ban Huai Pu Phatthana,57012008,57012008,19.92761846596951,99.72026512026787
