id,name.th,name.en,name.slug,code.dopa,geo.lat,geo.lon
72071501,บ้านหัวทราย,Ban Hua Sai,72071501,72071501,14.175848383866567,100.02949699759483
72071502,บ้านดอนมะนาว,Ban Don Manao,72071502,72071502,14.170898216864606,100.01641184091568
72071503,บ้านไผ่วัดชี,Ban Phai Wat Chi,72071503,72071503,14.187381450781867,100.00817477703094
72071504,บ้านดอนมะนาว,Ban Don Manao,72071504,72071504,14.171986560716192,100.01075372099876
72071505,บ้านหนองนา,Ban Nong Na,72071505,72071505,14.155744079425016,99.99678209424019
72071506,บ้านบัวแดง,Ban Bua Daeng,72071506,72071506,14.155339660496047,99.98705238103867
72071507,บ้านสระพังเขิน,Ban Sara Phang Khoen,72071507,72071507,13.72706875088845,100.5340875685215
