id,name.th,name.en,name.slug,code.dopa,geo.lat,geo.lon
53060401,บ้านบ่อเบี้ย,Ban Bo Bia,53060401,53060401,18.32205646606705,101.13568291068077
53060402,บ้านห้วยไผ่,Ban Huai Phai,53060402,53060402,18.300543278239825,101.10007926821709
53060403,บ้านปางคอม,Ban Pang Khom,53060403,53060403,18.230804734753317,101.0845398902893
53060407,บ้านห้วยยาง,Ban Huai Yang,53060407,53060407,18.33156002034975,101.10764041543007
53060408,บ้านเด่นชาติ,Ban Den Chat,53060408,53060408,18.229201030269437,101.0224561393261
53060409,บ้านปางไฮ,Ban Pang Hai,53060409,53060409,18.18515771053632,101.06078892946243
53060410,บ้านภูต่าง,Ban Phu Tang,53060410,53060410,18.274262167418552,101.0919950902462
