id,name.th,name.en,name.slug,code.dopa,geo.lat,geo.lon
63030101,บ้านป่ายางใต้,Ban Pa Yang Tai,63030101,63030101,17.14766058748603,99.07006949186325
63030102,บ้านสามเงา,Ban Sam Ngao,63030102,63030102,17.198200787640836,99.06096071004868
63030103,บ้านจัดสรร,Ban Chatsan,63030103,63030103,17.21079140886189,99.0547151863575
63030104,บ้านจัดสรร,Ban Chatsan,63030104,63030104,17.219829019774778,99.04310524463654
63030105,บ้านท่าปุย,Ban Tha Pui,63030105,63030105,17.243180006397292,99.02250453829765
63030106,บ้านเขื่อนภูมิพล,Ban Khuean Phum Phon,63030106,63030106,17.244875816046388,99.00027573108673
63030107,บ้านป่ายางใหม่,Ban Pa Yang Mai,63030107,63030107,17.15401538691141,99.07116651535034
