id,name.th,name.en,name.slug,code.dopa,geo.lat,geo.lon
90120201,บ้านเนินพิจิตร,Ban Noen Phichit,90120201,90120201,6.998799648649262,100.58346301317215
90120202,บ้านโคกทัง,Ban Khok Thang,90120202,90120202,6.980732122289419,100.59061914682388
90120203,บ้านโคกพยอม,Ban Khok Phayom,90120203,90120203,6.988522023331155,100.57233318686485
90120204,บ้านพลีควาย,Ban Phli Khwai,90120204,90120204,6.976903681827928,100.56154936552048
90120205,บ้านทุ่งนาหว่าน,Ban Thung Na Wan,90120205,90120205,6.971042486499346,100.55210530757904
90120206,บ้านคลองบ่วงตก,Ban Khlong Buang Tok,90120206,90120206,6.982607727204582,100.55727258324623
