id,name.local,name.en,name.slug,code.id,zip_codes,geo.lat,geo.lon
460903,นามะเขือ,Na Makhuea,na-makhuea-460903,460903,46140,16.678,103.638
460905,นิคม,Nikhom,nikhom-460905,460905,46140,16.677,103.492
460907,โนนบุรี,Non Buri,non-buri-460907,460907,46140,16.706,103.491
460906,โนนแหลมทอง,Non Laem Thong,non-laem-thong-460906,460906,46140,16.751,103.619
460908,โนนน้ำเกลี้ยง,Non Nam Kliang,non-nam-kliang-460908,460908,46140,16.683,103.538
460904,โนนศิลา,Non Sila,non-sila-460904,460904,46140,16.8,103.605
460902,สหัสขันธ์,Sahatsakhan,sahatsakhan-460902,460902,46140,16.728,103.55
