id,name.local,name.en,name.slug,code.id,zip_codes,geo.lat,geo.lon
341008,บ้านแมด,Ban Maet,ban-maet-341008,341008,34230,14.906,105.348
341007,บัวงาม,Bua Ngam,bua-ngam-341007,341007,34230,14.741,105.371
341002,ห้วยข่า,Huai Kha,huai-kha-341002,341002,34230,14.567,105.424
341003,คอแลน,Kho Laen,kho-laen-341003,341003,34230,14.867,105.461
341004,นาโพธิ์,Na Pho,na-pho-341004,341004,34230,14.891,105.294
341006,โนนค้อ,Non Kho,non-kho-341006,341006,34230,14.672,105.307
341005,หนองสะโน,Nong Sano,nong-sano-341005,341005,34230,14.771,105.288
341001,โพนงาม,Phon Ngam,phon-ngam-341001,341001,34230,14.759,105.464
