id,name.th,name.en,name.slug,code.dopa,geo.lat,geo.lon
46011501,บ้านนาคอกควาย,Ban Na Khok Khwai,46011501,46011501,16.558903467103132,103.53106185793877
46011502,บ้านคำไผ่,Ban Kham Phai,46011502,46011502,16.519033879140537,103.51514831185341
46011503,บ้านโนนสง่า,Ban Non Sa-nga,46011503,46011503,16.518662296783845,103.51812019944191
46011504,บ้านหนองกุงเหนือ,Ban Nong Kung Nuea,46011504,46011504,16.505009685621868,103.53354558348656
46011505,บ้านหนองกุงใต้,Ban Nong Kung Tai,46011505,46011505,16.505009685621868,103.53354558348656
46011506,บ้านโคกสำราญ,Ban Khok Samran,46011506,46011506,16.49585811622103,103.52988973259926
46011507,บ้านท่าลำดวน,Ban Tha Lamduan,46011507,46011507,16.48267071116408,103.52298974990845
46011508,บ้านกุดลาย,Ban Kut Lai,46011508,46011508,16.472586980603637,103.52079570293427
