id,name.th,name.en,name.slug,code.dopa,geo.lat,geo.lon
67070801,บ้านขอนยางขวาง,Ban Khon Yang Khwang,67070801,67070801,15.99675096669547,101.1881174147129
67070802,บ้านคลองยาง,Ban Khlong Yang,67070802,67070802,16.005682160085737,101.19150772690773
67070803,บ้านกลาง,Ban Klang,67070803,67070803,15.997837736877315,101.19683593511581
67070804,บ้านลำพาด,Ban Lam Phat,67070804,67070804,15.99871050058553,101.20612040162086
67070805,บ้านวังท่าดี,Ban Wang Tha Di,67070805,67070805,16.00374332062275,101.21363326907158
67070806,บ้านเนินสะแก,Ban Noen Sakae,67070806,67070806,15.989768681866849,101.21794357895851
67070807,บ้านโคกกลาง,Ban Khok Klang,67070807,67070807,16.005084009492798,101.19103565812111
67070808,บ้านดงกระถิน,Ban Dong Krathin,67070808,67070808,16.001725824740703,101.20451912283897
67070809,บ้านนาประดู่,Ban Na Pradu,67070809,67070809,16.00821525642595,101.21251612901688
