id,name.local,name.en,name.slug,code.id,zip_codes,geo.lat,geo.lon
960101,บางนาค,Bang Nak,bang-nak-960101,960101,96000,6.424,101.82
960104,บางปอ,Bang Po,bang-po-960104,960104,96000,6.33,101.804
960105,กะลุวอ,Kaluwo,kaluwo-960105,960105,96000,6.342,101.874
960106,กะลุวอเหนือ,Kaluwo Nuea,kaluwo-nuea-960106,960106,96000,6.404,101.862
960107,โคกเคียน,Khok Khian,khok-khian-960107,960107,96000,6.482,101.763
960102,ลำภู,Lam Phu,lam-phu-960102,960102,96000,6.379,101.819
960103,มะนังตายอ,Manang Tayo,manang-tayo-960103,960103,96000,6.354,101.76
