id,name.th,name.en,name.slug,code.dopa,geo.lat,geo.lon
60060101,บ้านท่ามะขามเอน,Ban Tha Makham En,60060101,60060101,15.826483351750856,100.07952958345413
60060102,บ้านมหาโพธิ,Ban Maha Phot,60060102,60060102,15.824213761172714,100.08054614067078
60060103,บ้านท่ากระดังงา,Ban Tha Kradang-nga,60060103,60060103,15.818846123229765,100.08166059851646
60060104,บ้านหนองหัวเรือ,Ban Nong Hua Ruea,60060104,60060104,15.843038076156649,100.1193805038929
60060105,บ้านมหาโพธิเหนือ,Ban Maha Phot Nuea,60060105,60060105,15.832677823724334,100.0760467350483
