id,name.th,name.en,name.slug,code.dopa,geo.lat,geo.lon
13010901,บ้านทำนบบางโพธิ์,Ban Thamnop Bang Pho,13010901,13010901,14.0038346,100.4685632
13010902,บ้านคลองบางโพธิ์ฝั่งใต้,Ban Khlong Bang Pho Fang Tai,13010902,13010902,13.99838007702903,100.48367008566856
13010903,บ้านหนองปรง,Ban Nong Prong,13010903,13010903,13.988223384551226,100.50257161259651
13010904,บ้านคลองบางโพธิ์,Ban Khlong Bang Pho,13010904,13010904,13.982908672523777,100.52370071411133
13010905,บ้านบางเดื่อ,Ban Bang Duea,13010905,13010905,13.981285865026232,100.52403196692467
13010906,บ้านน้ำวน,Ban Nam Won,13010906,13010906,13.973610233938837,100.51858842372894
13010907,บ้านคลองบางโพธิ์ฝั่งใต้,Ban Khlong Bang Pho Fang Tai,13010907,13010907,14.011686551769046,100.4577948153019
