id,name.th,name.en,name.slug,code.dopa,geo.lat,geo.lon
70012101,บ้านท่าราบ,Ban Tha Rap,70012101,70012101,13.580608170988242,99.81689974665642
70012102,บ้านกล้วย,Ban Kluai,70012102,70012102,13.58520855877079,99.8158161342144
70012103,บ้านยายคลัง,Ban Yai Khlang,70012103,70012103,13.590750023832591,99.81329888105392
70012104,บ้านบางกระ,Ban Bang Kra,70012104,70012104,13.599789985702454,99.80284631252289
70012105,บ้านคลองท่อ,Ban Khlong Tho,70012105,70012105,13.609526948682062,99.8070265352726
70012106,บ้านซ่อง,Ban Song,70012106,70012106,13.615878569560277,99.80559825897217
70012107,บ้านซ่อง,Ban Song,70012107,70012107,13.619313040079797,99.80653703212738
