id,name.th,name.en,name.slug,code.dopa,geo.lat,geo.lon
64040301,บ้านวัดโบสถ์,Ban Wat Bot,64040301,64040301,16.980870539619975,100.0065091252327
64040302,บ้านเกาะ,Ban Ko,64040302,64040302,16.978772136275932,100.00739023089409
64040303,บ้านไร่,Ban Rai,64040303,64040303,16.983204921632726,100.01474887132645
64040304,บ้านคุ้งยาง,Ban Khung Yang,64040304,64040304,16.976119597738204,100.01332327723503
64040305,บ้านไกรนอก,Ban Krai Nok,64040305,64040305,16.972739737307997,100.01126736402512
64040306,บ้านป่ายาง,Ban Pa Yang,64040306,64040306,16.97542439043167,100.02129480242729
64040307,บ้านโป่งแค,Ban Pong Khae,64040307,64040307,16.956840108940447,100.0282846391201
64040308,บ้านวังไผ่สูง,Ban Wang Phai Sung,64040308,64040308,16.918191799496565,100.04662156105042
