id,name.th,name.en,name.slug,code.dopa,geo.lat,geo.lon
32120301,บ้านกระออม,Ban Kra-om,32120301,32120301,15.110728261416677,103.96403074264526
32120302,บ้านโนนจารย์,Ban Non Chan,32120302,32120302,15.122787073543167,103.94118368625641
32120303,บ้านหนองเหล็ก,Ban Nong Lek,32120303,32120303,15.131773122633652,103.94680693745613
32120304,บ้านผือ,Ban Phue,32120304,32120304,13.72706875088845,100.5340875685215
32120305,บ้านหนองหมี,Ban Nong Mi,32120305,32120305,15.130882431998778,103.97086501121521
32120306,บ้านนาทุ่ง,Ban Na Thung,32120306,32120306,13.72706875088845,100.5340875685215
32120307,บ้านหนองอีเลิง,Ban Nong I Loeng,32120307,32120307,15.123025290968824,103.96813988685608
32120308,บ้านบก,Ban Bok,32120308,32120308,15.12752030003604,103.94436478614807
32120309,บ้านจงเจริญ,Ban Chong Charoen,32120309,32120309,15.11884091116259,103.94485831260681
