id,name.th,name.en,name.slug,code.dopa,geo.lat,geo.lon
21040101,บ้านวังจันทน์,Ban Wang Chan,21040101,21040101,12.851178794643003,101.55243515968323
21040102,บ้านหนองโพรง,Ban Nong Phrong,21040102,21040102,12.871581678854644,101.54347121715546
21040103,บ้านชงโค,Ban Chong Kho,21040103,21040103,12.874837096099027,101.57349318265915
21040104,บ้านชุมนุมใน,Ban Chumnum Nai,21040104,21040104,12.848341479152555,101.57210245728493
21040105,บ้านเขาหินแท่น,Ban Khao Hin Thaen,21040105,21040105,12.85002948960347,101.53893694281578
21040106,บ้านตะเคียนทอง,Ban Takhian Thong,21040106,21040106,12.872390961226039,101.58416837453842
