id,name.th,name.en,name.slug,code.dopa,geo.lat,geo.lon
21031201,บ้านปากน้ำพังราด,Ban Pak Nam Phang Rat,21031201,21031201,12.697539962263575,101.78388297557831
21031202,บ้านท่ากง,Ban Tha Kong,21031202,21031202,12.733603485798744,101.78669661283493
21031203,บ้านเกาะลอย,Ban Ko Loi,21031203,21031203,12.726755381838977,101.7522905766964
21031204,บ้านพังราดไทย,Ban Phang Rat Thai,21031204,21031204,12.740531197992464,101.76986172795296
21031205,บ้านซากใน,Ban Chak Nai,21031205,21031205,12.749113397515469,101.78288117051125
21031206,บ้านกลางทุ่ง,Ban Klang Thung,21031206,21031206,12.734567568869966,101.76005959510803
21031207,บ้านท่ามะกอก,Ban Tha Makok,21031207,21031207,12.709629734510942,101.77977919578552
21031208,บ้านบ่อตาซ่อง,Ban Bo Ta Song,21031208,21031208,12.729917175069216,101.75554275512695
