id,name.th,name.en,name.slug,code.dopa,geo.lat,geo.lon
93051601,บ้านม่วงเตี้ย,Ban Muang Tia,93051601,93051601,7.653832467737734,100.02029433846474
93051602,บ้านไสขาม,Ban Sai Kham,93051602,93051602,7.649713392179432,99.98892188072205
93051603,บ้านแพรกหา,Ban Phraek Ha,93051603,93051603,7.642081234201141,99.99136671423912
93051604,บ้านเขาโต๊ะบุญ,Ban Khao Tobun,93051604,93051604,7.66807414048674,100.00831291079521
93051605,บ้านเขาพังอิฐ,Ban Khao Phang It,93051605,93051605,7.651109017589451,100.00922083854675
93051606,บ้านเขาป้าเจ้,Ban Khao Pa Che,93051606,93051606,7.669622553096678,99.99015972018242
93051607,บ้านไสหยี,Ban Sai Yi,93051607,93051607,7.64745379850198,100.03067448735237
93051608,บ้านควนน้อย,Ban Khuan Noi,93051608,93051608,7.674202631568664,99.99072164297104
