id,name.th,name.en,name.slug,code.dopa,geo.lat,geo.lon
71020501,บ้านเขาช้าง,Ban Khao Chang,71020501,71020501,14.158757042800756,99.07477006316185
71020502,บ้านหนองปลา,Ban Nong Pla,71020502,71020502,14.17412942558595,99.06026467680931
71020503,บ้านเขาพัง,Ban Khao Phang,71020503,71020503,13.72706875088845,100.5340875685215
71020504,บ้านแก่งระเบิด,Ban Kaeng Raboet,71020504,71020504,14.256954853735182,99.00680288672447
71020505,บ้านหาดงิ้ว,Ban Hat Ngio,71020505,71020505,14.347409237737093,98.94826635718346
71020506,บ้านวังกระแจะ,Ban Wang Krachae,71020506,71020506,14.228826731423261,99.06108275055885
71020507,บ้านพุหว้า,Ban Phut Wa,71020507,71020507,14.200887525296865,98.98164510726929
71020508,บ้านบ้องตี้น้อย,Ban Bongti Noi,71020508,71020508,13.72706875088845,100.5340875685215
71020509,บ้านชายทุ่ง,Ban Chai Thung,71020509,71020509,14.167799594015564,98.95265311002731
