id,name.th,name.en,name.slug,code.dopa,geo.lat,geo.lon
72011901,บ้านโพธิ์พระ,Ban Pho Phra,72011901,72011901,14.531960090998979,100.11960446834564
72011902,บ้านห้วยหมาก,Ban Huai Mak,72011902,72011902,14.529720685245238,100.13945281505585
72011903,บ้านโพธิ์พระยา,Ban Pho Phraya,72011903,72011903,14.537132057920706,100.12423530220985
72011904,บ้านวังกุ่ม,Ban Wang Kum,72011904,72011904,14.548945082462865,100.10272666811943
72011905,บ้านนาทอง,Ban Na Thong,72011905,72011905,14.534894002753497,100.15770927071571
72011906,บ้านซ่อง,Ban Song,72011906,72011906,14.536893194644657,100.122100263834
72011907,บ้านสวนพลู,Ban Suan Phlu,72011907,72011907,14.528970316967843,100.12851610779762
