id,name.th,name.en,name.slug,code.dopa,geo.lat,geo.lon
62051601,บ้านหนองปรือ,Ban Nong Prue,62051601,62051601,16.279578490818775,99.58475723862648
62051602,บ้านหัวทุ่งน้อย,Ban Hua Thung Noi,62051602,62051602,16.241087315383705,99.59561884403229
62051603,บ้านหนองผักหนาม,Ban Nong Phak Nam,62051603,62051603,16.24460496764368,99.5174378156662
62051604,บ้านคลองสมบูรณ์,Ban Khlong Sombun,62051604,62051604,16.254539549021985,99.58496376872063
62051605,บ้านดงพระจันทร์,Ban Dong Phra Chan,62051605,62051605,16.29164686904214,99.57456350326538
62051606,บ้านสัมฤทธิ์,Ban Samrit,62051606,62051606,16.232601943619724,99.49977949261665
62051607,บ้านท่าข้าม,Ban Tha Kham,62051607,62051607,16.26486758209728,99.5565377175808
62051608,บ้านตีนดง,Ban Tin Dong,62051608,62051608,16.320636260278693,99.59198981523514
62051609,บ้านซับน้ำโจน,Ban Sap Nam Chon,62051609,62051609,16.22963004556228,99.57226350903511
