id,name.th,name.en,name.slug,code.dopa,geo.lat,geo.lon
91010801,บ้านฉลุง,Ban Chalung,91010801,91010801,6.658253680522261,99.99125942587852
91010802,บ้านเจ๊ะบิลัง,Ban Che Bilang,91010802,91010802,6.654281463663462,99.98201921582222
91010803,บ้านปาเต๊ะ,Ban Pate,91010803,91010803,6.733803578223201,99.95033964514732
91010804,บ้านปันนังปุเลา,Ban Pannang Pulao,91010804,91010804,6.700089211792753,99.93714183568954
91010805,บ้านกาลันยีตัน,Ban Kalan Yitan,91010805,91010805,6.691593990135607,99.99842494726181
91010806,บ้านปาเต๊ะเหนือ,Ban Pate Nuea,91010806,91010806,6.731950967039536,99.96239617466927
