id,name.th,name.en,name.slug,code.dopa,geo.lat,geo.lon
32170101,บ้านหนองแวง,Ban Nong Waeng,32170101,32170101,15.224358587080662,103.9542031288147
32170102,บ้านหนองใหญ่,Ban Nong Yai,32170102,32170102,15.23530457298176,103.93832713365555
32170103,บ้านหนองหลวง,Ban Nong Luang,32170103,32170103,15.238565354783033,103.94430980086327
32170104,บ้านขุมดิน,Ban Khum Din,32170104,32170104,15.215267771333968,103.92387270927429
32170105,บ้านหนองพวง,Ban Nong Phuang,32170105,32170105,15.224403878418581,103.91785517334938
32170106,บ้านโนนสั้น,Ban Non San,32170106,32170106,15.229030013746753,103.92545655369759
32170107,บ้านโนนสั้น,Ban Non San,32170107,32170107,15.226509267858118,103.92243906855583
32170108,บ้านอีโสด,Ban Isot,32170108,32170108,15.225660385651308,103.92702296376228
