id,name.th,name.en,name.slug,code.dopa,geo.lat,geo.lon
44100201,บ้านหนองไผ่,Ban Nong Phai,44100201,44100201,15.73099923145892,103.29862296581268
44100202,บ้านลิ้นฟ้า,Ban Lin Fa,44100202,44100202,15.724489251200962,103.29744681715965
44100203,บ้านโนนเห็ดไค,Ban Non Het Khai,44100203,44100203,15.752062617502755,103.3185276389122
44100204,บ้านหนองบัวคู,Ban Nong Bua Khu,44100204,44100204,15.717398131520115,103.32234710454941
44100205,บ้านด้ามขวาน,Ban Kham Khwan,44100205,44100205,15.724243977201061,103.31043943762779
44100206,บ้านหนองนกคู่,Ban Nong Nok Khu,44100206,44100206,15.723441025512432,103.29698547720909
44100207,บ้านหนองอีเลิ้ง,Ban Nong I Loeng,44100207,44100207,15.723385515873478,103.31020340323448
44100208,บ้านหนองบัวน้อย,Ban Nong Bua Noi,44100208,44100208,15.732628307553084,103.30582737922668
