id,name.th,name.en,name.slug,code.dopa,geo.lat,geo.lon
94050501,บ้านบาลูกาตือเงาะ,Ban Ba Lu Ka Tue Ngo,94050501,94050501,6.697051034894295,101.4127765595913
94050502,บ้านเมืองยอน,Ban Mueang Yon,94050502,94050502,6.687805856815593,101.41767427325249
94050503,บ้านโคกกอ,Ban Khok Ko,94050503,94050503,6.680875521441943,101.41920447349548
94050504,บ้านตะบิงตีงี,Ban Ta Bing Ti Ngi,94050504,94050504,6.680875521441943,101.41920447349548
94050505,บ้านน้ำใส,Ban Nam Sai,94050505,94050505,6.639633802987179,101.37210622429848
94050506,บ้านเจาะบาแน,Ban Cho Ba Nae,94050506,94050506,6.64985364282053,101.42014726996422
94050507,บ้านบูเกะกุง,Ban Bu Ke Kung,94050507,94050507,6.679583481882109,101.4167046546936
94050508,บ้านโคกระกำ,Ban Khok Rakam,94050508,94050508,6.6377062364078245,101.36775031685829
