id,name.th,name.en,name.slug,code.dopa,geo.lat,geo.lon
71070101,บ้านท่าขนุน,Ban Tha Khanun,71070101,71070101,14.742166648764025,98.62654209136963
71070102,บ้านเสาหงษ์,Ban Sao Hong,71070102,71070102,14.713979370503449,98.68012860417366
71070103,บ้านปรังกาสี,Ban Prang Kasi,71070103,71070103,14.65517152551069,98.67258220911026
71070104,บ้านอู่ล่อง,Ban Ulong,71070104,71070104,14.78743868282712,98.67122635245323
71070105,บ้านหินแหลม,Ban Hin Laem,71070105,71070105,14.638875956217312,98.68487477302551
