id,name.th,name.en,name.slug,code.dopa,geo.lat,geo.lon
80050401,บ้านนาเหนือ,Ban Na Nuea,80050401,80050401,8.518077033400004,99.59985941648483
80050402,บ้านท่าแซะ,Ban Tha Sae,80050402,80050402,8.550400518315335,99.59575831890106
80050403,บ้านในใส,Ban Nai Sai,80050403,80050403,8.54195784360215,99.59781020879745
80050404,บ้านทุ่งนาใหม่,Ban Thung Na Mai,80050404,80050404,8.535748393047042,99.59824874997139
80050405,บ้านยางค้อม,Ban Yang Khom,80050405,80050405,8.53926426479397,99.61048230528831
80050406,บ้านโคกแหมะ,Ban Khok Mae,80050406,80050406,8.53400834948263,99.61213320493698
80050407,บ้านดอกประดู่,Ban Dok Pradu,80050407,80050407,8.542719097779925,99.61564421653748
80050408,บ้านพรุทัง,Ban Phru Thang,80050408,80050408,8.52481330776873,99.58582475781441
80050409,บ้านทางหลวง,Ban Thang Luang,80050409,80050409,13.72706875088845,100.5340875685215
