id,name.th,name.en,name.slug,code.dopa,geo.lat,geo.lon
48120201,บ้านโคกสี,Ban Khok Si,48120201,48120201,17.081453443921404,104.49479296803474
48120202,บ้านโนนหอม,Ban Non Hom,48120202,48120202,17.112520094857928,104.48256880044937
48120203,บ้านโนนฮัง,Ban Non Hang,48120203,48120203,17.063688673652457,104.5162707567215
48120204,บ้านมิตรภาพ,Ban Mittraphap,48120204,48120204,17.087951514442857,104.4898872077465
48120205,บ้านฮองไฮ,Ban Hong Hai,48120205,48120205,17.109975839208634,104.49484258890152
48120206,บ้านหนองบัว,Ban Nong Bua,48120206,48120206,17.078965170327365,104.51359525322914
48120207,บ้านหนองผักแว่น,Ban Nong Phak Waen,48120207,48120207,17.07178988536417,104.50666442513466
