id,name.th,name.en,name.slug,code.dopa,geo.lat,geo.lon
15011101,บ้านระดำ,Ban Radam,15011101,15011101,14.528340680721538,100.45890390872955
15011102,บ้านระดำ,Ban Radam,15011102,15011102,14.53417221214649,100.4564443230629
15011103,บ้านหัวสะแก,Ban Hua Sakae,15011103,15011103,14.537395586126756,100.45311033725739
15011104,บ้านไผ่ล้อม,Ban Phai Lom,15011104,15011104,14.551040205670226,100.44885635375977
15011105,บ้านวัดนก,Ban Wat Nok,15011105,15011105,14.549921251387877,100.44870749115944
15011106,บ้านโพสะ,Ban Phosa,15011106,15011106,14.561323415450312,100.44885769486427
15011107,บ้านท้องคุ้ง,Ban Thong Khung,15011107,15011107,14.568680509941506,100.45514211058617
15011108,บ้านท้องคุ้ง,Ban Thong Khung,15011108,15011108,14.569412571546872,100.45339599251747
