id,name.th,name.en,name.slug,code.dopa,geo.lat,geo.lon
56011501,บ้านสางใต้,Ban Sang Tai,56011501,56011501,19.155082883939578,99.8280094563961
56011502,บ้านสางเหนือ,Ban Sang Nuea,56011502,56011502,19.1587022426064,99.8317538201809
56011503,บ้านสันเวียงใหม่,Ban San Wiang Mai,56011503,56011503,19.190761197710362,99.87964868545532
56011504,บ้านสันเวียงใหม่,Ban San Wiang Mai,56011504,56011504,19.165801376941978,99.84511524438858
56011505,บ้านสันป่าค่าง,Ban San Pa Khang,56011505,56011505,19.171442209150904,99.84800398349762
56011506,บ้านงิ้วใต้,Ban Ngio Tai,56011506,56011506,19.16396834993714,99.83336851000786
56011507,บ้านงิ้วเหนือ,Ban Ngio Nuea,56011507,56011507,19.16631188463529,99.83652278780937
56011508,บ้านสันบัวบก,Ban San Bua Bok,56011508,56011508,19.17416058303916,99.83349859714508
56011509,บ้านม่อนแก้ว,Ban Mon Kaeo,56011509,56011509,19.15173329119417,99.82096061110497
