id,name.th,name.en,name.slug,code.dopa,geo.lat,geo.lon
52050601,บ้านทุ่งศาลา,Ban Thung Sala,52050601,52050601,18.761486096376636,99.96952682733536
52050602,บ้านหนองเหียง,Ban Nong Hiang,52050602,52050602,18.77524939354299,99.96862158179283
52050603,บ้านนาแก,Ban Na Kae,52050603,52050603,18.770688417964173,99.95800003409386
52050604,บ้านแม่ฮ่าง,Ban Mae Hang,52050604,52050604,18.842580510674118,99.86223310232162
52050605,บ้านแม่แป้น,Ban Mae Paen,52050605,52050605,18.806845233662777,99.91840124130249
52050606,บ้านสันติสุข,Ban Santi Suk,52050606,52050606,18.856640496565912,99.83930826187134
