id,name.th,name.en,name.slug,code.dopa,geo.lat,geo.lon
54070701,บ้านสบเกิ๋ง,Ban Sop Koeng,54070701,54070701,17.92903688650856,99.62172880768776
54070702,บ้านเด่น,Ban Den,54070702,54070702,17.92808500400179,99.58343088626862
54070703,บ้านปันเจน,Ban Pan Chen,54070703,54070703,13.72706875088845,100.5340875685215
54070704,บ้านสลก,Ban Salok,54070704,54070704,13.72706875088845,100.5340875685215
54070705,บ้านสบป้าก,Ban Sop Pak,54070705,54070705,17.952746806576105,99.64297190308571
54070706,บ้านแม่สิน,Ban Mae Sin,54070706,54070706,17.947036199864492,99.61807429790497
54070707,บ้านค้างใจ,Ban Khang Chai,54070707,54070707,17.948405180250564,99.6019797027111
54070708,บ้านค้างคำแสน,Ban Khang Kham Saen,54070708,54070708,13.72706875088845,100.5340875685215
