id,name.th,name.en,name.slug,code.dopa,geo.lat,geo.lon
92012001,บ้านนาท่าม,Ban Na Tham,92012001,92012001,7.6184036635450445,99.5539078116417
92012002,บ้านวังหิน,Ban Wang Hin,92012002,92012002,7.640738747160831,99.54139664769173
92012003,บ้านหนองเกียบ,Ban Nong Kiap,92012003,92012003,7.629016396457858,99.56393256783485
92012004,บ้านนานอน,Ban Na Non,92012004,92012004,7.647552157534689,99.55666244029999
92012005,บ้านยางงาม,Ban Yang Ngam,92012005,92012005,7.674059089521368,99.55452337861061
92012006,บ้านพิกุลลอย,Ban Phikun Loi,92012006,92012006,7.627381435965191,99.53289806842804
92012007,บ้านหน้าวัด,Ban Na Wat,92012007,92012007,7.620687337455913,99.55461323261261
92012008,บ้านเกาะตะเคียน,Ban Ko Takhian,92012008,92012008,7.6595956509000258,99.55093458294868
