id,name.th,name.en,name.slug,code.dopa,geo.lat,geo.lon
47180401,บ้านกกปลาซิว,Ban Kok Pla Sio,47180401,47180401,16.961828850424357,104.02031823992729
47180402,บ้านนาขี้นาค,Ban Na Khi Nak,47180402,47180402,16.977503591333612,104.0171317756176
47180403,บ้านหนองครอง,Ban Nong Khrong,47180403,47180403,16.961355509337643,104.0321695804596
47180404,บ้านกกโด่,Ban Kok Do,47180404,47180404,16.97007300372102,104.0149337053299
47180405,บ้านนาผาง,Ban Na Phang,47180405,47180405,16.941991116874252,104.06506285071373
47180406,บ้านโพนแพง,Ban Phon Phaeng,47180406,47180406,16.953831919760702,104.03135016560555
47180407,บ้านนาเจริญ,Ban Na Charoen,47180407,47180407,16.975691186160063,104.01584029197693
47180408,บ้านโพนบก,Ban Phon Bok,47180408,47180408,16.961586407577713,104.03726443648338
47180409,บ้านโนนเจริญ,Ban Non Charoen,47180409,47180409,16.941281671315114,103.98093670606613
