id,name.th,name.en,name.slug,code.dopa,geo.lat,geo.lon
72040901,บ้านดอนผักเสี้ยน,Ban Don Phaksian,72040901,72040901,14.407508307782416,100.23021876811981
72040902,บ้านจรเข้ใหญ่,Ban Chorakhe Yai,72040902,72040902,14.415784920375227,100.22962734103203
72040903,บ้านลำบัว,Ban Lam Bua,72040903,72040903,14.421959707072359,100.20869135856628
72040904,บ้านทับน้ำ,Ban Thap Nam,72040904,72040904,14.432726857953082,100.22776186466217
72040905,บ้านจรเข้น้อย,Ban Chorakhe Noi,72040905,72040905,14.422659782522045,100.23780539631844
72040906,บ้านโพธิ์ศรี,Ban Pho Si,72040906,72040906,14.426973185873571,100.24036958813667
72040907,บ้านดอนหนามแดง,Ban Don Nam Daeng,72040907,72040907,14.412371439414093,100.15369266271591
72040908,บ้านศาลาท่าทราย,Ban Sala Tha Sai,72040908,72040908,14.403918043205435,100.20200058817863
72040909,บ้านกลาง,Ban Klang,72040909,72040909,14.421247939795972,100.22444263100624
