id,name.th,name.en,name.slug,code.dopa,geo.lat,geo.lon
82050701,บ้านปากวีป,Ban Pak Rip,82050701,82050701,8.748415117328953,98.25884878635406
82050702,บ้านบางขยะ,Ban Bang Khaya,82050702,82050702,8.722824102550765,98.24913248419762
82050703,บ้านในบ้าน,Ban Nai Ban,82050703,82050703,8.69893085620486,98.25115218758583
82050704,บ้านคึกคัก,Ban Khuekkhak,82050704,82050704,8.705283448372532,98.2576847076416
82050705,บ้านบางเนียง,Ban Bang Niang,82050705,82050705,8.672088905074105,98.25444996356964
82050706,บ้านบางเนียง,Ban Bang Niang,82050706,82050706,8.658500819463724,98.25324431061745
82050707,บ้านบางหลาโอน,Ban Bang La On,82050707,82050707,8.645443915817495,98.25090944766998
