id,name.th,name.en,name.slug,code.dopa,geo.lat,geo.lon
50210101,บ้านปงตำ,Ban Pong Tam,50210101,50210101,19.749182349973683,99.14619997143745
50210102,บ้านท่า,Ban Tha,50210102,50210102,19.738217052019756,99.14285391569138
50210103,บ้านปางควาย,Ban Pang Khwai,50210103,50210103,19.725236205556627,99.14527595043182
50210104,บ้านมิตรอรัญ,Ban Mit Aran,50210104,50210104,19.755220705118067,99.14809495210648
50210105,บ้านป่ารวก,Ban Pa Ruak,50210105,50210105,19.751940280913466,99.15298193693161
50210106,บ้านห้วยม่วง,Ban Huai Muang,50210106,50210106,19.75875222915392,99.15089920163155
50210107,บ้านห้วยปง,Ban Huai Pong,50210107,50210107,19.76029330216531,99.11656558513641
50210108,บ้านทุ่งยาว,Ban Thung Yao,50210108,50210108,19.7654717537303,99.12569180130959
