id,name.th,name.en,name.slug,code.dopa,geo.lat,geo.lon
67030901,บ้านส้มเลาใต้,Ban Som Lao Tai,67030901,67030901,16.792390475155884,101.27773940563202
67030902,บ้านโสก,Ban Sok,67030902,67030902,16.787519231717834,101.27247825264931
67030903,บ้านโสก,Ban Sok,67030903,67030903,16.780631999604,101.26845091581345
67030904,บ้านส้มเลาเหนือ,Ban Som Lao Nuea,67030904,67030904,16.793195489384683,101.28103986382484
67030905,บ้านไฮหย่อง,Ban Hai Yong,67030905,67030905,16.81062892316153,101.28712177276611
67030906,บ้านนาหลวง,Ban Na Luang,67030906,67030906,16.775285363170664,101.2794828414917
67030907,บ้านทุ่งส้มเลา,Ban Thung Som Lao,67030907,67030907,16.79575302390231,101.28234878182411
