id,name.th,name.en,name.slug,code.dopa,geo.lat,geo.lon
91060401,บ้านมะหงัง,Ban Ma-ngang,91060401,91060401,7.06547424107963,99.69248816370964
91060402,บ้านทุ่งสะโบ๊ะ,Ban Thung Sabo,91060402,91060402,7.030047775526253,99.67548295855522
91060403,บ้านทุ่งทะนาน,Ban Thung Thanan,91060403,91060403,7.0471124977933455,99.68938082456589
91060404,บ้านท่านา,Ban Tha Na,91060404,91060404,7.027211358515035,99.67982545495033
91060405,บ้านทุ่งบุหลัง,Ban Thung Bulang,91060405,91060405,7.02329012657959,99.69092980027199
