id,name.th,name.en,name.slug,code.dopa,geo.lat,geo.lon
71040501,บ้านตีนตก,Ban Tin Tok,71040501,71040501,14.799978573474286,99.18488681316376
71040502,บ้านน้ำพุล่าง,Ban Nam Phu Lang,71040502,71040502,14.932036993017563,99.24954548478127
71040503,บ้านไกรเกรียง,Ban Krai Kriang,71040503,71040503,15.022006214745659,99.1860643029213
71040504,บ้านสามหลัง (บ้านท่าลำใย),Ban Sam Lang (Ban Tha Lam Yai),71040504,71040504,14.679829909091596,99.32829514145851
71040505,บ้านเขาเหล็ก,Ban Khao Lek,71040505,71040505,14.709226656144189,99.2776107788086
