id,name.th,name.en,name.slug,code.dopa,geo.lat,geo.lon
95050101,บ้านอาบอ,Ban Abo,95050101,95050101,6.482932971794877,101.14881902933121
95050102,บ้านยะหา,Ban Yaha,95050102,95050102,6.478742151124976,101.1350217461586
95050103,บ้านพงลูกา,Ban Phong Luka,95050103,95050103,6.505358933162256,101.13366052508354
95050104,บ้านลากอ,Ban Lako,95050104,95050104,6.503200327954395,101.12283110618591
95050105,บ้านสะปาเราะ,Ban Saparo,95050105,95050105,6.503934521260011,101.10728234052658
95050106,บ้านอาเส็น,Ban Asen,95050106,95050106,6.48727433211917,101.10316649079323
95050107,บ้านบาโด,Ban Bado,95050107,95050107,6.502720636649145,101.11965671181679
95050108,บ้านเจาะกลาดี,Ban Chokladi,95050108,95050108,6.525738640251974,101.09710469841957
95050109,บ้านกือเต,Ban Kuete,95050109,95050109,6.488348339983253,101.15482181310654
