id,name.th,name.en,name.slug,code.dopa,geo.lat,geo.lon
13070201,บ้านเจดีย์ทอง,Ban Chedi Thong,13070201,13070201,14.083929597777203,100.5225419998169
13070202,บ้านคลองสระ,Ban Khlong Sa,13070202,13070202,14.089875437474767,100.51430359482765
13070203,บ้านคลองสระ,Ban Khlong Sa,13070203,13070203,14.088302816308738,100.49386516213417
13070204,บ้านโพธิ์,Ban Pho,13070204,13070204,14.076958550733877,100.52049279212952
13070205,บ้านคลองควาย,Ban Khlong Khwai,13070205,13070205,14.074016052036042,100.50424262881279
13070206,บ้านคลองควาย,Ban Khlong Khwai,13070206,13070206,14.079695482793563,100.49892514944077
13070207,บ้านคลองควาย,Ban Khlong Khwai,13070207,13070207,14.080685401191325,100.48402279615402
13070208,บ้านทางยาว,Ban Thang Yao,13070208,13070208,14.104564418501475,100.46281188726425
