id,name.th,name.en,name.slug,code.dopa,geo.lat,geo.lon
92020601,บ้านท่าเรือ,Ban Tha Ruea,92020601,92020601,7.3945185208780035,99.5162495970726
92020602,บ้านควนมอง,Ban Khuan Mong,92020602,92020602,7.380657552180221,99.51227858662605
92020603,บ้านจุปะ,Ban Chupa,92020603,92020603,13.72706875088845,100.5340875685215
92020604,บ้านเกาะเคี่ยม,Ban Ko Khiam,92020604,92020604,7.334939348493264,99.5103406906128
92020605,บ้านแตะหรำ,Ban Tae Ram,92020605,92020605,7.336596687319319,99.52952116727829
92020606,บ้านกันตังใต้,Ban Kantang Tai,92020606,92020606,7.393247085714841,99.51670825481415
