id,name.th,name.en,name.slug,code.dopa,geo.lat,geo.lon
76011401,บ้านคลองยาง,Ban Khlong Yang,76011401,76011401,13.097622287940588,99.95896697044373
76011402,บ้านไร่หงษ์,Ban Rai Hong,76011402,76011402,13.095367748506588,99.96478870511055
76011403,บ้านสนาม,Ban Sanam,76011403,76011403,13.088990660233536,99.97451439499855
76011404,บ้านไสกระดาน,Ban Sai Kradan,76011404,76011404,13.089345963225622,99.97719660401344
76011405,บ้านใต้,Ban Tai,76011405,76011405,13.08700121526578,99.98130172491074
76011406,บ้านนาวุ้ง,Ban Na Wung,76011406,76011406,13.086781761390283,99.98459413647652
76011407,บ้านต้นถนน,Ban Ton Thanon,76011407,76011407,13.086034571729975,99.98884677886963
76011408,บ้านบ่อมอญ,Ban Bo Mon,76011408,76011408,13.074976683798553,99.98132720589638
76011409,บ้านสนามล่าง,Ban Sanam Lang,76011409,76011409,13.08693982045125,99.99224379658699
