id,name.th,name.en,name.slug,code.dopa,geo.lat,geo.lon
67032101,บ้านไร่,Ban Rai,67032101,67032101,16.63723526994192,101.21641740202904
67032102,บ้านปากคลองแดง,Ban Pak Khlong Daeng,67032102,67032102,16.595076193873314,101.20475113391876
67032103,บ้านวังกะทะ,Ban Wang Katha,67032103,67032103,16.65944068742862,101.23683303594589
67032104,บ้านท่าเปลือยงาม,Ban Tha Plueai Ngam,67032104,67032104,16.619598363080172,101.20755538344383
67032105,บ้านคลองยาง,Ban Khlong Yang,67032105,67032105,16.67128500789678,101.23999401926994
67032106,บ้านน้อยพัฒนา,Ban Noi Phatthana,67032106,67032106,16.60671243759958,101.20294332504272
