id,name.th,name.en,name.slug,code.dopa,geo.lat,geo.lon
67100301,บ้านวังไทรทอง,Ban Wang Sai Thong,67100301,67100301,16.374967244005383,100.8625428378582
67100302,บ้านคลองน้ำคัน,Ban Khlong Nam Khan,67100302,67100302,16.377197092069842,100.88771268725395
67100303,บ้านซับเปิบ,Ban Sap Poep,67100303,67100303,16.352780604353647,100.93392312526703
67100304,บ้านเนินดินแดง,Ban Noen Din Daeng,67100304,67100304,16.355153544868067,100.9092427790165
67100305,บ้านเชิงชาย,Ban Choeng Chai,67100305,67100305,16.34589968594137,100.8960972726345
67100306,บ้านซับเปิบเหนือ,Ban Sap Poep Nuea,67100306,67100306,16.360580058025636,100.93488603830338
67100307,บ้านวังไทรทองเหนือ,Ban Wang Sai Thong Nuea,67100307,67100307,16.376530585049288,100.87418898940086
67100308,บ้านซับเปิบใต้,Ban Sap Poep Tai,67100308,67100308,16.34674388871546,100.92183440923691
67100309,บ้านคลองน้ำคันเหนือ,Ban Khlong Nam Khan Nuea,67100309,67100309,16.375673644103482,100.89717015624046
