id,name.th,name.en,name.slug,code.dopa,geo.lat,geo.lon
94010901,บ้านตะลุโบะ,Ban Talubo,94010901,94010901,6.851752718121882,101.24690875411034
94010902,บ้านจางา,Ban Cha-nga,94010902,94010902,6.830170847988376,101.24552607536316
94010903,บ้านกือยา,Ban Kueaya,94010903,94010903,6.828076257496888,101.23453438282013
94010904,บ้านจือแรนิบง,Ban Chue Rae Niyom,94010904,94010904,6.8226446606784235,101.23226925730705
94010905,บ้านกาฮง,Ban Kahong,94010905,94010905,6.822797795534407,101.22443988919258
94010906,บ้านกอแลบิเละ,Ban Kolae Bile,94010906,94010906,6.825419722992404,101.21697932481766
94010907,บ้านปะกาฮะรัง,Ban Paka Harang,94010907,94010907,6.824964315596905,101.21546387672424
94010908,บ้านเจ๊ะดี,Ban Chedi,94010908,94010908,6.851411847204363,101.23199969530106
