id,name.th,name.en,name.slug,code.dopa,geo.lat,geo.lon
55010301,บ้านผาตูบ,Ban Pha Tup,55010301,55010301,18.845429916929184,100.73473960161209
55010302,บ้านห้วยส้มป่อย,Ban Huai Som Poi,55010302,55010302,18.83767738796425,100.7420352101326
55010303,บ้านสวนหอม,Ban Suan Hom,55010303,55010303,18.784125927259435,100.76527923345566
55010304,บ้านผาสิงห์,Ban Pha Sing,55010304,55010304,18.88611593512781,100.74867367744446
55010305,บ้านทุ่งเศรษฐี,Ban Thung Setthi,55010305,55010305,18.80163764788932,100.77313005924225
55010306,บ้านมงคลนิมิต,Ban Mongkhon Nimit,55010306,55010306,18.79174126744249,100.7721135020256
55010307,บ้านผาตูบ,Ban Pha Tup,55010307,55010307,18.85497031617229,100.73879778385162
55010308,บ้านดอนสวรรค์,Ban Don Sawan,55010308,55010308,18.789330245840322,100.77435851097107
55010309,บ้านฟ้าใหม่,Ban Fa Mai,55010309,55010309,18.781547197025656,100.76230600476265
