id,name.th,name.en,name.slug,code.dopa,geo.lat,geo.lon
36020501,บ้านหว้าเฒ่า,Ban Wa Thao,36020501,36020501,15.89746517120051,101.80723965167999
36020502,บ้านแก้งยาว,Ban Kaeng Yao,36020502,36020502,15.907214622739355,101.82819977402687
36020503,บ้านห้วยน้ำคำ,Ban Huai Nam Kham,36020503,36020503,15.941342360289763,101.71313434839249
36020504,บ้านนาอินทร์แต่ง,Ban Na In Taeng,36020504,36020504,15.928235147614538,101.79408609867096
36020505,บ้านซับปลากั้ง,Ban Sap Pla Kang,36020505,36020505,15.933931293563274,101.76963776350021
36020506,บ้านชีบน,Ban Chi Bon,36020506,36020506,15.935302110077865,101.70259863138199
36020507,บ้านโนนเหลื่อม,Ban Non Lueam,36020507,36020507,15.900498785817076,101.83510646224022
36020508,บ้านป่าปอแดง,Ban Pa Po Daeng,36020508,36020508,15.914382921706261,101.79601460695267
