id,name.th,name.en,name.slug,code.dopa,geo.lat,geo.lon
21031701,บ้านคลองคา,Ban Khlong Kha,21031701,21031701,12.735335431597006,101.60197958350182
21031702,บ้านน้ำเขียว,Ban Nam Khiao,21031702,21031702,12.777954048216033,101.54680252075195
21031703,บ้านห้วยยาง,Ban Huai Yang,21031703,21031703,12.750961652084513,101.57654151320457
21031704,บ้านเขาชากกรูด,Ban Khao Chak Krut,21031704,21031704,12.736910393183685,101.59581586718559
21031705,บ้านห้างญวน,Ban Hang Yuan,21031705,21031705,12.804802323524315,101.53120547533035
21031706,บ้านชากตาด้วง,Ban Chak Ta Duang,21031706,21031706,12.742749700234368,101.6116663813591
21031707,บ้านเนินดินแดง,Ban Noen Din Daeng,21031707,21031707,12.736177854128005,101.58893868327141
21031708,บ้านชากพรวด,Ban Chak Phruat,21031708,21031708,12.7594388591405,101.5890996158123
21031709,บ้านท่ามะกัก,Ban Tha Makak,21031709,21031709,12.794164842058807,101.55861765146255
