id,name.local,name.en,name.slug,code.id,zip_codes,geo.lat,geo.lon
331302,บก,Bok,bok-331302,331302,33250,14.976,104.64
331305,เหล่ากวาง,Lao Kwang,lao-kwang-331305,331305,33250,14.88,104.638
331301,โนนค้อ,Non Kho,non-kho-331301,331301,33250,14.899,104.71
331304,หนองกุง,Nong Kung,nong-kung-331304,331304,33250,14.861,104.774
331303,โพธิ์,Pho,pho-331303,331303,33250,14.923,104.614
