id,name.th,name.en,name.slug,code.dopa,geo.lat,geo.lon
46031101,บ้านนามล,Ban Na Mon,46031101,46031101,16.37914899237932,103.67108792066574
46031102,บ้านนามล,Ban Na Mon,46031102,46031102,16.378568699734128,103.672846108675
46031103,บ้านงิ้วงาม,Ban Ngio Ngam,46031103,46031103,16.376048073718767,103.67739781737328
46031104,บ้านดอนสวรรค์,Ban Don Sawan,46031104,46031104,16.37883504269262,103.67150768637657
46031105,บ้านคำโพนทอง,Ban Khamphon Thong,46031105,46031105,16.367684354289636,103.6761049926281
46031106,บ้านหนองไผ่,Ban Nong Phai,46031106,46031106,16.334074029250957,103.66827294230461
46031107,บ้านหนองอีกุ้ม,Ban Nong I Kum,46031107,46031107,16.351646884524403,103.64681527018547
46031108,บ้านราษฎร์สำราญ,Ban Rat Samran,46031108,46031108,16.339533301508176,103.68007734417915
46031109,บ้านหนองไผ่พัฒนา,Ban Nong Phai Phatthana,46031109,46031109,16.335279921225943,103.6679470539093
