id,name.th,name.en,name.slug,code.dopa,geo.lat,geo.lon
50060501,บ้านป่าเลา,Ban Pa Lao,50060501,50060501,19.114487929853446,99.07122150063515
50060502,บ้านหัวฝาย,Ban Hua Fai,50060502,50060502,19.116738398226854,99.0331019461155
50060503,บ้านผึ้ง,Ban Phueng,50060503,50060503,13.72706875088845,100.5340875685215
50060504,บ้านกาด,Ban Kat,50060504,50060504,19.131162970027457,99.02435258030891
50060505,บ้านแม่หอพระ,Ban Mae Ho Phra,50060505,50060505,19.117363100512726,99.0083384513855
50060506,บ้านแม่นาป้าก,Ban Mae Na Pak,50060506,50060506,19.10282707337475,98.99910092353821
50060507,บ้านนาเม็ง,Ban Na Meng,50060507,50060507,19.106094020872867,99.04878348112106
50060508,บ้านป่าไม้,Ban Pa Mai,50060508,50060508,19.096554049182412,99.08140316605568
50060509,บ้านภูดิน,Ban Phu Din,50060509,50060509,19.129348563968755,99.05823960900307
