id,name.th,name.en,name.slug,code.dopa,geo.lat,geo.lon
35011701,บ้านหนองเรือ,Ban Nong Ruea,35011701,35011701,15.854718848938044,104.21078726649284
35011702,บ้านคุ้มกลาง,Ban Khum Klang,35011702,35011702,15.856362411255017,104.20893386006355
35011703,บ้านหนองเรือ,Ban Nong Ruea,35011703,35011703,15.858852240746739,104.20781403779984
35011704,บ้านหนองสรวง,Ban Nong Suang,35011704,35011704,15.855160057719436,104.18942078948021
35011705,บ้านนาสีนวล,Ban Na Si Nuan,35011705,35011705,15.855176828794438,104.1894181072712
35011706,บ้านนาสีนวล,Ban Na Si Nuan,35011706,35011706,15.8716827606351,104.20570448040962
35011707,บ้านดอนกลอง,Ban Don Klong,35011707,35011707,15.850520866831097,104.22565072774887
35011708,บ้านดอนกลอง,Ban Don Klong,35011708,35011708,15.851045941898093,104.22755911946297
35011709,บ้านหนองเรือ,Ban Nong Ruea,35011709,35011709,15.858645831180032,104.20877426862717
