id,name.local,name.en,name.slug,code.id,zip_codes,geo.lat,geo.lon
311801,ชำนิ,Chamni,chamni-311801,311801,31110,14.785,102.81
311804,ช่อผกา,Cho Phaka,cho-phaka-311804,311804,31110,14.809,102.787
311806,โคกสนวน,Khok Sanuan,khok-sanuan-311806,311806,31110,14.755,102.888
311805,ละลวด,Laluat,laluat-311805,311805,31110,14.78,102.745
311803,เมืองยาง,Mueang Yang,mueang-yang-311803,311803,31110,14.794,102.906
311802,หนองปล่อง,Nong Plong,nong-plong-311802,311802,31110,14.743,102.844
