id,name.local,name.en,name.slug,code.id,zip_codes,geo.lat,geo.lon
260204,โคกกรวด,Khok Kruat,khok-kruat-260204,260204,26130,14.18,101.306
260202,เกาะโพธิ์,Ko Pho,ko-pho-260202,260202,26130,14.156,101.231
260201,เกาะหวาย,Ko Wai,ko-wai-260201,260201,26130,14.175,101.271
260207,นาหินลาด,Na Hin Lat,na-hin-lat-260207,260207,26130,14.317,101.457
260206,หนองแสง,Nong Saeng,nong-saeng-260206,260206,26130,14.211,101.307
260203,ปากพลี,Pak Phli,pak-phli-260203,260203,26130,14.132,101.263
260205,ท่าเรือ,Tha Ruea,tha-ruea-260205,260205,26130,14.085,101.235
