id,name.th,name.en,name.slug,code.dopa,geo.lat,geo.lon
50120401,บ้านกวน,Ban Kuan,50120401,50120401,18.601031049849194,98.91256615519524
50120402,บ้านมะขามหลวง,Ban Makham Luang,50120402,50120402,18.59299910311127,98.91140073537827
50120403,บ้านสันคะยอม,Ban San Khayom,50120403,50120403,18.608624125953636,98.89908939599991
50120404,บ้านป่าจู้,Ban Pa Chu,50120404,50120404,18.598570281610098,98.9023107290268
50120405,บ้านทุ่งฟ้าบด,Ban Thung Fa Bot,50120405,50120405,18.598086004333354,98.89614835381508
50120406,บ้านต้นแก้ว,Ban Ton Kaeo,50120406,50120406,18.589581057402828,98.91620054841042
50120407,บ้านร่องน้ำ,Ban Rong Nam,50120407,50120407,18.577962494235727,98.92012998461723
50120408,บ้านแท่นทองข่วงมื่น,Ban Thaen Nong Khwong Muen,50120408,50120408,18.592940632098994,98.89491587877274
50120409,บ้านดงขี้เหล็ก,Ban Dong Khilek,50120409,50120409,18.573848773707358,98.92064899206161
