id,name.th,name.en,name.slug,code.dopa,geo.lat,geo.lon
11011401,"จรเข้,บ้านหัวสะแก","Chorakhe, Ban Hua Sakae",11011401,11011401,13.729319976238605,100.53589001297951
11011402,คลองตาหนู,Khlong Ta Nu,11011402,11011402,13.621458418366162,100.61128422617912
11011403,มิตรไมตรี,Mit Maitri,11011403,11011403,13.628495278896818,100.60840621590614
11011404,ยั่งยืน,Yang Yuen,11011404,11011404,13.628495278896818,100.60840621590614
11011405,รักมิตร,Rak Mit,11011405,11011405,13.628495278896818,100.60840621590614
11011406,ปลายคลองมหาวงษ์,Plai Khlong Maha Wong,11011406,11011406,13.63742041196405,100.60771957039833
11011407,บุญทวีสุข,Bun Thawi Suk,11011407,11011407,13.628495278896818,100.60840621590614
11011408,สุนทรศารทูล,Sunthon Sarathun,11011408,11011408,13.628495278896818,100.60840621590614
11011409,อุดมพร,Udom Phon,11011409,11011409,13.628495278896818,100.60840621590614
11011410,แผ่นดินทอง,Phaen Din Thong,11011410,11011410,13.628495278896818,100.60840621590614
11011411,เปรมฤทัย,Prem Ruthai,11011411,11011411,13.628495278896818,100.60840621590614
11011450,สามัคคี,Samakkhi,11011450,11011450,13.618838603857418,101.62222757935524
11011451,ทานตะวัน,Than Tawan,11011451,11011451,13.754540559912732,100.44366493821144
11011452,ร่วมนำใจ,Ruam Nam Chai,11011452,11011452,13.578043960320247,101.74659624695778
11011453,บุญสนอง,Bun Sanong,11011453,11011453,13.573705466547425,101.74625292420387
11011454,วัดไตรสามัคคี,Wat Trai Samakkhi,11011454,11011454,13.618838603857418,101.62222757935524
