id,name.th,name.en,name.slug,code.dopa,geo.lat,geo.lon
40200201,บ้านสะแกเครือ,Ban Sakae Khruea,40200201,40200201,16.652041308992324,101.8600831925869
40200202,บ้านนาฝาย,Ban Na Fai,40200202,40200202,16.662057832708705,101.85822173953056
40200203,บ้านสองคอน,Ban Song Khon,40200203,40200203,16.656236338113402,101.84113338589668
40200204,บ้านนาท่าลี่,Ban Na Tha Li,40200204,40200204,16.649964960436172,101.86688527464867
40200205,บ้านนาฝายเหนือ,Ban Na Fai Nuea,40200205,40200205,16.66216318586879,101.85271516442299
40200206,บ้านซำเปิป,Ban Sam Poep,40200206,40200206,16.673317444778913,101.86588481068611
