id,name.th,name.en,name.slug,code.dopa,geo.lat,geo.lon
21031101,บ้านหนองโพรง,Ban Nong Phrong,21031101,21031101,12.760407956638197,101.72001836848297
21031102,บ้านเนินสมบูรณ์,Ban Noen Sombun,21031102,21031102,12.769018376037772,101.74475759267807
21031103,บ้านคลองปูน,Ban Khlong Pun,21031103,21031103,12.749543742494748,101.73106089234352
21031104,บ้านปากทางหลวง,Ban Pak Thang Luang,21031104,21031104,12.729917175069216,101.73778250813484
21031105,บ้านเนินยาง,Ban Noen Yang,21031105,21031105,12.747976423744586,101.71746894303932
21031106,บ้านหนองนาซา,Ban Nong Na Sa,21031106,21031106,12.743377574700562,101.73749282956123
21031107,บ้านชายล่าง,Ban Chai Lang,21031107,21031107,12.747996328411567,101.72945156693459
21031108,บ้านสามแยก,Ban Sam Yaek,21031108,21031108,12.774274922860242,101.73485487699509
21031109,บ้านหนองเสม็ดแดง,Ban Nong Samet Daeng,21031109,21031109,12.75233263214166,101.74387066132584
