id,name.th,name.en,name.slug,code.dopa,geo.lat,geo.lon
94070901,บ้านมะนังดาลำ,Ban Manang Dalam,94070901,94070901,6.6647181216488605,101.60644143819809
94070902,บ้านกาแระ,Ban Karae,94070902,94070902,6.648187205328266,101.59540951251984
94070903,บ้านกือบง,Ban Kuebong,94070903,94070903,6.631593122899402,101.5887026488781
94070904,บ้านปาโอะ,Ban Pa O,94070904,94070904,6.641714554015124,101.5908631682396
94070905,บ้านกาหงษ์,Ban Kahong,94070905,94070905,6.655841315229136,101.59074246883392
94070906,บ้านจลาโก,Ban Chalako,94070906,94070906,6.6346410303357235,101.60931274294853
