id,name.local,name.en,name.slug,code.id,zip_codes,geo.lat,geo.lon
220508,อ่างคีรี,Ang Khiri,ang-khiri-220508,220508,22150,12.644,102.226
220506,ฉมัน,Chaman,chaman-220506,220506,22150,12.817,102.224
220501,มะขาม,Makham,makham-220501,220501,22150,12.677,102.187
220503,ปัถวี,Patthawi,patthawi-220503,220503,22150,12.743,102.272
220502,ท่าหลวง,Tha Luang,tha-luang-220502,220502,22150,12.7,102.147
220504,วังแซ้ม,Wang Saem,wang-saem-220504,220504,22150,12.756,102.156
