id,name.th,name.en,name.slug,code.dopa,children_count.villages,zip_codes,geo.lat,geo.lon
270206,เบญจขร,Benchakhon,benchakhon,270206,10,27260,13.542,102.307
270201,คลองหาด,Khlong Hat,khlong-hat,270201,13,27260,13.429,102.329
270205,คลองไก่เถื่อน,Khlong Kai Thuean,khlong-kai-thuean,270205,11,27260,13.346,102.301
270204,ไทรเดี่ยว,Sai Diao,sai-diao,270204,9,27260,13.593,102.212
270207,ไทรทอง,Sai Thong,sai-thong,270207,8,27260,13.614,102.309
270203,ซับมะกรูด,Sap Makrut,sap-makrut,270203,11,27260,13.519,102.228
270202,ไทยอุดม,Thai Udom,thai-udom,270202,9,27260,13.407,102.260
