id,name.local,name.en,name.slug,code.id,zip_codes,geo.lat,geo.lon
770609,เขาจ้าว,Khao Chao,khao-chao-770609,770609,77120,12.396,99.52
770602,เขาน้อย,Khao Noi,khao-noi-770602,770602,77120,12.405,99.898
770607,หนองตาแต้ม,Nong Ta Taem,nong-ta-taem-770607,770607,77120,12.38,99.814
770604,ปากน้ำปราณ,Pak Nam Pran,pak-nam-pran-770604,770604,77220,12.381,99.981
770601,ปราณบุรี,Pran Buri,pran-buri-770601,770601,77120,12.354,99.932
770608,วังก์พง,Wang Phong,wang-phong-770608,770608,77120,12.447,99.911
