id,name.th,name.en,name.slug,code.dopa,geo.lat,geo.lon
17061001,บ้านแหลมยอ,Ban Laem Yo,17061001,17061001,14.996456701259907,100.42307764291763
17061002,บ้านบางมอญ,Ban Bang Mon,17061002,17061002,15.010080293417078,100.4165330529213
17061003,บ้านแป้ง,Ban Paeng,17061003,17061003,15.021854667625904,100.41742488741875
17061004,บ้านอ่าวกระโจม,Ban Ao Krachom,17061004,17061004,15.024704253580925,100.41702389717102
17061005,บ้านหางน้ำโพธิ์ชัย,Ban Hang Nam Pho Chai,17061005,17061005,15.034527261894933,100.41681602597237
17061006,บ้านหนองกระเจา,Ban Nong Krachao,17061006,17061006,15.037831286593883,100.44549018144608
17061007,บ้านลำเหนือ,Ban Lam Nuea,17061007,17061007,15.049806166196351,100.45115768909454
17061008,บ้านลำใต้,Ban Lam Tai,17061008,17061008,15.016981787521894,100.44008016586304
