id,name.th,name.en,name.slug,code.dopa,geo.lat,geo.lon
33052801,บ้านสะอาด,Ban Sa-at,33052801,33052801,14.761345194072458,104.10590752959251
33052802,บ้านภูมิร่มเย็น,Ban Phum Rom Yem,33052802,33052802,14.751107682145406,104.10721778869629
33052803,บ้านคล้อโคกกว้าง,Ban Khlo Khok Kwang,33052803,33052803,14.763199670269714,104.06511381268501
33052804,บ้านศรีษะกระบือ,Ban Sisa Krabue,33052804,33052804,14.758425983065589,104.09070074558258
33052805,บ้านโคกกว้าง,Ban Khok Kwang,33052805,33052805,14.755326466920467,104.05614987015724
33052806,บ้านศรีสะอาด,Ban Si Sa-at,33052806,33052806,14.762491599406472,104.1047514975071
33052807,บ้านศรีสมบูรณ์,Ban Si Sombun,33052807,33052807,14.76578683266353,104.10491779446602
33052808,บ้านตะเคียนบังอีง,Ban Takhian Bang Ing,33052808,33052808,14.754620964188291,104.07962456345558
33052809,บ้านหนองตะเคียน,Ban Nong Takhian,33052809,33052809,14.755205857240522,104.07865226268768
