id,name.th,name.en,name.slug,code.dopa,geo.lat,geo.lon
53050301,บ้านเสี้ยว,Ban Siao,53050301,53050301,17.899874550518664,100.8223070204258
53050302,บ้านลุ่ม,Ban Lum,53050302,53050302,17.901018011681565,100.8365549147129
53050303,บ้านหัวทุ่ง,Ban Hua Thung,53050303,53050303,17.911225883477737,100.83284944295883
53050304,บ้านวังอ้อ,Ban Wang O,53050304,53050304,17.92317877240842,100.83722949028015
53050305,บ้านห้วยลึก,Ban Huai Luek,53050305,53050305,17.936275364481016,100.84657564759254
53050306,บ้านใหม่พัฒนา,Ban Mai Phatthana,53050306,53050306,17.903815376665346,100.82447424530983
