id,name.th,name.en,name.slug,code.dopa,geo.lat,geo.lon
84021201,บ้านควนนิมิตร,Ban Khuan Nimit,84021201,84021201,9.008478253270736,99.39785555005074
84021202,บ้านคลองกรูด,Ban Khlong Krut,84021202,84021202,9.085171516604314,99.40740957856178
84021203,บ้านวังหวาย,Ban Wang Wai,84021203,84021203,9.051178288247867,99.39671829342842
84021204,บ้านทุ่งรัง,Ban Thung Rang,84021204,84021204,8.990067694279528,99.4229918718338
84021205,บ้านในแพรก,Ban Nai Phraek,84021205,84021205,9.06478629578225,99.44433823227882
