id,name.th,name.en,name.slug,code.dopa,geo.lat,geo.lon
40230201,บ้านหนองนาคำ,Ban Nong Na Kham,40230201,40230201,16.805760715492163,102.33611226081848
40230202,บ้านหนองนาคำ,Ban Nong Na Kham,40230202,40230202,16.808825184627402,102.3360787332058
40230203,บ้านนาคูณ,Ban Na Khun,40230203,40230203,16.8023136099862,102.33352392911911
40230204,บ้านหนองคอง,Ban Nong Khong,40230204,40230204,16.792332698883786,102.33660578727722
40230205,บ้านหนองหว้า,Ban Nong Wa,40230205,40230205,16.800751158298233,102.35423997044563
40230206,บ้านหนองหญ้าปล้อง,Ban Nong Ya Plong,40230206,40230206,16.79864946716706,102.35756859183311
40230207,บ้านหนองหอย,Ban Nong Hoi,40230207,40230207,16.788717153195222,102.35645949840546
40230208,บ้านโคกเจริญ,Ban Khok Charoen,40230208,40230208,16.808568423298976,102.33963802456856
