id,name.th,name.en,name.slug,code.dopa,geo.lat,geo.lon
34290301,บ้านนาเรือง,Ban Na Rueang,34290301,34290301,15.013650238249513,105.04267573356628
34290302,บ้านม่วงคำ,Ban Muang Kham,34290302,34290302,15.020073657089942,105.05786910653114
34290303,บ้านหินลาด,Ban Hin Lat,34290303,34290303,14.996597902968038,105.07272183895111
34290304,บ้านโนนงาม,Ban Non Ngam,34290304,34290304,14.984750885098446,105.04867047071457
34290305,บ้านหนองกระบือ,Ban Nong Krabue,34290305,34290305,14.982833536786835,105.08149802684784
34290306,บ้านแก้งยาง,Ban Kaeng Yang,34290306,34290306,14.977365113263406,105.10724991559982
34290307,บ้านนาเรืองน้อย,Ban Na Rueang Noi,34290307,34290307,15.01309065722538,105.04554703831673
34290308,บ้านหินลาดน้อย,Ban Hin Lat Noi,34290308,34290308,14.996815534776006,105.07417023181915
34290309,บ้านทุ่งศรีเมือง,Ban Thung Si Mueang,34290309,34290309,15.013685212014858,105.0405715405941
