id,name.th,name.en,name.slug,code.dopa,geo.lat,geo.lon
95050701,บ้านบาโงยซิแน,Ban Ba-ngoi Sinae,95050701,95050701,6.514560883149166,101.14680871367455
95050702,บ้านบูเก๊ะ,Ban Buke,95050702,95050702,6.514895326750005,101.15830466151237
95050703,บ้านลีมาปูโร๊ะ,Ban Sima Puro,95050703,95050703,6.519337675977218,101.16411030292511
95050704,บ้านโปโฮ,Ban Po Ho,95050704,95050704,6.524659382647942,101.1690616607666
95050705,บ้านซีเยาะ,Ban Siyo,95050705,95050705,6.527885156796431,101.15873649716377
95050706,บ้านลูรงค์,Ban Lurong,95050706,95050706,6.527108361368748,101.15299388766289
