id,name.th,name.en,name.slug,code.dopa,geo.lat,geo.lon
50040501,บ้านใหม่,Ban Mai,50040501,50040501,19.39310901781769,98.72289910912514
50040502,บ้านวังมะริว,Ban Wang Mario,50040502,50040502,19.376311299084765,98.7244239449501
50040503,บ้านหนองบัว,Ban Nong Bua,50040503,50040503,19.373285045993725,98.70876923203468
50040504,บ้านหลวง,Ban Luang,50040504,50040504,19.384334646155754,98.71743813157082
50040505,บ้านน้ำรู,Ban Nam Ru,50040505,50040505,19.429233797909795,98.61557990312576
50040506,บ้านแม่แพลม,Ban Mae Phlaem,50040506,50040506,19.383440230792186,98.69706943631172
