id,name.th,name.en,name.slug,code.dopa,geo.lat,geo.lon
86060301,บ้านส้มควาย,Ban Som Khuai,86060301,86060301,9.910488632470514,98.922880589962
86060302,บ้านพังเหา,Ban Phang Thao,86060302,86060302,9.875428933609637,98.94377499818802
86060303,บ้านคลองเหนก,Ban Khlong Nek,86060303,86060303,9.911207305908443,98.87934565544128
86060304,บ้านคลองนูน,Ban Khlong Mun,86060304,86060304,9.957052504613168,98.91796946525574
86060305,บ้านทอนพงษ์,Ban Thon Phong,86060305,86060305,9.906473808318525,98.92173528671265
86060306,บ้านท่าแพ,Ban Tha Phae,86060306,86060306,9.932642601879651,98.9106510579586
86060307,บ้านคลองอารักษ์,Ban Khlong Arak,86060307,86060307,9.901650405745503,98.89332264661789
86060308,บ้านห้วยใหญ่,Ban Huai Yai,86060308,86060308,9.937086425721718,98.86513397097588
86060309,บ้านสร้างสมบูรณ์,Ban Sang Sombun,86060309,86060309,9.862035319076467,98.95276039838791
