id,name.th,name.en,name.slug,code.dopa,geo.lat,geo.lon
30050401,บ้านช่อระกา,Ban Cho Raka,30050401,30050401,15.551563854602763,102.06938400864601
30050402,บ้านม่วง,Ban Muang,30050402,30050402,15.578258844474053,102.07163974642754
30050403,บ้านขามเวียน,Ban Kham Wian,30050403,30050403,15.542045425827974,102.09698528051376
30050404,บ้านโนนเพ็ด,Ban Non Phet,30050404,30050404,15.520341453990543,102.06445410847664
30050405,บ้านดอนยาว,Ban Don Yao,30050405,30050405,15.514836600792545,102.0528669655323
30050406,บ้านหนองรัง,Ban Nong Rang,30050406,30050406,15.518492304894567,102.04558745026588
30050407,บ้านช่อบูรพา,Ban Cho Burapha,30050407,30050407,15.549072851810832,102.07409664988518
30050408,บ้านช่อพัฒนา,Ban Cho Phatthana,30050408,30050408,15.546829889904485,102.0682293176651
30050409,บ้านโนนสมบูรณ์,Ban Non Sombun,30050409,30050409,15.553479890704049,102.09656551480293
