id,name.local,name.en,name.slug,code.id,zip_codes,geo.lat,geo.lon
820104,บางเตย,Bang Toei,bang-toei-820104,820104,82000,8.407,98.575
820108,เกาะปันหยี,Ko Panyi,ko-panyi-820108,820108,82000,8.317,98.539
820102,นบปริง,Nop Pring,nop-pring-820102,820102,82000,8.536,98.514
820109,ป่ากอ,Pa Ko,pa-ko-820109,820109,82000,8.5,98.466
820106,สองแพรก,Song Phraek,song-phraek-820106,820106,82000,8.603,98.554
820105,ตากแดด,Tak Daet,tak-daet-820105,820105,82000,8.433,98.489
820101,ท้ายช้าง,Thai Chang,thai-chang-820101,820101,82000,8.446,98.524
820103,ถ้ำน้ำผุด,Tham Nam Phut,tham-nam-phut-820103,820103,82000,8.427,98.527
820107,ทุ่งคาโงก,Thung Kha Ngok,thung-kha-ngok-820107,820107,82000,8.554,98.438
