id,name.th,name.en,name.slug,code.dopa,geo.lat,geo.lon
61040901,บ้านทุ่งนา,Ban Thung Na,61040901,61040901,15.302467753743699,99.71253097057343
61040902,บ้านป่ากล้วย,Ban Pa Kluai,61040902,61040902,15.32279501581855,99.63915914297104
61040903,บ้านป่าเลา,Ban Pa Lao,61040903,61040903,15.33639241798235,99.62540745735165
61040904,บ้านตลาดทุ่งนา,Ban Talat Thung Na,61040904,61040904,15.327258599964336,99.71405312418938
61040905,บ้านเขาปลาร้า,Ban Khao Pla Ra,61040905,61040905,15.342681871053692,99.65434044599533
61040906,บ้านป่าหมาก,Ban Pa Mak,61040906,61040906,15.328096723943547,99.62690144777298
61040907,บ้านวังผาลาด,Ban Wang Pha Lat,61040907,61040907,15.320611692204102,99.66147914528847
