id,name.th,name.en,name.slug,code.dopa,geo.lat,geo.lon
96120301,บ้านแอแจะ,Ban Aechae,96120301,96120301,6.1578541611660444,101.70550346374512
96120302,บ้านบือจะ,Ban Buecha,96120302,96120302,6.156451457735759,101.71753853559494
96120303,บ้านริแง,Ban Ri-ngae,96120303,96120303,6.129646044456446,101.73423126339912
96120304,บ้านเมาะตาโก๊ะ,Ban Mo Ta Ko,96120304,96120304,6.103924755515228,101.74694895744324
96120305,บ้านไอร์ปีแซ,Ban Ai Pisae,96120305,96120305,6.141080145689107,101.72823786735535
96120306,บ้านลูโบ๊ะ,Ban Lubo,96120306,96120306,6.121660029430207,101.74268290400505
