id,name.th,name.en,name.slug,code.dopa,geo.lat,geo.lon
80110701,บ้านบ่อปลา,Ban Bo Pla,80110701,80110701,8.2229412496089,99.36714291572571
80110702,บ้านกรุงหยัน,Ban Krung Yan,80110702,80110702,8.20937584131107,99.43148776888847
80110703,บ้านกรุงหยันใต้,Ban Krung Yan Tai,80110703,80110703,8.227869545766918,99.43020969629288
80110704,บ้านป่าไม้,Ban Pa Mai,80110704,80110704,8.225017167444959,99.41327959299088
80110705,บ้านปากคลองกรุงหยัน,Ban Pak Khlong Krung Yan,80110705,80110705,8.194393623476225,99.37984317541122
80110706,บ้านทะเลสองห้อง,Ban Thale Song Hong,80110706,80110706,8.158547902951263,99.37547117471695
80110707,บ้านถ้ำเพดาน,Ban Tham Phedan,80110707,80110707,8.14835498690624,99.39581707119942
80110708,บ้านบางปรน,Ban Bang Pron,80110708,80110708,8.215494933189888,99.37902241945267
