id,name.th,name.en,name.slug,code.dopa,geo.lat,geo.lon
96030301,บ้านจำปากอ,Ban Champa Ko,96030301,96030301,6.567714623410453,101.63977324962616
96030302,บ้านยะลูตง,Ban Yalutong,96030302,96030302,6.559139845277333,101.64175808429718
96030303,บ้านกาเยาะมาตี,Ban Kayo Mati,96030303,96030303,6.545400707399486,101.64412915706635
96030304,บ้านส้มป่อย,Ban Som Poi,96030304,96030304,6.536011457272828,101.64619714021683
96030305,บ้านปะลุกา,Ban Paluka,96030305,96030305,6.557425138404072,101.64160251617432
96030306,บ้านยะลูตงดูวอ,Ban Yalutong Duwo,96030306,96030306,6.559647461331749,101.6448050737381
