id,name.th,name.en,name.slug,code.dopa,geo.lat,geo.lon
48080501,บ้านดอนสมอ,Ban Don Samo,48080501,48080501,17.596896684997986,104.16142255067825
48080502,บ้านดอนมะจ่าง,Ban Don Ma-ang,48080502,48080502,17.61304664007776,104.1449698805809
48080503,บ้านดอนแดง,Ban Don Daeng,48080503,48080503,17.64259192189067,104.17336776852608
48080504,บ้านท่าบ่อ,Ban Tha Bo,48080504,48080504,17.653490602176664,104.21924829483032
48080505,บ้านนาเพียง,Ban Na Phiang,48080505,48080505,17.668027964770545,104.2459362745285
48080506,บ้านท่าบ่อ,Ban Tha Bo,48080506,48080506,17.643160642787453,104.23009783029556
48080507,บ้านดอนสมอ,Ban Don Samo,48080507,48080507,17.596569427034293,104.16461303830147
