id,name.th,name.en,name.slug,code.dopa,geo.lat,geo.lon
16040401,บ้านหนองมนต์น้อย,Ban Nong Mon Noi,16040401,16040401,15.158719921454486,101.04236215353012
16040402,บ้านห้วยดีเลิศ,Ban Huai Di Loet,16040402,16040402,15.153845000584115,101.05014324188232
16040403,บ้านทุ่งตาแก้ว,Ban Thung Ta Kaeo,16040403,16040403,15.122450461507103,101.03383272886276
16040404,บ้านดีเลิศพัฒนา,Ban Di Loet Phatthana,16040404,16040404,15.142184086312007,101.05656042695045
16040405,บ้านเขามล,Ban Khao Mon,16040405,16040405,15.120433367418181,101.03319704532623
16040406,บ้านไร่สิงห์พัฒนา,Ban Rai Sing Phatthana,16040406,16040406,15.161080968602821,101.05933383107185
16040407,บ้านวิเศษสมบูรณ์,Ban Wiset Sombun,16040407,16040407,15.151703935042354,101.05251029133797
16040408,บ้านฝายพัฒนา,Ban Fai Phatthana,16040408,16040408,15.11723161192028,101.03106334805489
