id,name.th,name.en,name.slug,code.dopa,geo.lat,geo.lon
94040901,บ้านบางมะรวด,Ban Bang Maruat,94040901,94040901,6.859737815929825,101.51227578520775
94040902,บ้านท่าชะเมา,Ban Tha Chamao,94040902,94040902,6.844129667737022,101.52306362986565
94040903,บ้านหัวเขาแก้ว,Ban Hua Khao Kaeo,94040903,94040903,6.826421085098542,101.51794329285622
94040904,บ้านป่ากะพ้อ,Ban Pa Kapho,94040904,94040904,6.837077738409445,101.50115802884102
94040905,บ้านกลาง,Ban Klang,94040905,94040905,6.827640826535899,101.49342387914658
94040906,บ้านบ่ออิฐ,Ban Bo It,94040906,94040906,6.818677785043901,101.52037471532822
94040907,บ้านไสยพญา,Ban Sai Phaya,94040907,94040907,6.841230879331208,101.4935553073883
94040908,บ้านแหลมแป้ง,Ban Laem Paeng,94040908,94040908,6.856604776161954,101.5217399597168
94040909,บ้านบนดอน,Ban Bon Don,94040909,94040909,6.832425218987835,101.50469854474068
