id,name.th,name.en,name.slug,code.dopa,geo.lat,geo.lon
74010901,บ้านโคกตานุช,Ban Khok Tanut,74010901,74010901,13.601179515221615,100.31038597226143
74010902,บ้านบางปิ้ง,Ban Bang Ping,74010902,74010902,13.59846040948701,100.28612673282623
74010903,บ้านหุบสังกะสี,Ban Hup Sang Kasi,74010903,74010903,13.589447771634239,100.30469432473183
74010904,บ้านปลายคลองครุ,Ban Plai Khlong Khru,74010904,74010904,13.572068081693542,100.2900280058384
74010905,บ้านหนองตาแอว,Ban Nong Ta Aeo,74010905,74010905,13.613499827351925,100.28839722275734
74010906,บ้านคลองเจ๊ก,Ban Khlong Chek,74010906,74010906,13.58814942298047,100.28032377362251
74010907,บ้านหนองทะเล,Ban Nong Thale,74010907,74010907,13.606652826570642,100.2906583249569
74010908,บ้านตาฟัก,Ban Ta Fak,74010908,74010908,13.615419767445474,100.30760183930397
74010909,บ้านราษฎร์,Ban Rat,74010909,74010909,13.602660280669577,100.30124500393867
