id,name.th,name.en,name.slug,code.dopa,geo.lat,geo.lon
91030301,บ้านผัง ๑,Ban Phang 1,91030301,91030301,6.885854554500674,99.94105115532875
91030302,"บ้านผัง ๓๒,๓๔,๓๙","Ban Phang 32,34,39",91030302,91030302,6.887942233844542,99.92241516709328
91030303,บ้านผัง ๓๕,Ban Phang 35,91030303,91030303,6.887383034921193,99.8943056166172
91030304,"บ้านผัง ๓,๑๒๑","Ban Phang 3,121",91030304,91030304,6.917067596489426,99.96631756424904
91030305,บ้านอุใดใต้,Ban Udai Tai,91030305,91030305,6.920060446727528,99.91576328873634
91030306,บ้านไร่สาธิต (อุใดเหนือ),Ban Rai Sathit (Udai Nuea),91030306,91030306,6.9264587986638855,99.94500741362572
91030307,"บ้านผัง ๑๑๙,๑๒๐","Ban Phang 119,120",91030307,91030307,6.932628080362641,99.98061910271645
91030308,บ้านผัง ๔๒,Ban Phang 42,91030308,91030308,6.881950782509571,99.95608225464821
91030309,"บ้านผัง ๔, สี่แยกอุใด, ไร่สาธิต","Ban Phang 4, Si Yaek Udai, Rai Sathit",91030309,91030309,6.91037888043786,99.95193019509315
