id,name.th,name.en,name.slug,code.dopa,geo.lat,geo.lon
92090201,บ้านคลองโกง,Ban Khlong Kong,92090201,92090201,7.9940025908265255,99.63408842682838
92090202,บ้านคลองปาง,Ban Khlong Pang,92090202,92090202,8.004953729621727,99.64268758893013
92090203,บ้านโพธิ์น้อย,Ban Pho Noi,92090203,92090203,7.98975273669506,99.62263002991676
92090204,บ้านเขาพระ,Ban Khao Phra,92090204,92090204,7.961490082380922,99.63389530777931
92090205,บ้านหนองหัด,Ban Nong Hat,92090205,92090205,7.972317247273828,99.63842287659645
92090206,บ้านควนหนองกก,Ban Khuan Nong Kok,92090206,92090206,7.9835266205087745,99.6493448317051
92090207,บ้านห้วยเนียง,Ban Huai Niang,92090207,92090207,8.00507325291876,99.62968960404396
92090208,บ้านต้นปราง,Ban Ton Prang,92090208,92090208,7.963572660378928,99.63792935013771
92090209,บ้านด่านสาย,Ban Dan Sai,92090209,92090209,7.951661446444732,99.6422316133976
