id,name.th,name.en,name.slug,code.dopa,geo.lat,geo.lon
24110101,บ้านวังขอน,Ban Wang Khon,24110101,24110101,13.781769486215381,101.13573923707008
24110102,บ้านดอนสนาม,Ban Don Sanam,24110102,24110102,13.72706875088845,100.5340875685215
24110103,บ้านลาดน้ำเค็ม,Ban Lat Nam Khem,24110103,24110103,13.781247185425082,101.12569570541382
24110104,บ้านก้อนแก้ว,Ban Kon Kaeo,24110104,24110104,13.74503365665853,101.14505723118782
24110105,บ้านชวดชะโด,Ban Chuat Chado,24110105,24110105,13.746397578386679,101.14202231168747
24110106,บ้านบางกระเสน,Ban Bang Krasen,24110106,24110106,13.737890849961001,101.13599002361298
