id,name.th,name.en,name.slug,code.dopa,geo.lat,geo.lon
33011901,บ้านหนองไฮ,Ban Nong Hai,33011901,33011901,15.017865183394791,104.41248536109924
33011902,บ้านหนองไฮ,Ban Nong Hai,33011902,33011902,15.01712297567067,104.41175311803818
33011903,บ้านแก,Ban Kae,33011903,33011903,14.996083617399025,104.41387742757797
33011904,บ้านโพนแดง,Ban Phon Daeng,33011904,33011904,15.016413148069535,104.44822981953621
33011905,บ้านก่อ,Ban Ko,33011905,33011905,15.006832835337205,104.43619206547737
33011906,บ้านโนนหล่อง,Ban Non Long,33011906,33011906,14.993955213344382,104.42859470844269
33011907,บ้านชาด,Ban Chat,33011907,33011907,15.012371748897431,104.42425355315208
