id,name.th,name.en,name.slug,code.dopa,geo.lat,geo.lon
67040401,บ้านเนินนาทอน,Ban Noen Na Thon,67040401,67040401,16.850845907315197,101.18454739451408
67040402,บ้านเนิน,Ban Noen,67040402,67040402,16.85134904687846,101.18488267064095
67040403,บ้านพร้าว,Ban Phrao,67040403,67040403,16.861479579858734,101.17770776152611
67040404,บ้านโจะโหวะใต้,Ban Cho Wo Tai,67040404,67040404,16.875684257632923,101.19421541690826
67040405,บ้านโจะโหวะเหนือ,Ban Cho Wo Nuea,67040405,67040405,16.88245125332028,101.1843703687191
67040406,บ้านโจะโหวะเหนือ,Ban Cho Wo Nuea,67040406,67040406,16.882750263465002,101.18284687399864
67040407,บ้านโจะโหวะใต้,Ban Cho Wo Tai,67040407,67040407,16.88224464088351,101.20298355817795
67040408,บ้านดอยน้ำเพียงดิน,Ban Doi Nam Phiang Din,67040408,67040408,16.88053013392751,101.11047685146332
