id,name.th,name.en,name.slug,code.dopa,geo.lat,geo.lon
84150501,บ้านเขานิพนธ์,Ban Khao Niphan,84150501,84150501,8.574425176782894,99.3481220304966
84150502,บ้านห้วยพลูเถื่อน,Ban Huai Phlu Thuean,84150502,84150502,8.585014057640969,99.3615773320198
84150503,บ้านควนเจริญ,Ban Khuan Charoen,84150503,84150503,8.597399424403873,99.3471685051918
84150504,บ้านคลองลำพลา,Ban Khlong Lam Phla,84150504,84150504,8.565823,99.374897
84150505,บ้านเขาปูน,Ban Khao Pun,84150505,84150505,8.529196,99.378470
84150506,บ้านกลาง,Ban Klang,84150506,84150506,8.567231,99.407539
84150507,บ้านควนกลาง,Ban Khuan Klang,84150507,84150507,8.599795,99.367689
84150508,บ้านคีรีราษฎร์พัฒนา,Ban Khiri Rat Phatthana,84150508,84150508,8.526881,99.387465
