id,name.th,name.en,name.slug,code.dopa,geo.lat,geo.lon
51040601,บ้านผาต้าย,Ban Pha Tai,51040601,51040601,17.70164878048376,98.86685863137245
51040602,บ้านหนองมะล้อ,Ban Nong Malo,51040602,51040602,17.7274954609506,98.84729996323586
51040603,บ้านแม่ลาน,Ban Mae Lan,51040603,51040603,17.76620740673879,98.82140725851059
51040604,บ้านแม่กองวะ,Ban Mae Kong Wa,51040604,51040604,17.78936951368477,98.80298584699631
51040605,บ้านเด่นเหม้า,Ban Den Mao,51040605,51040605,17.782970446939295,98.86114820837975
51040606,บ้านผาต้ายเหนือ,Ban Pa Tai Nuea,51040606,51040606,17.68841228542598,98.86631146073341
51040607,บ้านห้วยทรายขาว,Ban Huai Sai Khao,51040607,51040607,17.73762258266888,98.83771911263466
