id,name.th,name.en,name.slug,code.dopa,geo.lat,geo.lon
30220901,บ้านใหม่ไทยเจริญ,Ban Mai Thai Charoen,30220901,30220901,14.738009864029918,102.39225625991821
30220902,บ้านใหม่อุดม,Ban Mai Udom,30220902,30220902,14.73488800816796,102.39346995949745
30220903,บ้านใหม่สมบูรณ์,Ban Mai Sombun,30220903,30220903,14.760826456641034,102.37999588251114
30220904,บ้านถนนหัก,Ban Thanon Hak,30220904,30220904,14.748589081816505,102.41925939917564
30220905,บ้านหัวอ่าง,Ban Hua Ang,30220905,30220905,14.742042140920029,102.39354908466339
30220906,บ้านมะขามป้อม,Ban Makham Pom,30220906,30220906,14.738878839628807,102.39487677812576
30220907,บ้านปรางค์ประเสริฐ,Ban Prang Prasoet,30220907,30220907,14.75149026821362,102.42290049791336
30220908,บ้านคลองเมือง,Ban Khlong Mueang,30220908,30220908,14.72900733225838,102.40811347961426
30220909,บ้านโนนสุวรรณ์,Ban Non Suwan,30220909,30220909,14.736863329726107,102.39581689238548
