id,name.th,name.en,name.slug,code.dopa,geo.lat,geo.lon
18030701,บ้านบ่อแร่,Ban Bo Rae,18030701,18030701,15.281508493904672,99.97575893998146
18030702,บ้านทุ่งแห้ว,Ban Thung Haeo,18030702,18030702,15.293540726240394,99.97784301638603
18030703,บ้านเนินบ้าน,Ban Noen Ban,18030703,18030703,15.295188781686777,99.96941149234772
18030704,บ้านดงไร,Ban Dong Rai,18030704,18030704,15.287379160805788,99.96530503034592
18030705,บ้านสำนักจั่น,Ban Samnak Chan,18030705,18030705,15.284057040714131,99.940465092659
18030706,บ้านหนองจิก,Ban Nong Chik,18030706,18030706,15.26546616860912,99.9478867650032
18030707,บ้านไร่ห้วยกระบอก,Ban Rai Huai Krabok,18030707,18030707,15.269388889171886,99.96446147561073
