id,name.th,name.en,name.slug,code.dopa,geo.lat,geo.lon
70080601,บ้านแขก,Ban Khaek,70080601,70080601,13.424812570324534,99.83234524726868
70080602,บ้านห้วย,Ban Huai,70080602,70080602,13.417039170932577,99.83401760458946
70080603,บ้านป่าไก่,Ban Pa Kai,70080603,70080603,13.416051661169307,99.83324646949768
70080604,บ้านใหม่,Ban Mai,70080604,70080604,13.40077931249757,99.83451917767525
70080605,บ้านหนองกุ่ม,Ban Nong Kum,70080605,70080605,13.412144630955737,99.81121614575386
