id,name.local,name.en,name.slug,code.id,zip_codes,geo.lat,geo.lon
920703,อ่าวตง,Ao Tong,ao-tong-920703,920703,92220,7.862,99.365
920701,เขาวิเศษ,Khao Wiset,khao-wiset-920701,920701,92220,7.651,99.459
920704,ท่าสะบ้า,Tha Saba,tha-saba-920704,920704,92000,7.69,99.523
920702,วังมะปราง,Wang Maprang,wang-maprang-920702,920702,92220,7.656,99.382
920705,วังมะปรางเหนือ,Wang Maprang Nuea,wang-maprang-nuea-920705,920705,92220,7.746,99.398
