id,name.local,name.en,name.slug,code.id,zip_codes,geo.lat,geo.lon
430803,บ้านม่วง,Ban Muang,ban-muang-430803,430803,43160,18.181,102.128
430801,แก้งไก่,Kaeng Kai,kaeng-kai-430801,430801,43160,18.037,102.235
430804,นางิ้ว,Na Ngio,na-ngio-430804,430804,43160,18.092,102.125
430802,ผาตั้ง,Pha Tang,pha-tang-430802,430802,43160,17.996,102.328
430805,สังคม,Sangkhom,sangkhom-430805,430805,43160,18.091,102.216
