id,name.th,name.en,name.slug,code.dopa,geo.lat,geo.lon
95061601,บ้านบือเล็ง,Ban Bueleng,95061601,95061601,6.472651074351411,101.51193514466286
95061602,บ้านตะโละหะลอ,Ban Talo Halo,95061602,95061602,6.472980215578411,101.49068668484688
95061603,บ้านบือแนกูยิ,Ban Buemae Kuyi,95061603,95061603,6.475524056933866,101.46153375506401
95061604,บ้านบือแนบูเก๊ะ,Ban Buemae Buke,95061604,95061604,6.497318747966765,101.48337230086327
95061605,บ้านบึงน้ำใส,Ban Bueng Nam Sai,95061605,95061605,6.48469990196397,101.48644343018532
