id,name.th,name.en,name.slug,code.dopa,geo.lat,geo.lon
20020801,บ้านหนองปรือ,Ban Nong Prue,20020801,20020801,13.24321564769217,101.21036902070045
20020802,บ้านหินดาด,Ban Hin Dat,20020802,20020802,13.234093064203472,101.24141156673431
20020803,บ้านป่ายุบ,Ban Pa Yup,20020803,20020803,13.19668664166222,101.25972166657448
20020804,บ้านหนองใน,Ban Nong Nai,20020804,20020804,13.190688233872297,101.25026419758797
20020805,บ้านหนองไผ่แก้ว,Ban Nong Phai Kaeo,20020805,20020805,13.199449463462848,101.24763697385788
