id,name.th,name.en,name.slug,code.dopa,geo.lat,geo.lon
95011801,บ้านคล้า,Ban Khla,95011801,95011801,6.630483456113916,101.27991735935211
95011802,บ้านเบญญา,Ban Benya,95011802,95011802,6.640130679672411,101.28597378730774
95011803,บ้านตาเซะ,Ban Ta Se,95011803,95011803,6.616647713196126,101.25943198800087
95011804,บ้านวังกระ,Ban Wang Kra,95011804,95011804,6.651658610707856,101.2907212972641
95011805,บ้านทุ่งยอ,Ban Thung Yo,95011805,95011805,6.637884739780644,101.25604167580605
