id,name.th,name.en,name.slug,code.dopa,geo.lat,geo.lon
60051201,บ้านหนองมะขาม,Ban Nong Makham,60051201,60051201,16.072645635910007,100.04698500037193
60051202,บ้านบึงเปลือย,Ban Bueng Plueai,60051202,60051202,16.070596619916756,100.04458039999008
60051203,บ้านบึงปลาทู,Ban Bueng Pla Thu,60051203,60051203,16.062146461147343,100.05530923604965
60051204,บ้านห้วยโรง,Ban Huai Rong,60051204,60051204,16.056667906598072,100.07349327206612
60051205,บ้านใหม่ในดง,Ban Mai Nai Dong,60051205,60051205,16.0476049560978,100.08557662367821
60051206,บ้านหนองซาก,Ban Nong Sak,60051206,60051206,16.10657890776142,100.04783526062965
60051207,บ้านทุ่งสระ,Ban Thung Sa,60051207,60051207,16.084617137425194,100.07733955979347
60051208,บ้านทรายทอง,Ban Sai Thong,60051208,60051208,16.088033200068697,100.03571435809135
60051209,บ้านราษฎร์ร่วมสามัคคี,Ban Rat Ruam Samakkhi,60051209,60051209,16.061105147872638,100.0591729581356
