id,name.th,name.en,name.slug,code.dopa,geo.lat,geo.lon
38050601,บ้านไร่,Ban Rai,38050601,38050601,18.288854221376763,103.29447224736214
38050602,บ้านโนนสำราญ,Ban Non Samran,38050602,38050602,18.280159496658104,103.30192744731903
38050603,บ้านนาดง,Ban Na Dong,38050603,38050603,18.271671914539365,103.30090150237083
38050604,บ้านนาดงน้อย,Ban Na Dong Noi,38050604,38050604,18.257170114257537,103.30402627587318
38050605,บ้านโสกบง,Ban Sok Bong,38050605,38050605,18.24857187369815,103.29076409339905
38050606,บ้านชัยเจริญ,Ban Chai Charoen,38050606,38050606,18.24880749994406,103.31333354115486
38050607,บ้านดาลบังบด,Ban Dan Bang Bot,38050607,38050607,18.257753418968672,103.33809703588486
38050608,บ้านห้วยมะยม,Ban Huai Mayom,38050608,38050608,18.247431947618384,103.33186626434326
