id,name.th,name.en,name.slug,code.dopa,geo.lat,geo.lon
32120801,บ้านเสม็จ,Ban Samet,32120801,32120801,15.10180088094779,103.87350082397461
32120802,บ้านหนองม้า,Ban Nong Ma,32120802,32120802,15.103344263486939,103.8838554918766
32120803,บ้านสังแก,Ban Sang Kae,32120803,32120803,15.080566579534457,103.87029156088829
32120804,บ้านสองห้อง,Ban Song Hong,32120804,32120804,15.0778524138361,103.86426195502281
32120805,บ้านโนนชัย,Ban Non Chai,32120805,32120805,15.101490131428678,103.85788768529892
32120806,บ้านตาก่ำ,Ban Ta Kam,32120806,32120806,15.079112381514586,103.8802894949913
32120807,บ้านหนองพรม,Ban Nong Phrom,32120807,32120807,15.102182843275289,103.86999115347862
32120808,บ้านศรีสวัสดิ์,Ban Si Sawat,32120808,32120808,15.077673712779838,103.86930987238884
