id,name.th,name.en,name.slug,code.dopa,geo.lat,geo.lon
70060301,บ้านใน,Ban Nai,70060301,70060301,13.65488652593166,99.94816973805428
70060302,บ้านกลาง,Ban Klang,70060302,70060302,13.65488652593166,99.94816973805428
70060303,บ้านแหลมทอง,Ban Laem Thong,70060303,70060303,13.661455858519842,99.96031880378723
70060304,บ้านหนองฟ้าแลบ,Ban Nong Fa Laep,70060304,70060304,13.638910073499444,99.97941210865974
70060305,บ้านลำพญา,Ban Lam Phaya,70060305,70060305,13.666770094396385,99.97661054134369
70060306,บ้านดอนมะขามเทศ,Ban Don Makham Thet,70060306,70060306,13.661223895519447,99.98883068561554
