id,name.th,name.en,name.slug,code.dopa,geo.lat,geo.lon
75011101,บ้านรามัญ,Ban Raman,75011101,75011101,13.3795474799672,99.99358355998993
75011102,บ้านบางจะเกร็ง,Ban Bang Chakreng,75011102,75011102,13.387680873443385,100.00073567032814
75011103,บ้านคลองกลาง,Ban Khlong Klang,75011103,75011103,13.386322717605696,100.00831827521324
75011104,บ้านฉู่ฉี่,Ban Chuchi,75011104,75011104,13.367217702500621,100.01612082123756
75011105,บ้านรามัญตะวันออก,Ban Raman Tawan Ok,75011105,75011105,13.37955400349198,99.99467521905899
