id,name.th,name.en,name.slug,code.dopa,geo.lat,geo.lon
20061001,บ้านกลาง,Ban Klang,20061001,20061001,13.519316352043301,101.20271265506744
20061002,บ้านหนองบก,Ban Nong Bok,20061002,20061002,13.521229230302819,101.2160137295723
20061003,บ้านแหลมเขา,Ban Laem Khao,20061003,20061003,13.544169532905746,101.18347451090813
20061004,บ้านกลางในตลาด,Ban Klang Nai Talat,20061004,20061004,13.521156210010398,101.20428442955017
20061005,บ้านหนองคู,Ban Nong Khu,20061005,20061005,13.522157629212407,101.20509311556816
20061006,บ้านหนองคู,Ban Nong Khu,20061006,20061006,13.524968882497705,101.20647311210632
20061007,บ้านใต้,Ban Tai,20061007,20061007,13.529210474123088,101.20354279875755
20061008,บ้านป่าแก้ว,Ban Pa Kaeo,20061008,20061008,13.540461474207701,101.1993907392025
20061009,บ้านแปลงกระถิน,Ban Plaeng Krathin,20061009,20061009,13.535566852543392,101.2321887910366
