id,name.th,name.en,name.slug,code.dopa,geo.lat,geo.lon
14020150,ชุมชนตลาดวัดหนองแห้ว,,14020150,14020150,14.560333018602368,100.7239530980587
14020151,ชุมชนตลาดหม่อมเจ้า,,14020151,14020151,14.560072113843441,100.72513863444328
14020152,ชุมชนโคกมะนาว,,14020152,14020152,14.566685499929834,100.72997868061066
14020153,ชุมชนโคกศาลา,,14020153,14020153,14.561703737042457,100.7167486846447
14020154,ชุมชนวัดกลาง,,14020154,14020154,14.562418947543616,100.7175761461258
14020155,ชุมชนการไฟฟ้า,,14020155,14020155,14.567185227619563,100.71923911571503
14020156,ชุมชนซอยแสนสุข,,14020156,14020156,14.564070023545643,100.72325706481934
