id,name.th,name.en,name.slug,code.dopa,geo.lat,geo.lon
14110301,บ้านลาดทราย,Ban Lat Sai,14110301,14110301,14.210556329327066,100.68561896681786
14110302,บ้านลาดทราย,Ban Lat Sai,14110302,14110302,14.219659214556435,100.70570334792137
14110303,บ้านบึงวังน้อย,Ban Bueng Wang Noi,14110303,14110303,14.22482281346737,100.71628466248512
14110304,บ้านคลองหก,Ban Khlong Hok,14110304,14110304,14.195992511431982,100.72298347949982
14110305,บ้านคลองห้า,Ban Khlong Ha,14110305,14110305,14.190124856072362,100.71032613515854
14110306,บ้านคลองสี่,Ban Khlong Si,14110306,14110306,14.182535553766613,100.69435223937035
14110307,บ้านคลองสี่,Ban Khlong Si,14110307,14110307,14.178166746452403,100.6856994330883
14110308,บ้านคลองหก,Ban Khlong Hok,14110308,14110308,14.231994716230751,100.73093622922897
