id,name.th,name.en,name.slug,code.dopa,geo.lat,geo.lon
80010601,บ้านท่าไร่,Ban Tha Rai,80010601,80010601,8.416393877352013,100.01019045710564
80010602,บ้านไร่บน,Ban Rai Bon,80010602,80010602,8.411680220449893,100.05701243877411
80010603,บ้านบางหลวง,Ban Bang Luang,80010603,80010603,8.438641350622788,100.03164008259773
80010604,บ้านนารีประดิษฐ์,Ban Nari Pradit,80010604,80010604,8.471141317649517,100.05739063024521
80010605,บ้านบางพุทรา,Ban Bang Phutsa,80010605,80010605,8.40286302070733,100.0212062895298
80010606,บ้านบางกระบือ,Ban Bang Krabue,80010606,80010606,8.419069744300003,100.04980266094208
