id,name.local,name.en,name.slug,code.id,zip_codes,geo.lat,geo.lon
160901,โคกเจริญ,Khok Charoen,khok-charoen-160901,160901,15250,15.408,100.777
160905,โคกแสมสาร,Khok Samae San,khok-samae-san-160905,160905,15250,15.344,100.85
160903,หนองมะค่า,Nong Makha,nong-makha-160903,160903,15250,15.515,100.839
160904,วังทอง,Wang Thong,wang-thong-160904,160904,15250,15.469,100.811
160902,ยางราก,Yang Rak,yang-rak-160902,160902,15250,15.366,100.935
