id,name.th,name.en,name.slug,code.dopa,geo.lat,geo.lon
33020501,บ้านกุดเมืองฮาม,Ban Kut Mueang Ham,33020501,33020501,15.22488526003659,104.31933358311653
33020502,บ้านยางเครือ,Ban Yang Khruea,33020502,33020502,15.226936295722863,104.34222891926765
33020503,บ้านแก้ง,Ban Kaeng,33020503,33020503,15.23960698276066,104.30185362696648
33020504,บ้านแก้ง,Ban Kaeng,33020504,33020504,15.24110665919795,104.30200383067131
33020505,บ้านกุดเมืองฮาม,Ban Kut Mueang Ham,33020505,33020505,15.223705096691955,104.32274535298347
33020506,บ้านเหมือดแอ่,Ban Mueat Ae,33020506,33020506,15.233569350632411,104.34202775359154
33020507,บ้านดอนเหมือดแอ่,Ban Don Mueat Ae,33020507,33020507,15.267410719000713,104.32157054543495
33020508,บ้านกุดเมืองฮาม,Ban Kut Mueang Ham,33020508,33020508,15.226905239180086,104.32323485612869
