id,name.local,name.en,name.slug,code.id,zip_codes,geo.lat,geo.lon
100804,บ้านบาตร,Ban Bat,ban-bat-100804,100804,10100,13.752,100.507
100803,คลองมหานาค,Khlong Maha Nak,khlong-maha-nak-100803,100803,10100,13.753,100.513
100801,ป้อมปราบ,Pom Prap,pom-prap-100801,100801,10100,13.743,100.514
100805,วัดโสมนัส,Wat Sommanat,wat-sommanat-100805,100805,10100,13.759,100.511
100802,วัดเทพศิรินทร์,Wat Thep Sirin,wat-thep-sirin-100802,100802,10100,13.749,100.512
