id,name.th,name.en,name.slug,code.dopa,geo.lat,geo.lon
55020601,บ้านบอน,Ban Bon,55020601,55020601,18.79117755616305,101.01648822426796
55020602,บ้านฝาย,Ban Fai,55020602,55020602,18.792183093882834,101.02144360542297
55020603,บ้านก้อ,Ban Ko,55020603,55020603,18.795329169325257,101.03019565343857
55020604,บ้านนาหมัน,Ban Na Man,55020604,55020604,18.842265740335396,101.02603286504745
55020605,บ้านตอง,Ban Tong,55020605,55020605,18.849378390591827,101.02539718151093
55020606,บ้านตองเจริญราษฏร์,Ban Tong Charoen Rat,55020606,55020606,18.848813603362913,101.02977052330971
