id,name.local,name.en,name.slug,code.id,zip_codes,geo.lat,geo.lon
400206,บ้านฝาง,Ban Fang,ban-fang-400206,400206,40270,16.443,102.654
400204,บ้านเหล่า,Ban Lao,ban-lao-400204,400204,40270,16.399,102.65
400207,โคกงาม,Khok Ngam,khok-ngam-400207,400207,40270,16.582,102.6
400203,โนนฆ้อง,Non Khong,non-khong-400203,400203,40270,16.416,102.589
400201,หนองบัว,Nong Bua,nong-bua-400201,400201,40270,16.497,102.596
400205,ป่ามะนาว,Pa Manao,pa-manao-400205,400205,40270,16.367,102.573
400202,ป่าหวายนั่ง,Pa Wai Nang,pa-wai-nang-400202,400202,40270,16.609,102.65
