id,name.th,name.en,name.slug,code.dopa,geo.lat,geo.lon
20100101,บ้านอมพนม,Ban Amphanam,20100101,20100101,13.282225584374718,101.43608629703522
20100102,บ้านวังรี,Ban Wang Ri,20100102,20100102,13.187068,101.567051
20100103,บ้านเขาสามชั้น,Ban Khao Sam Chan,20100103,20100103,13.273747,101.508005
20100104,บ้านหนองจระเข้,Ban Nong Chorakhe,20100104,20100104,13.173874,101.464297
20100105,บ้านทับร้าง,Ban Thap Rang,20100105,20100105,13.197049,101.461535
20100106,บ้านทับสูง,Ban Thap Sung,20100106,20100106,13.235247113391202,101.4598560333252
20100107,บ้านหนองใหญ่,Ban Nong Yai,20100107,20100107,13.241823,101.485588
20100108,บ้านคลองใหญ่,Ban Khlong Yai,20100108,20100108,13.133921,101.549258
20100109,บ้านทับเจ๊ก,Ban Thap Chek,20100109,20100109,13.259051,101.502660
