id,name.th,name.en,name.slug,code.dopa,geo.lat,geo.lon
72040801,บ้านองครักษ์,Ban Ongkharak,72040801,72040801,14.34546161330673,100.21087735891342
72040802,บ้านคลองโมง,Ban Khlong Mong,72040802,72040802,14.37225003245032,100.21615460515022
72040803,บ้านทองขาหยั่ง,Ban Thong Khayang,72040803,72040803,14.377736202207595,100.24466782808304
72040804,บ้านกระทุ่มทอง,Ban Krathum Thong,72040804,72040804,14.400356298171443,100.27744442224503
72040805,บ้านรางขโมย,Ban Rang Khamoi,72040805,72040805,14.381225559563578,100.26993691921234
72040806,บ้านสะพาน,Ban Saphan,72040806,72040806,14.39438096000272,100.23529350757599
72040807,บ้านหงษ์,Ban Hong,72040807,72040807,14.372127913950349,100.20428717136383
