id,name.th,name.en,name.slug,code.dopa,children_count.villages,zip_codes,geo.lat,geo.lon
461701,ดอนจาน,Don Chan,don-chan,461701,9,46000,16.425,103.696
461703,พยุง,Dong Phayung,dong-phayung,461703,13,46000,16.531,103.708
461704,ม่วงนา,Muang Na,muang-na,461704,9,46000,16.475,103.639
461705,นาจำปา,Na Champa,na-champa,461705,9,46000,16.480,103.696
461702,สะอาดไชยศรี,Sa-at Chai Si,sa-at-chai-si,461702,8,46000,16.471,103.773
