id,name.th,name.en,name.slug,code.dopa,geo.lat,geo.lon
73032201,บ้านคลองเจ็ก,Ban Khlong Chek,73032201,73032201,13.860206822342887,100.27245685458183
73032202,บ้านลำทหาร,Ban Lam Thahan,73032202,73032202,13.850204215159915,100.2545303106308
73032203,บ้านลานตากฟ้า,Ban Lan Tak Fa,73032203,73032203,13.839617805518667,100.23083835840225
73032204,บ้านท้ายวัด,Ban Huai Wat,73032204,73032204,13.82379849380372,100.22546455264091
73032205,บ้านบางเก็ง,Ban Bang Keng,73032205,73032205,13.815762111320218,100.2260009944439
