id,name.th,name.en,name.slug,code.dopa,geo.lat,geo.lon
32080601,บ้านหัวงัว,Ban Hua Ngua,32080601,32080601,15.117465951507615,103.81477519869804
32080602,บ้านกาพระ,Ban Ka Phra,32080602,32080602,15.135012201484471,103.83296459913254
32080603,บ้านหนองคู,Ban Nong Khu,32080603,32080603,15.134985015177419,103.85221481323242
32080604,บ้านหนองครก,Ban Nong Khrok,32080604,32080604,15.117871190072497,103.8520485162735
32080605,บ้านสองห้อง,Ban Song Hong,32080605,32080605,15.124367848302702,103.83326232433319
32080606,บ้านหนองหลัก,Ban Nong Lak,32080606,32080606,15.119238379006426,103.83589625358582
32080607,บ้านก้านเหลือง,Ban Kan Lueang,32080607,32080607,15.10970671362792,103.82968425750732
32080608,บ้านหัวงัว,Ban Hua Ngua,32080608,32080608,15.117293757250437,103.81510376930237
