id,name.th,name.en,name.slug,code.dopa,geo.lat,geo.lon
40011201,บ้านดอนช้าง,Ban Don Chang,40011201,40011201,16.37435991801357,102.7488425374031
40011202,บ้านป่าเหลื่อม,Ban Pa Lueam,40011202,40011202,16.370843308932685,102.76554062962532
40011203,บ้านป่าสังข์,Ban Pa Sang,40011203,40011203,16.35892651237287,102.77225956320763
40011204,บ้านหนองฮี,Ban Nong Hi,40011204,40011204,16.34441717468049,102.7700024843216
40011205,บ้านหัวบึง,Ban Hua Bueng,40011205,40011205,16.369592600625605,102.73728355765343
40011206,บ้านหัวสระ,Ban Hua Sa,40011206,40011206,16.373161987683805,102.73480787873268
40011207,บ้านดอนหญ้านาง,Ban Don Ya Nang,40011207,40011207,16.35808107544811,102.73411184549332
40011208,บ้านนิคม,Ban Nikhom,40011208,40011208,16.342369694885328,102.73392543196678
