id,name.th,name.en,name.slug,code.dopa,geo.lat,geo.lon
16040701,บ้านท่าดินดำ,Ban Tha Din Dam,16040701,16040701,15.174752259373111,101.14867821335793
16040702,บ้านท่าแสมสาร,Ban Tha Samaesan,16040702,16040702,15.175949523060789,101.12705692648888
16040703,บ้านหนองปลาไหล,Ban Nong Pla Lai,16040703,16040703,15.129617593079598,101.15363895893097
16040704,บ้านวังตะเคียน,Ban Wang Takhian,16040704,16040704,15.147402321312159,101.11794143915176
16040705,บ้านโคกสมบูรณ์,Ban Khok Sombun,16040705,16040705,15.143438493916701,101.13107353448868
16040706,บ้านวังก้านเหลือง,Ban Wang Kan Lueang,16040706,16040706,15.118987210488157,101.12584322690964
