id,name.th,name.en,name.slug,code.dopa,geo.lat,geo.lon
25080601,บ้านแล้ง,Ban Laeng,25080601,25080601,13.968412314705418,101.4513199031353
25080602,บ้านเหนือ,Ban Nuea,25080602,25080602,13.961796966443002,101.45050182938576
25080603,บ้านใหม่,Ban Mai,25080603,25080603,13.962844658690237,101.44868329167366
25080604,บ้านท้ายดง,Ban Thai Dong,25080604,25080604,13.967904749955665,101.44375875592232
25080605,บ้านดอนใหญ่,Ban Don Yai,25080605,25080605,13.964354368333561,101.42034843564034
25080606,บ้านท้ายสะแก,Ban Thai Sakae,25080606,25080606,13.97210579066176,101.40969201922417
25080607,บ้านหนองบัวหมู,Ban Nong Bua Mu,25080607,25080607,13.96337045524031,101.39140740036964
