id,name.th,name.en,name.slug,code.dopa,geo.lat,geo.lon
63010501,บ้านหนองตับ,Ban Nong Tap,63010501,63010501,16.905142595281042,99.08894822001457
63010502,บ้านเด่น,Ban Den,63010502,63010502,16.917140967835973,99.0781120955944
63010503,บ้านปากห้วยไม้งาม,Ban Pak Huai Mai Ngam,63010503,63010503,16.936962077954732,99.07163187861443
63010504,บ้านหนองบัวเหนือ,Ban Nong Bua Nuea,63010504,63010504,16.95234897815464,99.09382045269012
63010505,บ้านวังม่วง,Ban Wang Muang,63010505,63010505,16.955606051656346,99.10188719630241
63010506,บ้านไร่ท่าตะกู,Ban Rai Tha Taku,63010506,63010506,16.9510610078091,99.03921201825142
63010507,บ้านปากห้วยกลาง,Ban Pak Huai Klang,63010507,63010507,16.939568984299996,99.07370254397392
63010508,บ้านหนองแบน,Ban Nong Baen,63010508,63010508,16.949108516616377,99.08569067716599
