id,name.th,name.en,name.slug,code.dopa,geo.lat,geo.lon
50011401,บ้านท่ากระดาษ,Ban Tha Kradat,50011401,50011401,18.815448441894198,99.00360569357872
50011402,บ้านลังกา,Ban Langka,50011402,50011402,18.813978425091584,99.00502324104309
50011403,บ้านไร่,Ban Rai,50011403,50011403,18.814260242779934,99.00889098644257
50011404,บ้านแม่คาว,Ban Mae Dao,50011404,50011404,18.809192530082996,99.01815265417099
50011405,บ้านป่าแก,Ban Pa Kae,50011405,50011405,18.812236730521555,99.01348695158958
50011406,บ้านท่ากระดาษริมเหมือง,Ban Tha Kradat Rim Mueang,50011406,50011406,18.81805204115337,99.00674790143967
50011407,บ้านสันทรายต้นกอก,Ban San Sai Ton Kok,50011407,50011407,18.824635121043038,98.99760693311691
50011450,ฟ้าฮ่าม,,50011450,50011450,18.80744189945927,99.00619268417358
