id,name.th,name.en,name.slug,code.dopa,geo.lat,geo.lon
55010501,บ้านถืมตอง,Ban Thuem Tong,55010501,55010501,18.79144290697788,100.70174440741539
55010502,บ้านเขือนแก้ว,Ban Khuean Kaeo,55010502,55010502,18.783538066578245,100.70175245404243
55010503,บ้านวังฆ้อง,Ban Wang Khong,55010503,55010503,18.79680188823274,100.70191472768784
55010504,บ้านนาท่อเด่น,Ban Na Tho Den,55010504,55010504,18.804623587089466,100.70283204317093
55010505,บ้านกิ่วป่าห้า,Ban Kio Pa Ha,55010505,55010505,18.789857143977436,100.7060869038105
55010506,บ้านดอนถืมตอง,Ban Don Thuem Tong,55010506,55010506,18.790377692325336,100.69961071014404
55010507,บ้านฝายแก,Ban Fai Kae,55010507,55010507,18.794792131552505,100.72069019079208
55010508,บ้านใหม่สุขสันต์,Ban Mai Suk San,55010508,55010508,18.804760695270176,100.70910304784775
