id,name.th,name.en,name.slug,code.dopa,geo.lat,geo.lon
55050201,บ้านทุ่งกวาง,Ban Thung Kwang,55050201,55050201,19.177493253297047,100.84651663899422
55050202,บ้านท่าล้อ,Ban Tha Lo,55050202,55050202,19.18019759409191,100.85509434342384
55050203,บ้านหนองเงือก,Ban Nong Ngueak,55050203,55050203,19.184070994102697,100.84039315581322
55050204,บ้านพาน,Ban Phan,55050204,55050204,19.19176052511962,100.83555981516838
55050205,บ้านหัวเมือง,Ban Hua Mueang,55050205,55050205,19.199342043416603,100.83243370056152
55050206,บ้านดอนมูล,Ban Don Mun,55050206,55050206,19.187483259898517,100.86356744170189
55050207,บ้านใหม่ไชยมงคล,Ban Mai Chai Mongkhon,55050207,55050207,19.19751952187676,100.83355620503426
