id,name.th,name.en,name.slug,code.dopa,geo.lat,geo.lon
31210401,บ้านดงกะทิง,Ban Dong Kathing,31210401,31210401,15.153799694101158,103.16466271877289
31210402,บ้านปอหู,Ban Po Hu,31210402,31210402,15.171410239856634,103.17893072962761
31210403,บ้านหนองแต้พัฒนา,Ban Nong Tae Phatthana,31210403,31210403,15.201091786372539,103.15716728568077
31210404,บ้านดงเย็น,Ban Dong Yen,31210404,31210404,15.217357723142186,103.14855337142944
31210405,บ้านสำโรง,Ban Samrong,31210405,31210405,15.16781576250147,103.17132666707039
31210406,บ้านหนองสระ,Ban Nong Sa,31210406,31210406,15.149610744218508,103.1552803516388
31210407,บ้านโนนขวาง,Ban Non Khwang,31210407,31210407,15.169538582287622,103.15774127840996
31210408,บ้านหนองนา,Ban Nong Na,31210408,31210408,15.179586574371525,103.15780833363533
31210409,บ้านปอแดง,Ban Po Daeng,31210409,31210409,15.15821638331786,103.18821787834167
