id,name.th,name.en,name.slug,code.dopa,geo.lat,geo.lon
92010701,บ้านเกาะปริง,Ban Ko Pring,92010701,92010701,7.519481565507711,99.59199920296669
92010702,บ้านโคกสะท้อน,Ban Khok Sathon,92010702,92010702,7.533568147632228,99.60181474685669
92010703,บ้านนาป้อ,Ban Na Po,92010703,92010703,7.500296753645172,99.59415704011917
92010704,บ้านหลวนช้าง,Ban Luam Chang,92010704,92010704,7.520281966858351,99.597547352314
92010705,บ้านควนปริง,Ban Khuan Pring,92010705,92010705,7.533659885081238,99.58211526274681
92010706,บ้านควนปริง,Ban Khuan Pring,92010706,92010706,7.5306976863360395,99.57458227872849
92010707,บ้านทุ่งหวัง,Ban Thung Wang,92010707,92010707,7.498237151490168,99.60372716188431
92010708,บ้านไซหนุน,Ban Sai Nun,92010708,92010708,7.521711251313068,99.60301503539085
92010709,บ้านกลาง,Ban Klang,92010709,92010709,7.520502675276824,99.5975111424923
