id,name.local,name.en,name.slug,code.id,zip_codes,geo.lat,geo.lon
301104,ชีวึก,Chiwuek,chiwuek-301104,301104,30290,15.351,102.099
301101,ขามสะแกแสง,Kham Sakaesaeng,kham-sakaesaeng-301101,301101,30290,15.36,102.195
301107,เมืองเกษตร,Mueang Kaset,mueang-kaset-301107,301107,30290,15.424,102.159
301103,เมืองนาท,Mueang Nat,mueang-nat-301103,301103,30290,15.386,102.248
301102,โนนเมือง,Non Mueang,non-mueang-301102,301102,30290,15.416,102.116
301106,หนองหัวฟาน,Nong Hua Fan,nong-hua-fan-301106,301106,30290,15.433,102.237
301105,พะงาด,Pha-ngat,pha-ngat-301105,301105,30290,15.334,102.149
