id,name.th,name.en,name.slug,code.dopa,geo.lat,geo.lon
63080301,บ้านปรอผาโด้,Ban Pro Pha To,63080301,63080301,16.11098411228666,98.88349503278732
63080302,บ้านตะเป่อพู,Ban Ta Poe Phu,63080302,63080302,16.19507135633689,98.88094827532768
63080303,บ้านแม่กลองคี,Ban Mae Klong Khi,63080303,63080303,16.228316627443558,98.92298117280006
63080304,บ้านแม่กลองใหญ่,Ban Mae Klong Yai,63080304,63080304,16.296654223399532,99.0204419195652
63080305,บ้านวะเบยทะ,Ban Wabei Tha,63080305,63080305,16.15666800172075,98.88208419084549
63080306,บ้านแม่กลองน้อย,Ban Mae Klong Noi,63080306,63080306,16.348105415380648,99.01239529252052
63080307,บ้านยะแม๊ะคี,Ban Yamae Khi,63080307,63080307,16.132245997410802,98.89942601323128
