id,name.th,name.en,name.slug,code.dopa,geo.lat,geo.lon
80230201,บ้านหัวสะพานชะเมา,Ban Hua Saphan Chamao,80230201,80230201,8.243215492928138,100.01703679561615
80230202,บ้านใต้หล้า,Ban Tai La,80230202,80230202,8.204572089020456,100.02953588962555
80230203,บ้านดอนตรอ,Ban Don Tro,80230203,80230203,8.203409304106668,100.03344655036926
80230204,บ้านทุ่งคา,Ban Thung Kha,80230204,80230204,8.215648904784086,100.0276905298233
80230205,บ้านยางยวน,Ban Yang Yuan,80230205,80230205,8.181156450191947,100.04328489303589
