id,name.th,name.en,name.slug,code.dopa,geo.lat,geo.lon
96060301,บ้านสะแนะ,Ban Sanae,96060301,96060301,6.419338032523231,101.46345019340515
96060302,บ้านสุเป๊ะ,Ban Supe,96060302,96060302,6.414419027450275,101.45770087838173
96060303,บ้านบาโงปูโละ,Ban Ba-ngo Pulo,96060303,96060303,6.3829474676803715,101.45580187439919
96060304,บ้านซือเลาะ,Ban Chuelo,96060304,96060304,6.374023020968917,101.44183829426765
96060305,บ้านลอ,Ban Lo,96060305,96060305,6.387454947236033,101.4445124566555
96060306,บ้านดาระ,Ban Dara,96060306,96060306,6.4196418871444205,101.45419523119926
96060307,บ้านตือโละ,Ban Tuelo,96060307,96060307,6.38785744643704,101.45595207810402
96060308,บ้านกำปงบารู,Ban Kampong Baru,96060308,96060308,6.402441831264841,101.4555349946022
