id,name.th,name.en,name.slug,code.dopa,geo.lat,geo.lon
36140401,บ้านแหลมทอง,Ban Laem Thong,36140401,36140401,15.984477659627848,101.44500598311424
36140402,บ้านถ้ำแก้ว,Ban Tham Kaeo,36140402,36140402,15.980737503182018,101.447032392025
36140403,บ้านซับเจริญ,Ban Sap Charoen,36140403,36140403,15.97949334739717,101.4419737458229
36140404,บ้านหินเหิบ,Ban Hin Hoep,36140404,36140404,16.013008070391535,101.44337922334671
36140405,บ้านดงสวรรค์,Ban Dong Sawan,36140405,36140405,13.718063633449118,100.52550449967384
36140406,บ้านวังตะกู,Ban Wang Taku,36140406,36140406,15.946101959645015,101.43714979290962
36140407,บ้านโนนผักหวาน,Ban Non Phak Wan,36140407,36140407,15.99455420322924,101.476389169693
36140408,บ้านซับไทรทอง,Ban Sap Sai Thong,36140408,36140408,15.942221817932616,101.43654495477676
36140409,บ้านซับภูทอง,Ban Sap Phu Thong,36140409,36140409,13.72406708347769,100.50524845719337
