id,name.th,name.en,name.slug,code.dopa,geo.lat,geo.lon
86010601,บ้านขุนแสน,Ban Khun Saen,86010601,86010601,10.514582961437084,99.20201674103737
86010602,บ้านนาชะอัง,Ban Na Cha-ang,86010602,86010602,10.537644157019027,99.20863777399063
86010603,บ้านหูรอ,Ban Hu Ro,86010603,86010603,10.531949560193517,99.23094436526299
86010604,บ้านดอนนาว,Ban Don Nao,86010604,86010604,10.51998383974285,99.23083305358887
86010605,บ้านสามเสียม,Ban Sam Siaom,86010605,86010605,10.552616528258396,99.25225853919983
86010606,บ้านทรายทอง,Ban Sai Thong,86010606,86010606,10.549557772629461,99.22548070549965
86010607,บ้านเนินคีรี,Ban Noen Khiri,86010607,86010607,10.529431193700496,99.2020945250988
86010608,บ้านหนองจระเข้,Ban Nong Chorakhe,86010608,86010608,10.558337110687953,99.24880653619766
86010609,บ้านทับตะเคียน,Ban Thap Takhian,86010609,86010609,10.53429913801939,99.21194761991501
