id,name.th,name.en,name.slug,code.dopa,geo.lat,geo.lon
75010701,บ้านคลองด่าน,Ban Khlong Dan,75010701,75010701,13.377105059871383,99.98520165681839
75010702,บ้านคลองด่าน,Ban Khlong Dan,75010702,75010702,13.37649445097848,99.98654678463936
75010703,บ้านคลองด่าน,Ban Khlong Dan,75010703,75010703,13.377757418089848,99.97920289635658
75010704,บ้านสามแยกเตาปูน,Ban Sam Yaek Tao Pun,75010704,75010704,13.366537915472366,99.96439039707184
75010705,บ้านมอบลัด,Ban Mop Lat,75010705,75010705,13.378876860676268,99.9774232506752
75010706,บ้านแหลมใหญ่,Ban Laem Yai,75010706,75010706,13.39073506525614,99.97585415840149
75010707,บ้านคลองสองร่อง,Ban Khlong Song Rong,75010707,75010707,13.365371443438084,99.99419510364532
75010708,บ้านจัดสรรคลองด่าน,Ban Chatsan Khlong Tan,75010708,75010708,13.377020253173253,99.9884270131588
