id,name.th,name.en,name.slug,code.dopa,geo.lat,geo.lon
46010401,บ้านหนองโพน,Ban Nong Phon,46010401,46010401,16.50927478365675,103.55293393135071
46010402,บ้านหนองไผ่,Ban Nong Phai,46010402,46010402,16.517731409126146,103.56548130512238
46010403,บ้านโคกล่าม,Ban Khok Lam,46010403,46010403,16.529488036485112,103.57070624828339
46010404,บ้านคำเม็ก,Ban Kham Mek,46010404,46010404,16.50258585419041,103.57759550213814
46010405,บ้านโนนสะอาด,Ban Non Sa-at,46010405,46010405,16.51861986691912,103.59677329659462
46010406,บ้านเริงนาแก,Ban Roeng Na Kae,46010406,46010406,16.50849686353619,103.55244308710098
46010407,บ้านโคกกว้าง,Ban Khok Kwang,46010407,46010407,16.541906032345853,103.55385795235634
46010408,บ้านดอนสวรรค์,Ban Don Sawan,46010408,46010408,16.5101761384269,103.53499665856361
46010409,บ้านโนนทอง,Ban Non Thong,46010409,46010409,16.50720203748515,103.57598081231117
