id,name.th,name.en,name.slug,code.dopa,geo.lat,geo.lon
80130301,บ้านควนรุย,Ban Khuan Rui,80130301,80130301,8.271093368463307,99.88983571529388
80130302,บ้านสระพัง,Ban Sa Phang,80130302,80130302,8.27085315333516,99.90906178951263
80130303,บ้านป่าแชง,Ban Pa Chaeng,80130303,80130303,8.247660423886382,99.91993144154549
80130304,บ้านวังงู,Ban Wang Ngu,80130304,80130304,8.236488939261882,99.91728141903877
80130305,บ้านโคกคราม,Ban Khok Khram,80130305,80130305,8.248727518415082,99.94150578975677
80130306,บ้านท่าเจริญ,Ban Tha Charoen,80130306,80130306,8.28286240320257,99.87609341740608
80130307,บ้านคลองใหม่,Ban Khlong Mai,80130307,80130307,8.2786381724009,99.92417067289352
80130308,บ้านควนบน,Ban Khuan Bon,80130308,80130308,8.272740364376535,99.8852987587452
