id,name.th,name.en,name.slug,code.dopa,geo.lat,geo.lon
50191201,บ้านไชยสถาน,Ban Chaiya Sathan,50191201,50191201,18.731363935487032,99.05120149254799
50191202,บ้านร้องดอนชัย,Ban Rong Don Chai,50191202,50191202,18.750454585091028,99.05022516846657
50191203,บ้านศรีคำชมภู,Ban Si Kham Chom Phu,50191203,50191203,18.737886901471285,99.05209198594093
50191204,บ้านป่าบงหลวง,Ban Pa Bong Luang,50191204,50191204,18.740802849965004,99.05361548066139
50191205,บ้านเทพาราม,Ban Thepha Ram,50191205,50191205,18.73206501400419,99.05885115265846
50191206,บ้านสุพรรณ,Ban Suphan,50191206,50191206,18.72859007457126,99.06329289078712
