id,name.local,name.en,name.slug,code.id,zip_codes,geo.lat,geo.lon
341204,กาบิน,Ka Bin,ka-bin-341204,341204,34270,15.757,104.964
341203,แก่งเค็ง,Kaeng Kheng,kaeng-kheng-341203,341203,34270,15.776,105.101
341201,ข้าวปุ้น,Khaopun,khaopun-341201,341201,34270,15.792,105.006
341202,โนนสวาง,Non Sawang,non-sawang-341202,341202,34270,15.867,105.026
341205,หนองทันน้ำ,Nong Than Nam,nong-than-nam-341205,341205,34270,15.828,105.099
