id,name.th,name.en,name.slug,code.dopa,geo.lat,geo.lon
35010801,บ้านขั้นไดใหญ่,Ban Khandai Yai,35010801,35010801,15.890052485904363,104.12181571125984
35010802,บ้านโนนค้อ,Ban Non Kho,35010802,35010802,15.873333924470447,104.12578538060188
35010803,บ้านคำฮี,Ban Kham Hi,35010803,35010803,15.934229185812923,104.1254286468029
35010804,บ้านโคกดำเนิน,Ban Khok Damnoen,35010804,35010804,15.938858709821666,104.11097422242165
35010805,บ้านขั้นไดใหญ่,Ban Khandai Yai,35010805,35010805,15.880876217182811,104.11335602402687
35010806,บ้านโพนขวาว,Ban Phon Khwao,35010806,35010806,15.909661262332632,104.0981774032116
35010807,บ้านหนองบั่ว,Ban Nong Bua,35010807,35010807,15.923101127085511,104.10383820533752
35010808,บ้านเชือกน้อย,Ban Chueak Noi,35010808,35010808,15.94335014870386,104.09796416759491
35010809,บ้านโคกมะนัส,Ban Khok Manat,35010809,35010809,15.93296797663817,104.13438186049461
