id,name.th,name.en,name.slug,code.dopa,geo.lat,geo.lon
41061801,บ้านดงบัง,Ban Dong Bang,41061801,41061801,17.331843263462584,103.25105398893356
41061802,บ้านดงบัง,Ban Dong Bang,41061802,41061802,17.33259730688048,103.24848309159279
41061803,บ้านหนองเขื่อน,Ban Nong Khuean,41061803,41061803,17.332357908032407,103.24523225426674
41061804,บ้านหนองบัวน้อย,Ban Nong Bua Noi,41061804,41061804,13.72706875088845,100.5340875685215
41061805,บ้านโคกสุวรรณ,Ban Khok Suwan,41061805,41061805,17.35214502524378,103.25351357460022
41061806,บ้านหัวบึง,Ban Hua Bueng,41061806,41061806,17.370539995682012,103.26011046767235
41061807,บ้านต้อง,Ban Tong,41061807,41061807,17.364140173672443,103.25758382678032
41061808,บ้านหนองสระปลา,Ban Nong Sa Pla,41061808,41061808,17.352568728097314,103.257255256176
41061809,บ้านโนนโพธิ์ศรี,Ban Non Pho Si,41061809,41061809,17.352568728097314,103.257255256176
