id,name.th,name.en,name.slug,code.dopa,geo.lat,geo.lon
57080101,บ้านสบรวก,Ban Sop Ruak,57080101,57080101,20.348018233884158,100.08252158761024
57080102,บ้านเวียงเหนือ,Ban Wiang Nuea,57080102,57080102,20.27680062184633,100.08525744080544
57080103,บ้านเวียงใต้,Ban Wiang Tai,57080103,57080103,20.269857590014656,100.08594140410423
57080104,บ้านวังลาว,Ban Wang Lao,57080104,57080104,20.37246550892463,100.06404250860214
57080105,บ้านสบคำ,Ban Sop Kham,57080105,57080105,20.2458546241553,100.10966554284096
57080106,บ้านจอมกิตติ,Ban Chom Kitti,57080106,57080106,20.283833914439562,100.07736101746559
57080107,บ้านเชียงแสนน้อย,Ban Chiang Saen Noi,57080107,57080107,20.244308231866775,100.1212714612484
57080108,บ้านห้วยเกี๋ยง,Ban Huai Kiang,57080108,57080108,20.29563795800183,100.08772373199463
57080109,บ้านป่าสักหางเวียง,Ban Pa Sak Hang Wiang,57080109,57080109,20.261390671214247,100.09039118885994
