id,name.th,name.en,name.slug,code.dopa,geo.lat,geo.lon
47081101,บ้านนาคำ,Ban Na Kham,47081101,47081101,17.66039011749572,103.77712771296501
47081102,บ้านหนองขุ่น,Ban Nong Khun,47081102,47081102,17.66301234956223,103.78539562225342
47081103,บ้านกุดจิก,Ban Kut Chik,47081103,47081103,17.64813208159086,103.79694387316704
47081104,บ้านดอนมุย,Ban Don Mui,47081104,47081104,17.66676544855755,103.75962495803833
47081105,บ้านหนองแฝก,Ban Nong Faek,47081105,47081105,17.682889976654295,103.77230644226074
47081106,บ้านหนองม่วง,Ban Nong Muang,47081106,47081106,17.69982434859894,103.80221039056778
47081107,บ้านเหล่าสิมมา,Ban Lao Sim Ma,47081107,47081107,17.689015359306225,103.81181672215462
47081108,บ้านหนองม่วงพัฒนา,Ban Nong Muang Phatthana,47081108,47081108,17.696614938834873,103.80320683121681
47081109,บ้านกุดจิก,Ban Kut Chik,47081109,47081109,17.646705842232528,103.79463717341423
