id,name.th,name.en,name.slug,code.dopa,geo.lat,geo.lon
34111601,บ้านสงยาง,Ban Song Yang,34111601,34111601,15.508839,105.007412
34111602,บ้านนางิ้ว,Ban Na Ngio,34111602,34111602,15.535349832089217,105.02305001020432
34111603,บ้านแดง,Ban Daeng,34111603,34111603,15.515216,105.016803
34111604,บ้านสะพือ,Ban Saphue,34111604,34111604,15.525347383118204,105.04386931657791
34111605,บ้านสะพือ,Ban Saphue,34111605,34111605,15.525347383118204,105.04386931657791
34111606,บ้านสะพือ,Ban Saphue,34111606,34111606,15.527482037680292,105.04476919770241
34111607,บ้านสะพือ,Ban Saphue,34111607,34111607,15.525347383118204,105.04386931657791
34111608,บ้านดงแสนตอ,Ban Dong Saen To,34111608,34111608,15.524795625591295,105.048298984766
