id,name.th,name.en,name.slug,code.dopa,geo.lat,geo.lon
30012501,บ้านหนองไข่น้ำพัฒนา,Ban Nong Khai Nam Phatthana,30012501,30012501,15.112924119356153,102.15663760900497
30012502,บ้านบึงรี,Ban Bueng Ri,30012502,30012502,15.114792393328809,102.16881081461906
30012503,บ้านคอหนองบัว,Ban Kho Nong Bua,30012503,30012503,15.11249686104256,102.18718126416206
30012504,บ้านสนวน,Ban Sanuan,30012504,30012504,15.131243628216271,102.1718242764473
30012505,บ้านโกรกพัฒนา,Ban Krok Phatthana,30012505,30012505,15.104629975441538,102.14676037430763
30012506,บ้านโกรก,Ban Krok,30012506,30012506,15.107115922090339,102.1453857421875
30012507,บ้านหนองไข่น้ำ,Ban Nong Khai Nam,30012507,30012507,15.113013455076596,102.16174855828285
30012508,บ้านกระโดน,Ban Kradon,30012508,30012508,15.1127855417904,102.17672735452652
