id,name.th,name.en,name.slug,code.dopa,geo.lat,geo.lon
15070401,บ้านดงตาล,Ban Dong Tan,15070401,15070401,14.57898496184761,100.28332516551018
15070402,บ้านเชียง,Ban Chiang,15070402,15070402,14.573934685439703,100.2664889395237
15070403,บ้านโพธิ์ม่วงพันธ์,Ban Pho Muang Phan,15070403,15070403,14.570526235071517,100.25391474366188
15070404,บ้านท่าชุมนุม,Ban Tha Chumnum,15070404,15070404,14.561270196335636,100.23942142724991
15070405,บ้านห้วยอีเขียว,Ban Huai I Khiao,15070405,15070405,14.552883482258675,100.25334879755974
15070406,บ้านในไร่,Ban Nai Rai,15070406,15070406,14.539814059368197,100.24337768554688
15070407,บ้านดอนกลุ่ม,Ban Don Klum,15070407,15070407,14.560475802170641,100.26186749339104
