id,name.local,name.en,name.slug,code.id,zip_codes,geo.lat,geo.lon
960704,เชิงคีรี,Choeng Khiri,choeng-khiri-960704,960704,96210,6.27,101.57
960705,กาหลง,Kalong,kalong-960705,960705,96210,6.213,101.414
960701,ซากอ,Sako,sako-960701,960701,96210,6.23,101.522
960706,ศรีบรรพต,Si Banphot,si-banphot-960706,960706,96210,6.152,101.574
960703,ศรีสาคร,Si Sakhon,si-sakhon-960703,960703,96210,6.152,101.492
960702,ตะมะยูง,Tamayung,tamayung-960702,960702,96210,6.282,101.515
