id,name.th,name.en,name.slug,code.dopa,geo.lat,geo.lon
54012001,บ้านดอนดี,Ban Don Di,54012001,54012001,18.11015198674572,100.18853858113289
54012002,บ้านดอนแก้ว,Ban Don Kaeo,54012002,54012002,18.113826813415034,100.18050134181976
54012003,บ้านหัวฝาย,Ban Hua Fai,54012003,54012003,18.12673334592135,100.18830925226212
54012004,บ้านหนองบ่อ,Ban Nong Bo,54012004,54012004,18.1323157700747,100.18423900008202
54012005,บ้านกวาว,Ban Kwao,54012005,54012005,18.12593165440538,100.17613604664803
54012006,บ้านทุ่งอ่วน,Ban Thung Uan,54012006,54012006,18.11905403547231,100.18241509795189
54012007,บ้านดอนดี,Ban Don Di,54012007,54012007,18.111900821261024,100.18568739295006
54012008,บ้านหัวฝาย,Ban Hua Fai,54012008,54012008,18.127732587439308,100.18724709749222
54012009,บ้านกาญจนา,Ban Kanchana,54012009,54012009,18.119075703710113,100.18242314457893
