id,name.th,name.en,name.slug,code.dopa,geo.lat,geo.lon
73010401,บ้านธรรมศาลา,Ban Thammasala,73010401,73010401,13.80677864168575,100.11426955461502
73010402,บ้านสระอ้อ,Ban Sa O,73010402,73010402,13.800861969202632,100.11547923088074
73010403,บ้านท่าหน่อไม้,Ban Tha No Mai,73010403,73010403,13.824542082833247,100.10142043232918
73010404,บ้านเกาะกลาง,Ban Ko Klang,73010404,73010404,13.817281895722445,100.10145798325539
73010405,บ้านสวนใหม่,Ban Suan Mai,73010405,73010405,13.804832915639446,100.10922700166702
73010406,บ้านต้นสำโรง,Ban Ton Samrong,73010406,73010406,13.824565523429536,100.09641006588936
73010407,บ้านสามง่าม,Ban Sam Ngam,73010407,73010407,13.811382420105144,100.11481538414955
