id,name.th,name.en,name.slug,code.dopa,geo.lat,geo.lon
13070701,บ้านเกวียน,Ban Kwian,13070701,13070701,14.068499090090352,100.54537698626518
13070702,บ้านศาลาพัน,Ban Sala Phan,13070702,13070702,14.088259891013362,100.58531641960144
13070703,บ้านถั่ว,Ban Thua,13070703,13070703,14.056404496746532,100.55069178342819
13070704,บ้านลำผักชี,Ban Lam Phak Chi,13070704,13070704,14.063169326059477,100.56473314762115
13070705,บ้านหนองจอก,Ban Nong Chok,13070705,13070705,14.076300329292943,100.56314527988434
13070706,บ้านสวนมะม่วงใต้,Ban Suan Mamuang Tai,13070706,13070706,14.08440828848023,100.57208776473999
