id,name.th,name.en,name.slug,code.dopa,geo.lat,geo.lon
48110301,บ้านดอนเตย,Ban Don Toei,48110301,48110301,17.764969847406068,104.10615429282188
48110302,บ้านดอนเตยเหนือ,Ban Don Toei Nuea,48110302,48110302,17.767954534745083,104.10458654165268
48110303,บ้านดอนแฮด,Ban Don Haet,48110303,48110303,17.76769783060349,104.10455703735352
48110304,บ้านหมูม้น,Ban Mu Mon,48110304,48110304,17.782265526746215,104.0909032523632
48110305,บ้านหมูม้นเหนือ,Ban Mu Mon Nuea,48110305,48110305,17.780000057871796,104.08741235733032
48110306,บ้านโนนอุดมดี,Ban Non Udom Di,48110306,48110306,17.849150301321725,104.10508275032043
48110307,บ้านดอนหลวง,Ban Don Luang,48110307,48110307,17.778324562976564,104.08818885684013
48110308,บ้านโคกสี,Ban Khok Si,48110308,48110308,17.79180853085694,104.10977259278297
48110309,บ้านหมูม่น,Ban Mu Mon,48110309,48110309,17.77872939054541,104.08945620059967
