id,name.th,name.en,name.slug,code.dopa,geo.lat,geo.lon
21010601,บ้านเขายายชุม,Ban Khao Yai Chum,21010601,21010601,14.076664562735672,101.00512638688087
21010602,บ้านวังปลา,Ban Wang Pla,21010602,21010602,13.72706875088845,100.5340875685215
21010603,บ้านท่าเรือ,Ban Tha Ruea,21010603,21010603,12.645838293755872,101.5073861181736
21010604,บ้านหัวทุ่ง,Ban Hua Thung,21010604,21010604,12.643635957754299,101.48301288485527
21010605,บ้านเขาโบสถ์,Ban Khao Bot,21010605,21010605,14.00305681949741,100.5340875685215
21010606,บ้านเนินพยอม,Ban Noen Phayom,21010606,21010606,12.637017058267572,101.49636089801788
21010607,บ้านมาบจันทร์,Ban Map Chan,21010607,21010607,12.676688628286946,101.44168138504028
