id,name.th,name.en,name.slug,code.dopa,geo.lat,geo.lon
30190401,บ้านหนองสรวง,Ban Nong Suang,30190401,30190401,15.092034065083187,101.89998373389244
30190402,บ้านดอนตานาด,Ban Don Ta Nat,30190402,30190402,15.094902134613552,101.8921610713005
30190403,บ้านหนองตะครอง,Ban Nong Takhrong,30190403,30190403,15.100337764658255,101.93240493535995
30190404,บ้านหนองกก,Ban Nong Kok,30190404,30190404,15.091380165707053,101.92010834813118
30190405,บ้านหนองสรวงพัฒนา,Ban Nong Suang Phatthana,30190405,30190405,15.087552548005862,101.89674362540245
30190406,บ้านหนองสรวงสามัคคี,Ban Nong Suang Samakkhi,30190406,30190406,15.088759368606421,101.90374284982681
30190407,บ้านหนองสรวงรุ่งเรือง,Ban Nong Suang Rung Rueang,30190407,30190407,15.0919369514417,101.90356984734535
30190408,บ้านโคกพัฒนา,Ban Khok Phatthana,30190408,30190408,15.089887195826652,101.93131595849991
30190409,บ้านหนองสรวงสันติสุข,Ban Nong Suang Santi Suk,30190409,30190409,15.088508164024734,101.89858093857765
