id,name.th,name.en,name.slug,code.dopa,geo.lat,geo.lon
84171301,บ้านหัวเกาะ,Ban Hua Ko,84171301,84171301,9.149619735933394,99.1549600660801
84171302,บ้านหัวเตยบน,Ban Hua Toei Bon,84171302,84171302,9.140594958584067,99.19079437851906
84171303,บ้านหัวสวน,Ban Hua Suan,84171303,84171303,9.133021171958957,99.16368260979652
84171304,บ้านดอนรัก,Ban Don Rak,84171304,84171304,9.126103992636908,99.16586056351662
84171305,บ้านตรอกโนง,Ban Trok Nong,84171305,84171305,9.137798502273832,99.17332783341408
84171306,บ้านหัวเตยล่าง,Ban Hua Toei Lang,84171306,84171306,9.14023481013963,99.19156685471535
84171307,บ้านดอนรี,Ban Don Ri,84171307,84171307,9.14320072765287,99.16961565613747
