id,name.th,name.en,name.slug,code.dopa,children_count.villages,zip_codes,geo.lat,geo.lon
331205,จานแสนไชย,Chan Saen Chai,chan-saen-chai,331205,13,33210,14.981,104.019
331201,ห้วยทับทัน,Huai Thap Than,huai-thap-than,331201,8,33210,15.065,104.044
331203,กล้วยกว้าง,Kluai Kwang,kluai-kwang,331203,13,33210,14.966,104.069
331202,เมืองหลวง,Mueang Luang,mueang-luang,331202,14,33210,15.021,104.047
331204,ผักไหม,Phak Mai,phak-mai,331204,17,33210,14.947,104.013
331206,ปราสาท,Prasat,prasat,331206,16,33210,15.110,104.027
