id,name.local,name.en,name.slug,code.id,zip_codes,geo.lat,geo.lon
102009,อรุณอมรินทร์,Arun Ammarin,arun-ammarin-102009,102009,10700,13.772,100.477
102005,บ้านช่างหล่อ,Ban Chang Lo,ban-chang-lo-102005,102005,10700,13.752,100.477
102006,บางขุนนนท์,Bang Khun Non,bang-khun-non-102006,102006,10700,13.774,100.466
102007,บางขุนศรี,Bang Khun Si,bang-khun-si-102007,102007,10700,13.76,100.463
102004,ศิริราช,Siri Rat,siri-rat-102004,102004,10700,13.759,100.481
