id,name.th,name.en,name.slug,code.dopa,geo.lat,geo.lon
14030501,บ้านเกาะปากจั่น,Ban Ko Pak Chan,14030501,14030501,14.4334678,100.6006667
14030502,บ้านปากจั่น,Ban Pak Chan,14030502,14030502,14.4418084,100.6018372
14030503,บ้านสกัดน้ำมันใต้,Ban Sakat Nam Man Tai,14030503,14030503,14.4474263,100.6103471
14030504,บ้านท้องคุ้ง,Ban Thong Khung,14030504,14030504,14.4328694,100.6028681
14030505,บ้านดาบทอง,Ban Dap Thong,14030505,14030505,14.4458269,100.5975600
14030506,บ้านสกัดน้ำมันเหนือ,Ban Sakat Nam Man Nuea,14030506,14030506,14.4550239,100.6047872
