id,name.th,name.en,name.slug,code.dopa,geo.lat,geo.lon
76070901,บ้านดอนเทพศักดิ์,Ban Don Thep Sak,76070901,76070901,13.175007329974173,99.98641669750214
76070902,บ้านคลองแหลม,Ban Khlong Laem,76070902,76070902,13.158970219571547,99.97113212943077
76070903,บ้านคลองมอญ,Ban Khlong Mon,76070903,76070903,13.158735159254883,99.97085183858871
76070904,บ้านป่าขวาง,Ban Pa Khwang,76070904,76070904,13.148623434572782,99.95919898152351
76070905,บ้านนาโพธิ์,Ban Na Pho,76070905,76070905,13.136769084209583,99.95174646377563
76070906,บ้านวัดกุฏิ,Ban Wat Kudi,76070906,76070906,13.154092671808648,99.94894489645958
76070907,บ้านในพัฒนา,Ban Nai Phatthana,76070907,76070907,13.15080957698477,99.9555766582489
