id,name.th,name.en,name.slug,code.dopa,geo.lat,geo.lon
25010901,บ้านปากเหมือง,Ban Pak Mueang,25010901,25010901,14.125335230978013,101.29348799586296
25010902,บ้านล่าง,Ban Lang,25010902,25010902,14.134847292501332,101.2885782122612
25010903,บ้านเหนือ,Ban Nuea,25010903,25010903,14.136113976738606,101.29741206765175
25010904,บ้านแหลมยาว,Ban Laem Yao,25010904,25010904,14.146901314852684,101.2950611114502
25010905,บ้านโคกไม้ลาย,Ban Khok Mai Lai,25010905,25010905,14.1389438330867,101.30832329392433
25010906,บ้านดอนยาว,Ban Don Yao,25010906,25010906,14.150835087169835,101.32741659879684
25010907,บ้านหนองเข้,Ban Nong Khe,25010907,25010907,14.15483251033933,101.30400225520134
