id,name.th,name.en,name.slug,code.dopa,geo.lat,geo.lon
70080301,บ้านดอนทราย,Ban Don Sai,70080301,70080301,13.362661396583857,99.78209272027016
70080302,บ้านไพรสะเดา,Ban Phrai Sadao,70080302,70080302,13.362024655110243,99.76738080382347
70080303,บ้านหนองบัวหิ่ง,Ban Nong Bua Hing,70080303,70080303,13.349560885291327,99.79740276932716
70080304,บ้านหนองจอก,Ban Nong Chok,70080304,70080304,13.353605939766446,99.81868878006935
70080305,บ้านเขาถ่าน,Ban Khao Than,70080305,70080305,13.373849765964255,99.72759157419205
70080306,บ้านเขาอีส้าน,Ban Khao Isan,70080306,70080306,13.382639610911411,99.77436259388924
70080307,บ้านรางโบสถ์,Ban Rang Bot,70080307,70080307,13.37841238396412,99.79555740952492
70080308,บ้านหนองระกำ,Ban Nong Rakam,70080308,70080308,13.387705661999396,99.81330692768097
70080309,บ้านเขาถ้ำ,Ban Khao Tham,70080309,70080309,13.370739255673763,99.79891687631607
