id,name.th,name.en,name.slug,code.dopa,geo.lat,geo.lon
67110401,บ้านจะวะสิต,Ban Chawasit,67110401,67110401,13.72706875088845,100.5340875685215
67110402,บ้านธนิตคำเที่ยง,Ban Thanit Kham Thiang,67110402,67110402,13.380625163866247,100.28826847672462
67110403,บ้านริมสีม่วง,Ban Rim Si Muang,67110403,67110403,13.732071444540994,100.55674687027931
67110404,บ้านเพชรช่วย,Ban Phet Chuai,67110404,67110404,16.559712035601827,101.01059272885323
67110405,บ้านกรเพชร,Ban Kon Phet,67110405,67110405,16.584792684507825,101.0255728662014
67110406,บ้านชื่นจิตร,Ban Chuen Chit,67110406,67110406,16.589819475508126,101.0253569483757
