id,name.th,name.en,name.slug,code.dopa,geo.lat,geo.lon
47122001,บ้านธาตุ,Ban That,47122001,47122001,17.484434695634526,103.55832114815712
47122002,บ้านหินโงม,Ban Hin Ngom,47122002,47122002,17.52474115752492,103.56770887970924
47122003,บ้านโนนสร้างไพ,Ban Non Sang Phai,47122003,47122003,17.515842632592417,103.56419384479523
47122004,บ้านหนองหอย,Ban Nong Hoi,47122004,47122004,17.466767585553498,103.56599494814873
47122005,บ้านคันชา,Ban Khancha,47122005,47122005,17.45175092118907,103.57476443052292
47122006,บ้านโคกหลวง,Ban Khok Luang,47122006,47122006,17.492990685978263,103.59474152326584
47122007,บ้านเดิด,Ban Doet,47122007,47122007,17.437943402203867,103.60071614384651
47122008,บ้านเดื่อ,Ban Duea,47122008,47122008,17.436885277330596,103.59345808625221
