id,name.th,name.en,name.slug,code.dopa,geo.lat,geo.lon
64050801,บ้านวังวน,Ban Wang Won,64050801,64050801,17.386497617692118,99.794040620327
64050802,บ้านวงใหญ่,Ban Wong Yai,64050802,64050802,17.395091477525035,99.79560166597366
64050803,บ้านเมืองเก่า,Ban Mueang Kao,64050803,64050803,17.401485098461176,99.79828253388405
64050804,บ้านเมืองเก่า,Ban Mueang Kao,64050804,64050804,17.403007965594384,99.80122223496437
64050805,บ้านหนองช้าง,Ban Nong Chang,64050805,64050805,17.417706180391733,99.79838043451309
64050806,บ้านพระปรางค์,Ban Phra Prang,64050806,64050806,17.42947951090994,99.81185987591743
