id,name.th,name.en,name.slug,code.dopa,geo.lat,geo.lon
70071501,บ้านโคกทอง,Ban Khok Thong,70071501,70071501,13.71730667713281,99.80482712388039
70071502,บ้านเตาปูน,Ban Tao Pun,70071502,70071502,13.721497917499981,99.78826180100441
70071503,บ้านดอนมะขามเฒ่า,Ban Don Makham Thao,70071503,70071503,13.729550569281795,99.78675439953804
70071504,บ้านหนองสระ,Ban Nong Sa,70071504,70071504,13.730125096725232,99.76733788847923
70071505,บ้านหนองขนาน,Ban Nong Khanan,70071505,70071505,13.755597003404494,99.75883930921555
70071506,บ้านเขาราบ,Ban Khao Rap,70071506,70071506,13.75879496295929,99.73701283335686
70071507,บ้านเขาพระ,Ban Khao Phra,70071507,70071507,13.74221199394868,99.74703893065453
70071508,บ้านหนองต่อยอด,Ban Nong To Yot,70071508,70071508,13.765620604148568,99.70409542322159
70071509,บ้านหนองกลางเนิน,Ban Nong Klang Noen,70071509,70071509,13.75306335472969,99.71331283450127
