id,name.th,name.en,name.slug,code.dopa,geo.lat,geo.lon
60050601,บ้านวัดโบสถ์สามัคคีธรรม,Ban Wat Bot Samakkhi Tham,60050601,60050601,16.032972163649923,99.8737558722496
60050602,บ้านบางแก้ว,Ban Bang Kaeo,60050602,60050602,16.006561335076626,99.86612096428871
60050603,บ้านปากคลอง,Ban Pak Khlong,60050603,60050603,15.994019,99.866716
60050604,บ้านวังพระหิน,Ban Wang Phra Hin,60050604,60050604,16.00064552144585,99.86289829015732
60050605,บ้านหัวยาง,Ban Hua Yang,60050605,60050605,15.978686,99.881546
60050606,บ้านกระทุ่มโทน,Ban Krathum Thon,60050606,60050606,15.960062885228826,99.83680307865143
60050607,บ้านมิตรภาพ,Ban Mittraphap,60050607,60050607,15.9575873,99.8391753
60050608,บ้านแผ่นดินธรรมแผ่นดินทอง,Ban Phaen Din Tham Phaen Din Thong,60050608,60050608,15.9575873,99.8391753
