id,name.th,name.en,name.slug,code.dopa,geo.lat,geo.lon
41210101,บ้านหนองแสง,Ban Nong Saeng,41210101,41210101,17.143536707353597,102.85200297832489
41210102,บ้านโคกสว่าง,Ban Khok Sawang,41210102,41210102,17.186365232791633,102.84263268113136
41210103,บ้านโนนดินแดง,Ban Non Din Daeng,41210103,41210103,17.139239726766256,102.84796893596649
41210104,บ้านคำบอน,Ban Kham Bon,41210104,41210104,17.13627932741324,102.86772340536118
41210105,บ้านโคกสว่าง,Ban Khok Sawang,41210105,41210105,17.189183900746787,102.84157052636147
41210106,บ้านแสงทอง,Ban Saeng Thong,41210106,41210106,17.1455115165683,102.84985855221748
41210107,บ้านดงสำราญชัย,Ban Dong Samran Chai,41210107,41210107,17.15827102025363,102.82986402511597
41210108,บ้านโกปลาซิว,Ban Ko Pla Sio,41210108,41210108,17.135462966568035,102.85925298929214
