id,name.th,name.en,name.slug,code.dopa,geo.lat,geo.lon
90090401,บ้านควนรู,Ban Khuan Ru,90090401,90090401,7.1431428728003175,100.29460117220879
90090402,บ้านควนศาลาดงจันทร์,Ban Khuan Sala Dong Chanot,90090402,90090402,7.168112693812281,100.29836431145668
90090403,บ้านโหล๊ะยาว,Ban Lo Yao,90090403,90090403,7.179698279464653,100.30963495373726
90090404,บ้านไทรใหญ่,Ban Sai Yai,90090404,90090404,7.194092363047767,100.32185912132263
90090405,บ้านไทรใหญ่,Ban Sai Yai,90090405,90090405,7.199536927980778,100.32565042376518
90090406,บ้านหนองโอน,Ban Nong On,90090406,90090406,7.214550389509311,100.32106652855873
90090407,บ้านสี่แยกคูหา,Ban Si Yaek Khuha,90090407,90090407,7.1475647530263196,100.29072001576424
90090408,บ้านโคกค่าย,Ban Khok Khai,90090408,90090408,7.179193985964649,100.30979856848717
90090409,บ้านไสท้อน,Ban Sai Thon,90090409,90090409,7.22806261131666,100.31764939427376
