id,name.th,name.en,name.slug,code.dopa,geo.lat,geo.lon
94120201,บ้านปลักปรือ,Ban Plak Prue,94120201,94120201,6.659155483829856,101.26135379076004
94120202,บ้านคูระ,Ban Khura,94120202,94120202,6.682323400893516,101.27795666456223
94120203,บ้านตันหยง,Ban Tanyong,94120203,94120203,6.690018268768077,101.28485798835754
94120204,บ้านม่วงเตี้ย,Ban Muang Tia,94120204,94120204,6.684156220987954,101.2541614472866
94120205,บ้านทำนบ,Ban Thamnop,94120205,94120205,6.682934785685708,101.2656332552433
94120206,บ้านลองแตยอ,Ban Long Taeyo,94120206,94120206,6.705317069427384,101.25645339488983
