id,name.th,name.en,name.slug,code.dopa,geo.lat,geo.lon
48031401,บ้านหนองเทา,Ban Nong Thao,48031401,48031401,17.755286192781984,104.383714646101
48031402,บ้านแก้ง,Ban Kaeng,48031402,48031402,17.769397690471777,104.38188135623932
48031403,บ้านท่าหนามแก้ว,Ban Tha Nam Kaeo,48031403,48031403,17.806587495927786,104.35864269733429
48031404,บ้านเหล่าสวนกล้วย,Ban Lao Suan Kluai,48031404,48031404,17.81474770793727,104.35100644826889
48031405,บ้านหาดทรายเพ,Ban Hat Sai Phe,48031405,48031405,17.787786050146483,104.36846226453781
48031406,บ้านตาลท่า,Ban Tan Tha,48031406,48031406,17.75626582134764,104.38410088419914
48031407,บ้านหนองเทา,Ban Nong Thao,48031407,48031407,17.75820718153689,104.38228234648705
48031408,บ้านน้อยลวงมอง,Ban Noi Luang Mong,48031408,48031408,17.829961400936508,104.31173890829086
