id,name.th,name.en,name.slug,code.dopa,geo.lat,geo.lon
84171401,บ้านหนองไทร,Ban Nong Sai,84171401,84171401,9.087712800828816,99.18176472187042
84171402,บ้านนาทราย,Ban Na Sai,84171402,84171402,9.088251778542523,99.16976183652878
84171403,บ้านหนองขรี,Ban Nong Khri,84171403,84171403,9.117673,99.159176
84171404,บ้านปากมะรุ,Ban Pak Maru,84171404,84171404,9.071718,99.159254
84171405,บ้านท่าโพธิ์,Ban Tha Pho,84171405,84171405,9.075464,99.136885
