id,name.th,name.en,name.slug,code.dopa,geo.lat,geo.lon
43080201,บ้านผาตั้ง,Ban Pha Tang,43080201,43080201,16.31950364107648,102.01003208756447
43080202,บ้านปากโสม,Ban Pak Som,43080202,43080202,18.052271276771556,102.28918855520744
43080203,บ้านลำภูพาน,Ban Lam Phu Phan,43080203,43080203,18.052430662645374,102.2884252667427
43080204,บ้านนาโคก,Ban Na Khok,43080204,43080204,13.72706875088845,100.5340875685215
43080205,บ้านห้วยไซงัว,Ban Huai Sai Ngua,43080205,43080205,18.002083,102.309951358
43080206,บ้านดงต้อง,Ban Dong Tong,43080206,43080206,17.97554146567672,102.28681057691574
43080207,บ้านไทยพัฒนา,Ban Thai Phatthana,43080207,43080207,18.013358,102.333753356
