id,name.th,name.en,name.slug,code.dopa,geo.lat,geo.lon
42060101,บ้านนาแห้ว,Ban Na Haeo,42060101,42060101,13.72706875088845,100.5340875685215
42060102,บ้านนาโพธิ์,Ban Na Pho,42060102,42060102,17.499057277437906,101.07577309012413
42060103,บ้านเหมืองแพร่,Ban Mueang Phrae,42060103,42060103,17.502893080122213,101.0803784430027
42060104,บ้านโป่งกูด,Ban Pong Kut,42060104,42060104,17.496985219632343,101.03314742445946
42060105,บ้านนาแห้วใหม่,Ban Na Haeo Mai,42060105,42060105,13.72706875088845,100.5340875685215
42060106,บ้านบุ่ง,Ban Bung,42060106,42060106,17.499158321628016,101.07524201273918
42060107,บ้านห้วยนาสี,Ban Huai Na Si,42060107,42060107,13.70739045428295,100.51829472184181
