id,name.th,name.en,name.slug,code.dopa,geo.lat,geo.lon
72091101,บ้านไผ่ลูกนก,Ban Phai Luk Nok,72091101,72091101,14354520056928536,999765874256706
72091102,บ้านวัดนก,Ban Wat Nok,72091102,72091102,14.372437107469864,99.96286287903786
72091103,บ้านตาลลูกอ่อน,Ban Tan Luk On,72091103,72091103,14.35457203634552,99.97645497322083
72091104,บ้านโคกยายเกตุ,Ban Khok Yai Ket,72091104,72091104,14.3782227345,99.967331667
72091105,บ้านปากแสก,Ban Pak Saek,72091105,72091105,14.402096910069197,99.95432406663895
72091106,บ้านเกาะกลาง,Ban Ko Klang,72091106,72091106,14.408818921805343,99.93487536907196
72091107,บ้านโคกยายเกตุ,Ban Khok Yai Ket,72091107,72091107,14.37830001121889,99.96730327606201
72091108,บ้านใหม่พานิช,Ban Mai Phanit,72091108,72091108,14.367940768018213,99.96576234698296
