id,name.th,name.en,name.slug,code.dopa,geo.lat,geo.lon
83030401,บ้านผักฉีด,Ban Phak Chit,83030401,83030401,7.99756844990465,98.39093014597893
83030402,บ้านป่าคลอก,Ban Pa Khlok,83030402,83030402,8.023409039105534,98.4016965329647
83030403,บ้านบางโรง,Ban Bang Rong,83030403,83030403,8.050850748199839,98.41046199202538
83030404,บ้านพารา,Ban Pha Ra,83030404,83030404,8.077618732687629,98.38458269834518
83030405,บ้านเกาะนาคา,Ban Ko Na Kha,83030405,83030405,8.051211933247616,98.4637601673603
83030406,บ้านอ่าวปอ,Ban Ao Po,83030406,83030406,8.066810305001532,98.43096747994423
83030407,บ้านยามู,Ban Yamu,83030407,83030407,7.992294686016585,98.40827599167824
83030408,บ้านบางลา,Ban Bang La,83030408,83030408,7.9911153509959325,98.37623432278633
83030409,บ้านอ่าวกุ้ง,Ban Ao Kung,83030409,83030409,8.076004125993483,98.403100669384
