id,name.th,name.en,name.slug,code.dopa,geo.lat,geo.lon
76010401,บ้านนาขลู่,Ban Na Khlu,76010401,76010401,13.062997290203562,100.01798629760742
76010402,บ้านนาขลู่,Ban Na Khlu,76010402,76010402,13.060522956979405,100.01636490225792
76010403,บ้านฝั่งท่า,Ban Fang Tha,76010403,76010403,13.04983627011263,100.03278002142906
76010404,บ้านนาหัวเรือ,Ban Hua Ruea,76010404,76010404,13.062474729813601,100.04068315029144
76010405,บ้านดอนมะขามช้าง,Ban Don Makham Chang,76010405,76010405,13.051061735171054,100.05212679505348
76010406,บ้านนาพันสาม,Ban Na Phan Sam,76010406,76010406,13.063911768225067,100.00801786780357
76010407,บ้านคลองใหญ่,Ban Khlong Yai,76010407,76010407,13.053303615011108,100.03052562475204
76010408,บ้านดอนหัวกรวด,Ban Don Hua Kruat,76010408,76010408,13.051290366039302,100.01636892557144
76010409,บ้านดอนแตง,Ban Don Taeng,76010409,76010409,13.037847818253264,100.04822954535484
