id,name.th,name.en,name.slug,code.dopa,geo.lat,geo.lon
74020701,บ้านปากคลองโรงปูน,Ban Pak Khlong Rong Pun,74020701,74020701,13.66972036880636,100.20220041275024
74020702,บ้านขุมทอง,Ban Khum Thong,74020702,74020702,13.654962111437825,100.2066233754158
74020703,บ้านหนองนกไข่,Ban Nong Nok Khai,74020703,74020703,13.72706875088845,100.5340875685215
74020704,บ้านหนองนกไข่,Ban Nong Nok Khai,74020704,74020704,13.72706875088845,100.5340875685215
74020705,บ้านหนองนกไข่,Ban Nong Nok Khai,74020705,74020705,13.665774498758983,100.1968252658844
74020706,บ้านคลองนางนม,Ban Khlong Mang Mon,74020706,74020706,13.669686487772838,100.17554193735123
74020707,บ้านแนวนิยม,Ban Naeo Niyom,74020707,74020707,13.673560622064038,100.19602864980698
74020708,บ้านวังนกไข่,Ban Wang Nok Khai,74020708,74020708,13.674789437758628,100.18117994070053
