id,name.local,name.en,name.slug,code.id,zip_codes,geo.lat,geo.lon
311501,จันดุม,Chan Dum,chan-dum-311501,311501,31250,14.678,103.118
311502,โคกขมิ้น,Khok Khamin,khok-khamin-311502,311502,31250,14.769,103.193
311503,ป่าชัน,Pa Chan,pa-chan-311503,311503,31250,14.717,103.241
311504,สะเดา,Sadao,sadao-311504,311504,31250,14.722,103.168
311505,สำโรง,Samrong,samrong-311505,311505,31250,14.776,103.111
