id,name.th,name.en,name.slug,code.dopa,geo.lat,geo.lon
14040301,บ้านสนามชัย,Ban Sanam Chai,14040301,14040301,14.202654384788092,100.52959084510803
14040302,บ้านใน,Ban Nai,14040302,14040302,14.206537786875478,100.51980748772621
14040303,บ้านไผ่โขด,Ban Phai Chok,14040303,14040303,14.206078854646844,100.51660493016243
14040304,บ้านกลาง,Ban Klang,14040304,14040304,14.205831836914733,100.51471397280693
14040305,บ้านใต้,Ban Tai,14040305,14040305,14.206073654276306,100.51410913467407
14040306,บ้านเกาะ,Ban Ko,14040306,14040306,14.205046578754631,100.50764501094818
14040307,บ้านปากกรวน,Ban Pak Kruan,14040307,14040307,14.218225293936836,100.50091803073883
14040308,บ้านพาด,Ban Phat,14040308,14040308,14.218194093387106,100.49359560012817
