id,name.th,name.en,name.slug,code.dopa,geo.lat,geo.lon
34020301,บ้านเอือดใหญ่,Ban Ueat Yai,34020301,34020301,15.531706055945323,105.21423518657684
34020302,บ้านเอือดน้อย,Ban Ueat Noi,34020302,34020302,15.525185861746731,105.21490976214409
34020303,บ้านบก,Ban Bok,34020303,34020303,15.525185861746731,105.21490976214409
34020304,บ้านโพนงาม,Ban Phon Ngam,34020304,34020304,15.540722346205177,105.22143289446831
34020305,บ้านปอขี้ตุ่น,Ban Po Khi Tun,34020305,34020305,15.524802086460804,105.21563395857811
34020306,บ้านงิ้ว,Ban Ngio,34020306,34020306,15.545297529764131,105.20219475030899
34020307,บ้านกุดก่วย,Ban Kut Kuai,34020307,34020307,15.523540920896256,105.23299589753151
34020308,บ้านโนนเจริญ,Ban Non Charoen,34020308,34020308,15.503083377132864,105.23081257939339
