id,name.th,name.en,name.slug,code.dopa,geo.lat,geo.lon
22060701,บ้านแหลมสิงห์,Ban Laem Sing,22060701,22060701,12.483018604357474,102.05648392438889
22060702,บ้านแหลมประดู่,Ban Laem Pradu,22060702,22060702,12.510326028762545,102.05532252788544
22060703,บ้านคลองปลาดุก,Ban Khlong Pla Duk,22060703,22060703,12.515310343527286,102.0291642844677
22060704,บ้านบางกะไชย,Ban Bang Kachai,22060704,22060704,12.530350424004432,102.01055377721786
22060705,บ้านบางกะไชย,Ban Bang Kachai,22060705,22060705,12.528759788442725,102.01170846819878
22060706,บ้านบางกะไชย,Ban Bang Kachai,22060706,22060706,12.533447880398159,102.00318306684494
22060707,บ้านเรือแตก,Ban Ruea Taek,22060707,22060707,12.536799270577417,101.99605777859688
22060708,บ้านหัวเขา,Ban Hua Khao,22060708,22060708,12.547366337267176,102.00698643922806
22060709,บ้านอ่าวหมู,Ban Ao Mu,22060709,22060709,12.491948564724257,102.04270541667938
