id,name.th,name.en,name.slug,code.dopa,geo.lat,geo.lon
47110501,บ้านท่าก้อน,Ban Tha Kon,47110501,47110501,17.769553499508365,103.96326497197151
47110502,บ้านท่าควาย,Ban Tha Khwai,47110502,47110502,17.78830067733652,103.93497705459595
47110503,บ้านนาหวาย,Ban Na Wai,47110503,47110503,17.75353638656192,103.96924093365669
47110504,บ้านดอนแดง,Ban Don Daeng,47110504,47110504,17.81391395594479,103.91988962888718
47110505,บ้านดอนปอ,Ban Don Po,47110505,47110505,17.773391212011273,103.94969835877419
47110506,บ้านโพนก่อ,Ban Phon Ko,47110506,47110506,17.749373822568987,103.9365716278553
47110507,บ้านท่าควาย,Ban Tha Khwai,47110507,47110507,17.790364279161814,103.93451035022736
47110508,บ้านท่าก้อน,Ban Tha Kon,47110508,47110508,17.775319615476224,103.96139547228813
