id,name.th,name.en,name.slug,code.dopa,geo.lat,geo.lon
55140201,บ้านน้ำลัด,Ban Nam Lat,55140201,55140201,18.712643301546937,100.76389789581299
55140202,บ้านนาปัง,Ban Na Pang,55140202,55140202,18.712767782381064,100.7758042216301
55140203,บ้านม่วงใหม่,Ban Muang Mai,55140203,55140203,18.70995296889106,100.78272968530655
55140204,บ้านก้อดแก้ว,Ban Kot Kaeo,55140204,55140204,18.701419326648292,100.80756291747093
55140205,บ้านสบแก่น,Ban Sop Kaen,55140205,55140205,18.711737637210256,100.7699878513813
55140206,บ้านม่วงใหม่พัฒนา,Ban Muang Mai Phatthana,55140206,55140206,18.707223215589504,100.7955975830555
