id,name.th,name.en,name.slug,code.dopa,geo.lat,geo.lon
92010501,บ้านทุ่งไทรงาม,Ban Thung Sai Ngam,92010501,92010501,7.528103751508223,99.63883325457573
92010502,บ้านหนองใหญ่,Ban Nong Yai,92010502,92010502,7.540187818885445,99.62990418076515
92010503,บ้านควน,Ban Khuan,92010503,92010503,7.546705018339232,99.63366329669952
92010504,บ้านหนองกก,Ban Nong Kok,92010504,92010504,7.514538190246185,99.64753299951553
92010505,บ้านควนนาแค,Ban Khuan Na Khae,92010505,92010505,7.547384386193153,99.63667139410973
92010506,บ้านเกาะมะม่วง,Ban Ko Mamuang,92010506,92010506,7.513576897989129,99.63048085570335
