id,name.local,name.en,name.slug,code.id,zip_codes,geo.lat,geo.lon
101503,บางยี่เรือ,Bang Yi Ruea,bang-yi-ruea-101503,101503,10600,13.72,100.482
101504,บุคคโล,Bukkhalo,bukkhalo-101504,101504,10600,13.707,100.486
101502,หิรัญรูจี,Hiran Ruchi,hiran-ruchi-101502,101502,10600,13.731,100.49
101505,ตลาดพลู,Talat Phlu,talat-phlu-101505,101505,10600,13.715,100.473
101501,วัดกัลยาณ์,Wat Kanlaya,wat-kanlaya-101501,101501,10600,13.737,100.493
