id,name.th,name.en,name.slug,code.dopa,geo.lat,geo.lon
80121401,บ้านชายทะเล,Ban Chai Thale,80121401,80121401,8.370220657153963,100.24017915129662
80121402,บ้านบางฉนาก,Ban Bang Chanak,80121402,80121402,8.379407445100215,100.2134482562542
80121403,บ้านบางวำ,Ban Bang Wam,80121403,80121403,8.367947809179382,100.23498505353928
80121404,บ้านโก้งโค้ง,Ban Kong Khong,80121404,80121404,8.401152890591684,100.19904881715775
80121405,บ้านบางวำ,Ban Bang Wam,80121405,80121405,8.348928607364332,100.22996932268143
80121406,บ้านเนินน้ำหัก,Ban Noen Nam Hak,80121406,80121406,8.417606444041244,100.22225126624107
80121407,บ้านเกาะไชย,Ban Ko Chai,80121407,80121407,8.36433218889713,100.19349128007889
