id,name.th,name.en,name.slug,code.dopa,geo.lat,geo.lon
73011201,บ้านปิ่นเกลียว,Ban Pin Kliao,73011201,73011201,13.841926543332987,100.03439605236053
73011202,บ้านวังตะกู,Ban Wang Taku,73011202,73011202,13.846171540065122,100.0298698246479
73011203,บ้านบ่อด่าน,Ban Bo Dan,73011203,73011203,13.859235486766929,100.01676455140114
73011204,บ้านคลองน้ำเค็ม,Ban Khlong Nam Khem,73011204,73011204,13.85770686196256,100.02473071217537
73011205,บ้านคลองน้ำเค็ม,Ban Khlong Nam Khem,73011205,73011205,13.857830558551697,100.02481251955032
73011206,บ้านกิโลห้า,Ban Kilo Ha,73011206,73011206,13.851877422742593,100.02068594098091
73011207,บ้านท่าขี้เหล็ก,Ban Tha Khilek,73011207,73011207,13.84739033462028,100.03157839179039
73011208,บ้านทุ่งรางเทียน,Ban Thung Rang Thian,73011208,73011208,13.865549095377009,100.00100925564766
