id,name.local,name.en,name.slug,code.id,zip_codes,geo.lat,geo.lon
850205,บางแก้ว,Bang Kaeo,bang-kaeo-850205,850205,85130,10.179,98.78
850204,บางพระเหนือ,Bang Phra Nuea,bang-phra-nuea-850204,850204,85130,10.022,98.731
850203,บางพระใต้,Bang Phra Tai,bang-phra-tai-850203,850203,85130,10.126,98.73
850202,ละอุ่นเหนือ,La-un Nuea,la-un-nuea-850202,850202,85130,10.027,98.806
850201,ละอุ่นใต้,La-un Tai,la-un-tai-850201,850201,85130,10.124,98.769
850206,ในวงเหนือ,Nai Wong Nuea,nai-wong-nuea-850206,850206,85130,10.02,98.842
850207,ในวงใต้,Nai Wong Tai,nai-wong-tai-850207,850207,85130,10.029,98.884
