id,name.th,name.en,name.slug,code.dopa,geo.lat,geo.lon
15050701,บ้านหนองจิก,Ban Nong Chik,15050701,15050701,14.727864641706336,100.35944357514381
15050702,บ้านจำลอง,Ban Chamlong,15050702,15050702,14.731288804325708,100.3707517683506
15050703,บ้านหัวสะแกออก,Ban Hua Sakae Ok,15050703,15050703,14.740938427648597,100.37485018372536
15050704,บ้านหัวสะแกตก,Ban Hua Sakae Tok,15050704,15050704,14.741114814633946,100.3701563179493
15050705,บ้านงิ้ว,Ban Ngio,15050705,15050705,14.7479471064224,100.36731451749802
15050706,บ้านหัวโพธิ์,Ban Hua Pho,15050706,15050706,14.749664224245409,100.36251872777939
