id,name.th,name.en,name.slug,code.dopa,geo.lat,geo.lon
46080701,บ้านคำเหมือดแก้ว,Ban Kham Mueat Kaeo,46080701,46080701,16.538100623140235,103.20614978671074
46080702,บ้านโนนศิลาอาสน์,Ban Non Sila At,46080702,46080702,16.53351603386704,103.21152627468109
46080703,บ้านคำเหมือดแก้ว,Ban Kham Mueat Kaeo,46080703,46080703,16.53617217765939,103.20529147982597
46080704,บ้านป่าหวาย,Ban Pa Wai,46080704,46080704,16.538270325419948,103.1846733391285
46080705,บ้านป่ากุง,Ban Pa Kung,46080705,46080705,16.53020930232783,103.22590157389641
46080706,บ้านคำมันปลา,Ban Kham Man Pla,46080706,46080706,16.50296775431547,103.17209914326668
46080707,บ้านคำมะโฮ,Ban Kham Ma Ho,46080707,46080707,16.49881053157209,103.19332480430603
46080708,บ้านหนองรัง,Ban Nong Rang,46080708,46080708,16.53634188163505,103.20537596940994
46080709,บ้านโนนศิลาอาสน์,Ban Non Sila At,46080709,46080709,16.534927677278045,103.2118333876133
