id,name.local,name.en,name.slug,code.id,zip_codes,geo.lat,geo.lon
481005,บ้านค้อ,Ban Kho,ban-kho-481005,481005,48190,17.473,104.264
481002,นาหัวบ่อ,Na Hua Bo,na-hua-bo-481002,481002,48190,17.482,104.368
481003,นาขมิ้น,Na Khamin,na-khamin-481003,481003,48190,17.523,104.513
481006,โพนจาน,Phon Chan,phon-chan-481006,481006,48190,17.409,104.424
481001,โพนสวรรค์,Phon Sawan,phon-sawan-481001,481001,48190,17.444,104.504
