id,name.th,name.en,name.slug,code.dopa,geo.lat,geo.lon
55051301,บ้านน้ำเปิน,Ban Nam Poen,55051301,55051301,19.1396569634619,100.93500271439552
55051302,บ้านห้วยสะนาว,Ban Huai Sanao,55051302,55051302,19.135159154417135,100.9343133866787
55051303,บ้านค้างฮ่อ,Ban Khang Ho,55051303,55051303,19.130990652990157,100.93907430768013
55051304,บ้านจูน,Ban Chun,55051304,55051304,19.14348317216074,100.92685282230377
55051305,บ้านตาหลวง,Ban Ta Luang,55051305,55051305,19.1445588022772,100.92174857854843
55051306,บ้านสวนทราย,Ban Suan Sai,55051306,55051306,19.137812243080347,100.94030275940895
55051307,บ้านป่ากลาง,Ban Pa Klang,55051307,55051307,19.13361086616942,100.93272686004639
