id,name.th,name.en,name.slug,code.dopa,geo.lat,geo.lon
14090401,บ้านหนองเป้า,Ban Nong Pao,14090401,14090401,14.450542816033156,100.74582114815712
14090402,บ้านหนองตาเสือ,Ban Nong Ta Suea,14090402,14090402,14.454665,100.753459
14090403,บ้านเหล่า,Ban Lao,14090403,14090403,14.467137,100.749193
14090404,บ้านโคกมะเกลือ,Ban Khok Makluea,14090404,14090404,14.466386104965022,100.76204851269722
14090405,บ้านโคกกลาง,Ban Khok Klang,14090405,14090405,14.466391299300712,100.76630249619484
14090406,บ้านหนองเครือบุญ,Ban Nong Khruea Bun,14090406,14090406,14.459597004386826,100.75995102524757
14090407,บ้านธรรมสินธุ์โสภา,Ban Tham Sin Sopha,14090407,14090407,14.440189525764138,100.76747998595238
14090408,บ้านหนองน้ำใส,Ban Nong Nam Sai,14090408,14090408,14.455993294603317,100.73715493083
