id,name.th,name.en,name.slug,code.dopa,geo.lat,geo.lon
25080201,บ้านสัมพันธ์,Ban Samphan,25080201,25080201,14.003281935751415,101.50172531604767
25080202,บ้านแหลมตาล,Ban Laem Tan,25080202,25080202,13.992988822595004,101.48884668946266
25080203,บ้านปากกะพอก,Ban Pak Kaphok,25080203,25080203,13.976887179300185,101.4792712032795
25080204,บ้านวังขร,Ban Wang Bon,25080204,25080204,13.985300568400794,101.46957635879517
25080205,บ้านท่าเกวียน,Ban Tha Kwian,25080205,25080205,14.007237699824987,101.46195352077484
25080206,บ้านกุดตาเสก,Ban Kut Thasek,25080206,25080206,14.012842016032257,101.48255422711372
25080207,บ้านอินทนิล,Ban In Thanin,25080207,25080207,14.006613110026517,101.4981646835804
