id,name.th,name.en,name.slug,code.dopa,geo.lat,geo.lon
40121101,บ้านห้วยโจด,Ban Huai Chot,40121101,40121101,15.743601640950738,102.57272198796272
40121102,บ้านหัวนา,Ban Hua Na,40121102,40121102,15.793420164761635,102.60704353451729
40121103,บ้านบ่อตะครอง,Ban Bo Ta Khrong,40121103,40121103,15.758844051982752,102.59619534015656
40121104,บ้านหนองแวงแอก,Ban Nong Waeng Aek,40121104,40121104,15.7765361532439,102.61876747012138
40121105,บ้านโนนข่า,Ban Non Kha,40121105,40121105,15.787206423612396,102.60198891162872
40121106,บ้านโนนทัน,Ban Non Than,40121106,40121106,15.789697104941965,102.58941605687141
40121107,บ้านบุอ้ายตู้,Ban Bu Ai Tu,40121107,40121107,15.7756185457169,102.58542090654373
40121108,บ้านโนนเมือง,Ban Non Mueang,40121108,40121108,15.749518553130546,102.59158730506897
40121109,บ้านโนนฝ้าย,Ban Non Fai,40121109,40121109,15.758256784066903,102.59812653064728
