id,name.th,name.en,name.slug,code.dopa,geo.lat,geo.lon
33030801,บ้านละทาย,Ban Lathai,33030801,33030801,15.195653566560292,104.58179578185081
33030802,บ้านเหม้า,Ban Mao,33030802,33030802,15.158489510836384,104.58512976765633
33030803,บ้านกอก,Ban Kok,33030803,33030803,15.214205317294851,104.58579897880554
33030804,บ้านเขวา,Ban Khwao,33030804,33030804,15.156962063312436,104.56547051668167
33030805,บ้านยางน้อย,Ban Yang Noi,33030805,33030805,15.20606785463567,104.58784148097038
33030806,บ้านหนองเรือ,Ban Nong Ruea,33030806,33030806,15.158454560889233,104.58117753267288
33030807,บ้านละทาย,Ban Lathai,33030807,33030807,15.195471082217008,104.58130091428757
33030808,บ้านละทายใหญ่,Ban Lathai Yai,33030808,33030808,15.177929847021828,104.58367869257927
33030809,บ้านละทาย,Ban Lathai,33030809,33030809,15.19437099595238,104.580297768116
