id,name.th,name.en,name.slug,code.dopa,geo.lat,geo.lon
34140801,บ้านหนองไข่นก,Ban Nong Khai Nok,34140801,34140801,15.402606461526304,104.76450249552727
34140802,บ้านก่อ,Ban Ko,34140802,34140802,15.38189258794758,104.77595686912537
34140803,บ้านบก,Ban Bok,34140803,34140803,15.393934555731736,104.78309288620949
34140804,บ้านดอนขวาง,Ban Don Khwang,34140804,34140804,15.407454916840399,104.77319687604904
34140805,บ้านหนองยอ,Ban Nong Yo,34140805,34140805,15.41673131285658,104.76236075162888
34140806,บ้านหนองไข่นกน้อย,Ban Nong Khai Nok Noi,34140806,34140806,15.407647559796265,104.76759105920792
34140807,บ้านก่อบึง,Ban Ko Bueng,34140807,34140807,15.373192663748506,104.76057976484299
34140808,บ้านทุ่งส้มป่อย,Ban Thung Sompoi,34140808,34140808,15.410990985615314,104.79202330112457
