id,name.th,name.en,name.slug,code.dopa,children_count.villages,zip_codes,geo.lat,geo.lon
710705,ชะแล,Chalae,chalae,710705,7,71180,14.996,98.833
710703,หินดาด,Hin Dat,hin-dat,710703,8,71180,14.608,98.723
710706,ห้วยเขย่ง,Huai Khayeng,huai-khayeng,710706,8,71180,14.635,98.583
710704,ลิ่นถิ่น,Linthin,linthin,710704,7,71180,14.584,98.833
710702,ปิล๊อก,Pilok,pilok,710702,4,71180,14.779,98.403
710707,สหกรณ์นิคม,Sahakon Nikhom,sahakon-nikhom,710707,6,71180,14.735,98.763
710701,ท่าขนุน,Tha Khanun,tha-khanun,710701,5,71180,14.762,98.641
