id,name.th,name.en,name.slug,code.dopa,geo.lat,geo.lon
20020501,บ้านหนองพยอม,Ban Nong Phayom,20020501,20020501,13.363208105647209,101.1375081539154
20020502,บ้านหนองบอนแดง,Ban Nong Bon Daeng,20020502,20020502,13.349814029398134,101.1617660522461
20020503,บ้านหนองยาง,Ban Nong Yang,20020503,20020503,13.361826325455489,101.17677971720695
20020504,บ้านวังน้ำดำ,Ban Wang Nam Dam,20020504,20020504,13.33108325885806,101.17528706789017
20020505,บ้านหนองน้ำขาว,Ban Nong Nam Khao,20020505,20020505,13.357948426022359,101.19542509317398
20020506,บ้านทุ่งโปร่ง,Ban Thung Prong,20020506,20020506,13.3736553602472,101.15830600261688
