id,name.th,name.en,name.slug,code.dopa,geo.lat,geo.lon
49011301,บ้านสมสะอาด,Ban Som Sa-at,49011301,49011301,16.587107518159783,104.58181992173195
49011302,บ้านกุดแข้ใต้,Ban Kut Khae Tai,49011302,49011302,16.579952,104.566904
49011303,บ้านนาโก,Ban Na Ko,49011303,49011303,16.576207891679665,104.58494067192078
49011304,บ้านดงยาง,Ban Dong Yang,49011304,49011304,16.6020,104.5816
49011305,บ้านกุดแข้,Ban Kut Khae,49011305,49011305,16.5881,104.5701
49011306,บ้านนันทวัน,Ban Nan Thawan,49011306,49011306,16.587710321463167,104.56702888011932
