id,name.th,name.en,name.slug,code.dopa,geo.lat,geo.lon
60040501,บ้านห้วยถั่วใต้,Ban Huai Thua Tai,60040501,60040501,15.843572201787362,100.47174632549286
60040502,บ้านห้วยถั่วใต้,Ban Huai Thua Tai,60040502,60040502,15.838486339545254,100.46804755926132
60040503,บ้านหนองกระจูม,Ban Nong Krachum,60040503,60040503,15.81846418971532,100.47139629721642
60040504,บ้านเนินประดู่,Ban Noen Pradu,60040504,60040504,15.825328560411375,100.4568238556385
60040505,บ้านทุ่งตาล,Ban Thung Tan,60040505,60040505,15.840892528286505,100.4409384727478
60040506,บ้านหนองจิกโคร่ง,Ban Nong Chik Khrong,60040506,60040506,15.859268929415837,100.46074658632278
60040507,บ้านห้วยถั่วใต้,Ban Huai Thua Tai,60040507,60040507,15.848207682026318,100.46910837292671
