id,name.th,name.en,name.slug,code.dopa,geo.lat,geo.lon
77060801,บ้านเบญจพาส,Ban Benchaphan,77060801,77060801,12.416981033683905,99.94887113571167
77060802,บ้านวังก์พง,Ban Wang Phong,77060802,77060802,12.405242931260197,99.93222668766975
77060803,บ้านวังยาว,Ban Wang Yao,77060803,77060803,12.428509058563959,99.91681203246117
77060804,บ้านหนองหอย,Ban Nong Hoi,77060804,77060804,12.432595216002813,99.9462465941906
77060805,บ้านฝั่งท่า,Ban Fang Tha,77060805,77060805,12.378853191151375,99.94065016508102
77060806,บ้านท่ามะนาว,Ban Tha Manao,77060806,77060806,12.387512,99.9281642
77060807,บ้านแก่งกระทิง,Ban Kaeng Krathing,77060807,77060807,12.42800221340404,99.93465945124626
