id,name.th,name.en,name.slug,code.dopa,geo.lat,geo.lon
36130801,บ้านโคกนกทา,Ban Khok Nok Tha,36130801,36130801,16.547669284494596,101.99579760432243
36130802,บ้านกุดแคน,Ban Kut Khaen,36130802,36130802,16.53715568726268,102.02463537454605
36130803,บ้านโคกสว่าง,Ban Khok Sawang,36130803,36130803,16.529251470987294,101.9802474975586
36130804,บ้านนาผักเสี้ยน,Ban Na Phak Sian,36130804,36130804,16.527119797069304,101.99626430869102
36130805,บ้านวังชมพู,Ban Wang Chomphu,36130805,36130805,16.518844873671245,101.9408954679966
36130806,บ้านดงใต้,Ban Dong Tai,36130806,36130806,16.52500224244101,102.01194316148758
36130807,บ้านดงกลาง,Ban Dong Klang,36130807,36130807,16.520597345863003,101.99725538492203
36130808,บ้านหนองตากล้า,Ban Nong Ta Kla,36130808,36130808,16.519969903501043,101.98635220527649
36130809,บ้านท่าศาลา,Ban Tha Sala,36130809,36130809,16.52495724254607,101.95782825350761
