id,name.th,name.en,name.slug,code.dopa,geo.lat,geo.lon
72070401,บ้านบางเกล็ด,Ban Bang Klet,72070401,72070401,14.203468253616176,100.09861618280411
72070402,บ้านสำเภาทอง,Ban Samphao Thong,72070402,72070402,14.2105342281888,100.11305719614029
72070403,บ้านบางสะแก,Ban Bang Sakae,72070403,72070403,14.236753759678555,100.11818692088127
72070404,บ้านปลายคลองบางสะแก,Ban Plai Khlong Bang Sakae,72070404,72070404,14.241656990448492,100.10274142026901
72070405,บ้านศรีสนุก (บางซอ),Ban Si Sanuk (Bang So),72070405,72070405,14.198512189153975,100.12239262461662
72070406,บ้านคลองขุดใหม่,Ban Khlong Khut Mai,72070406,72070406,14.221992728670912,100.09030804038048
72070407,บ้านไผ่เดาะ,Ban Pai Dao,72070407,72070407,14.184072417753265,100.12027770280838
72070408,บ้านโรงช้าง,Ban Rong Chang,72070408,72070408,14.180280947645347,100.10199710726738
