id,name.th,name.en,name.slug,code.dopa,geo.lat,geo.lon
17010201,บ้านหัวดอน,Ban Hua Don,17010201,17010201,14.889073733859115,100.41832342743874
17010202,บ้านบางสำราญ,Ban Bang Samran,17010202,17010202,14.912018259841117,100.42267933487892
17010203,บ้านบางมัญ,Ban Bang Man,17010203,17010203,14.918767404037627,100.41220799088478
17010204,บ้านบางตาเพชร,Ban Bang Ta Phet,17010204,17010204,14.915118123486076,100.39051428437233
17010205,บ้านบางเลา,Ban Bang Lao,17010205,17010205,14.921089641238304,100.37525787949562
17010206,บ้านบางสำราญ,Ban Bang Samran,17010206,17010206,14.920395046133,100.42385950684547
17010207,บ้านบางเลา,Ban Bang Lao,17010207,17010207,14.913894771262733,100.38278952240944
