id,name.th,name.en,name.slug,code.dopa,geo.lat,geo.lon
34030401,บ้านหนองแสงใหญ่,Ban Nong Saeng Yai,34030401,34030401,15.33065505073703,105.35352230072021
34030402,บ้านวังสะแบงใต้,Ban Wang Sa Baeng Tai,34030402,34030402,15.31017850537806,105.38636326789856
34030403,บ้านวังสะแบงเหนือ,Ban Wang Sa Baeng Nuea,34030403,34030403,15.303647474457891,105.37590265274048
34030404,บ้านดงบาก,Ban Dong Bak,34030404,34030404,15.354168719560413,105.37460446357727
34030405,บ้านดงมะไฟ,Ban Dong Mafai,34030405,34030405,15.362520277948587,105.37168085575104
34030406,บ้านหนองแสงน้อย,Ban Nong Saeng Noi,34030406,34030406,15.37133832259526,105.4041999578476
34030407,บ้านวังอ่าง,Ban Wang Ang,34030407,34030407,15.383572272842152,105.4057502746582
34030408,บ้านกุดเรือคำ,Ban Kut Ruea Kham,34030408,34030408,15.345404267326188,105.39920166134834
34030409,บ้านวังใหม่,Ban Wang Mai,34030409,34030409,15.311627230908293,105.39516225457191
