id,name.th,name.en,name.slug,code.dopa,geo.lat,geo.lon
24021001,บ้านป่าไผ่,Ban Pa Phai,24021001,24021001,13.709441222402235,101.21080756187439
24021002,บ้านคลองโสภา,Ban Khlong Sopha,24021002,24021002,13.712122568191342,101.1927080154419
24021003,บ้านคลองสองพี่น้อง,Ban Khlong Song Phi Nong,24021003,24021003,13.706684277126977,101.18891403079033
24021004,บ้านทรายหาย,Ban Sai Thai,24021004,24021004,13.689646784359644,101.22272863934108
24021005,บ้านท่าระหัด,Ban Tha Rahat,24021005,24021005,13.685173,101.246627
24021006,บ้านหนองปรือ,Ban Nong Prue,24021006,24021006,13.706595679105137,101.23563542962074
