id,name.local,name.en,name.slug,code.id,zip_codes,geo.lat,geo.lon
320605,ด่าน,Dan,dan-320605,320605,32210,14.465,103.709
320601,กาบเชิง,Kap Choeng,kap-choeng-320601,320601,32210,14.488,103.585
320607,โคกตะเคียน,Khok Takhian,khok-takhian-320607,320607,32210,14.48,103.505
320604,คูตัน,Khu Tan,khu-tan-320604,320604,32210,14.533,103.667
320606,แนงมุด,Naeng Mut,naeng-mut-320606,320606,32210,14.397,103.459
320610,ตะเคียน,Takhian,takhian-320610,320610,32210,14.464,103.632
