id,name.local,name.en,name.slug,code.id,zip_codes,geo.lat,geo.lon
570304,บุญเรือง,Bun Rueang,bun-rueang-570304,570304,57140,19.989,100.347
570305,ห้วยซ้อ,Huai So,huai-so-570305,570305,57140,20.061,100.284
570303,ครึ่ง,Khrueng,khrueng-570303,570303,57140,20.058,100.402
570310,ริมโขง,Rim Khong,rim-khong-570310,570310,57140,20.361,100.313
570302,สถาน,Sathan,sathan-570302,570302,57140,20.202,100.364
570308,ศรีดอนชัย,Si Don Chai,si-don-chai-570308,570308,57230,20.15,100.324
570301,เวียง,Wiang,wiang-570301,570301,57140,20.266,100.369
