id,name.th,name.en,name.slug,code.dopa,geo.lat,geo.lon
23020201,บ้านไม้รูด,Ban Mai Rut,23020201,23020201,11.921414140936628,102.79804766178131
23020202,บ้านหนองม่วง,Ban Nong Muang,23020202,23020202,11.8753632,102.8158304
23020203,บ้านห้วงโสม,Ban Huang Som,23020203,23020203,11.908823,102.799726
23020204,บ้านคลองมะนาว,Ban Khlong Manao,23020204,23020204,11.957812865023808,102.78250560164452
23020205,บ้านห้วงบอน,Ban Huang Bon,23020205,23020205,11.889120799508019,102.80959323048592
23020206,บ้านร่วมสุข,Ban Ruam Suk,23020206,23020206,11.926764,102.786328
