id,name.th,name.en,name.slug,code.dopa,geo.lat,geo.lon
19100601,บ้านหัวหิน,Ban Hua Hin,19100601,19100601,14.573747780159495,100.87248846888542
19100602,บ้านหัวหิน,Ban Hua Hin,19100602,19100602,14.550622221091515,100.87957888841629
19100603,บ้านต้นตาล,Ban Ton Tan,19100603,19100603,14.554626792360198,100.87949305772781
19100604,บ้านต้นตาล,Ban Ton Tan,19100604,19100604,14.552847136108527,100.88005363941193
19100605,บ้านต้นตาล,Ban Ton Tan,19100605,19100605,14.553940114150214,100.87844833731651
19100606,บ้านท่าราบ,Ban Tha Rap,19100606,19100606,14.550497604417998,100.87611079216003
19100607,บ้านนาล้อม,Ban Na Lom,19100607,19100607,14.585427757559188,100.88363975286484
19100608,บ้านงามล้อม,Ban Ngam Lom,19100608,19100608,14.584978688868347,100.88686779141426
