id,name.th,name.en,name.slug,code.dopa,geo.lat,geo.lon
35011801,บ้านโต่งโต้น,Ban Tong Ton,35011801,35011801,15.894383787073249,104.31649446487427
35011802,บ้านโนนสวาท,Ban Non Sawat,35011802,35011802,15.849465552121943,104.31423604488373
35011803,บ้านโนนค้อ,Ban Non Kho,35011803,35011803,15.864511650744738,104.31627720594406
35011804,บ้านหนองเป็ด,Ban Nong Pet,35011804,35011804,15.866549876664578,104.3289278447628
35011805,บ้านยางเดี่ยว,Ban Yang Diao,35011805,35011805,15.885669496033216,104.34773415327072
35011806,บ้านหนองเป็ด,Ban Nong Pet,35011806,35011806,15.866985899533677,104.3324214220047
35011807,บ้านหนองถ่ม,Ban Nong Thom,35011807,35011807,15.886964538876708,104.35408025979996
35011808,บ้านหนองถ่ม,Ban Nong Thom,35011808,35011808,15.889317264718368,104.35407489538193
35011809,บ้านยางเดี่ยว,Ban Yang Diao,35011809,35011809,15.88527350019389,104.34700593352318
