id,name.th,name.en,name.slug,code.dopa,geo.lat,geo.lon
66050701,บ้านเหมืองลาด,Ban Mueang Lat,66050701,66050701,16.01699640828782,100.46885624527931
66050702,บ้านวังกรด,Ban Wang Krot,66050702,66050702,13.61498051572337,100.43898716568947
66050703,บ้านห้วยเรียงใต้,Ban Huai Riang Tai,66050703,66050703,16.00230722660214,100.46120926737785
66050704,บ้านห้วยเรียง,Ban Huai Riang,66050704,66050704,15.9995510316023,100.47281384468079
66050705,บ้านห้วยเรียงกลาง,Ban Huai Riang Klang,66050705,66050705,13.72706875088845,100.5340875685215
66050706,บ้านหนองน้ำใส,Ban Nong Nam Sai,66050706,66050706,13.72706875088845,100.5340875685215
