id,name.th,name.en,name.slug,code.dopa,geo.lat,geo.lon
71040201,บ้านท่าสนุ่น,Ban Tha Sanun,71040201,71040201,14.523312613959177,99.16981816291809
71040202,บ้านพุน้ำเปรี้ยว,Ban Phu Nam Priao,71040202,71040202,14.502786322652973,99.13907065987587
71040203,บ้านด่านแม่แฉลบ,Ban Dan Mae Chalaep,71040203,71040203,14.595556219609815,99.12290498614311
71040204,บ้านท่าสนุ่น,Ban Tha Sanun,71040204,71040204,14.5285886407769,99.17103722691536
71040205,บ้านโป่งหวาย,Ban Pong Wai,71040205,71040205,14.587930065747654,99.13152292370796
71040206,บ้านดงเสลา,Ban Dong Salao,71040206,71040206,14.637540753180092,99.11032944917679
71040207,บ้านปากเหมือง,Ban Pak Mueang,71040207,71040207,14.690757020240687,98.92171382904053
71040208,บ้านหาดแดง,Ban Hat Daeng,71040208,71040208,14.549749902899563,99.08289179205894
