id,name.th,name.en,name.slug,code.dopa,geo.lat,geo.lon
70041301,บ้านคลองกำนันฮวด,Ban Khlong Kamnan Huat,70041301,70041301,13.527888326091693,100.01793801784515
70041302,บ้านตลาดแคระ,Ban Talat Khrae,70041302,70041302,13.56114059518337,100.01326695084572
70041303,บ้านแช่ไห,Ban Chai Hai,70041303,70041303,13.57432469752496,100.00626772642136
70041304,บ้านศาลเจ้ากิมเซียงกง,Ban San Chai Kim Chiang Kong,70041304,70041304,13.557045591522604,100.011156052351
70041305,บ้านหลักหก,Ban Lak Hok,70041305,70041305,13.532003389913454,100.00147327780724
70041306,บ้านหลักหก,Ban Lak Hok,70041306,70041306,13.553863147391617,99.975675791502
70041307,บ้านโรงพักเก่า,Ban Rong Phak Kao,70041307,70041307,13.543067812640448,100.00893920660019
