id,name.th,name.en,name.slug,code.dopa,geo.lat,geo.lon
25020701,บ้านเพ็ชเอิม,Ban Phet Oem,25020701,25020701,13.974493,101.662881
25020702,บ้านน้ำฉ่า-หาดสูง,Ban Nam Cha - Hat Sung,25020702,25020702,13.969226,101.636680
25020703,บ้านซ่ง,Ban Song,25020703,25020703,13.959893,101.630590
25020704,บ้านบึงกา,Ban Bueng Ka,25020704,25020704,13.961477,101.611179
25020705,บ้านเขาดิน,Ban Khao Din,25020705,25020705,13.972028,101.674067
25020706,บ้านเกาะลอย,Ban Ko Loi,25020706,25020706,13.953394,101.65432
25020707,บ้านปราสาท,Ban Prasat,25020707,25020707,13.867105,101.707981
