id,name.th,name.en,name.slug,code.dopa,geo.lat,geo.lon
70071201,บ้านวัดม่วง,Ban Wat Muang,70071201,70071201,13.702972251969493,99.84876304864883
70071202,บ้านวัดเกาะ,Ban Wat Ko,70071202,70071202,13.707985882449345,99.84740182757378
70071203,บ้านคลองจันทร์,Ban Khlong Chan,70071203,70071203,13.717799155013642,99.84307542443275
70071204,บ้านวัดขนอน,Ban Wat Khanon,70071204,70071204,13.726486399146454,99.84467938542366
70071205,บ้านสร้อยฟ้า,Ban Soi Fa,70071205,70071205,13.738487503465427,99.84168067574501
