id,name.th,name.en,name.slug,code.dopa,geo.lat,geo.lon
72020901,บ้านเด่น,Ban Den,72020901,72020901,14.86831606063702,99.99250262975693
72020902,บ้านอู่ตะเภา,Ban U Taphao,72020902,72020902,14.867748323496818,99.99330997467041
72020903,บ้านหัวนา,Ban Hua Na,72020903,72020903,14.8761641,99.9713933
72020904,บ้านดอนตาล,Ban Don Tan,72020904,72020904,14.8826535,99.9468511
72020905,บ้านมะขามเฒ่า,Ban Makham Thao,72020905,72020905,14.905090058663589,99.95597094297409
72020906,บ้านหนองไม้ตาย,Ban Nong Mai Tai,72020906,72020906,14.9049760,99.9364052
72020907,บ้านท่าข้าม,Ban Tha Kham,72020907,72020907,14.869346538616924,99.98874351382256
