id,name.th,name.en,name.slug,code.dopa,geo.lat,geo.lon
22021201,บ้านบ่อเวฬุ,Ban Bo Welu,22021201,22021201,12.67690582485579,102.3226435482502
22021202,บ้านบ่อเวฬุ,Ban Bo Welu,22021202,22021202,12.676381150899944,102.31916472315788
22021203,บ้านสะพานหินบน,Ban Saphan Hin Bon,22021203,22021203,12.741926920713817,102.33767867088318
22021204,บ้านโชคดี,Ban Chok Di,22021204,22021204,12.72786600381077,102.3570066690445
22021205,บ้านสะพานหินล่าง,Ban Saphan Hin Lang,22021205,22021205,12.659160516620704,102.37503245472908
22021206,บ้านแสงแดง,Ban Saeng Daeng,22021206,22021206,12.678286196310747,102.36083418130875
22021207,บ้านเขาทอง,Ban Khao Thong,22021207,22021207,12.642684616008486,102.35461547970772
