id,name.th,name.en,name.slug,code.dopa,children_count.villages,zip_codes,geo.lat,geo.lon
331604,บ่อแก้ว,Bo Kaeo,bo-kaeo,331604,19,33270,14.992,104.270
331601,บุสูง,Bu Sung,bu-sung,331601,22,33270,14.957,104.209
331603,ดวนใหญ่,Duan Yai,duan-yai,331603,18,33270,14.945,104.271
331608,โพนยาง,Phon Yang,phon-yang,331608,12,33270,14.926,104.204
331605,ศรีสำราญ,Si Samran,si-samran,331605,13,33270,14.909,104.155
331602,ธาตุ,That,that,331602,16,33270,14.988,104.186
331606,ทุ่งสว่าง,Thung Sawang,thung-sawang,331606,15,33270,15.018,104.224
331607,วังหิน,Wang Hin,wang-hin,331607,11,33270,14.920,104.240
