id,name.th,name.en,name.slug,code.dopa,geo.lat,geo.lon
53040201,บ้านฝาย,Ban Fai,53040201,53040201,17.739454294054223,100.69554179906845
53040202,บ้านใหม่,Ban Mai,53040202,53040202,17.739478563465656,100.70585757493973
53040203,บ้านนากวาง,Ban Na Kwang,53040203,53040203,17.732534823008127,100.71431323885918
53040204,บ้านม่วง,Ban Muang,53040204,53040204,17.776972151293922,100.73135063052177
53040205,บ้านทรายขาว,Ban Sai Khao,53040205,53040205,17.77777159513079,100.71451842784882
53040206,บ้านหนองแห้ว,Ban Nong Haeo,53040206,53040206,17.79033873968102,100.75150743126869
53040207,บ้านชำบุ่น,Ban Cham Bun,53040207,53040207,17.75455561883495,100.75426742434502
53040208,บ้านโคกทรายขาว,Ban Khok Sai Khao,53040208,53040208,17.788599492443712,100.72834253311157
53040209,บ้านโพนทอง,Ban Phon Thong,53040209,53040209,17.77841395715583,100.73405295610428
