id,name.th,name.en,name.slug,code.dopa,geo.lat,geo.lon
55070301,บ้านไหล่น่าน,Ban Lai Nan,55070301,55070301,18.57430006742586,100.76122775673866
55070302,บ้านบุญเรือง,Ban Bun Rueang,55070302,55070302,18.572408439568516,100.77304020524025
55070303,บ้านนาสา,Ban Na Sa,55070303,55070303,18.59136444942197,100.84230557084084
55070304,บ้านท่าข้าม,Ban Tha Kham,55070304,55070304,18.57644083600344,100.8631731569767
55070305,บ้านห้วยสอน,Ban Huai Son,55070305,55070305,18.57195078451492,100.91050878167152
55070306,บ้านห้วยเม่น,Ban Huai Men,55070306,55070306,18.560672,100.917156
55070307,บ้านปากงุ๊,Ban Pak Ngu,55070307,55070307,18.572278770761365,100.88602155447006
55070308,บ้านไหล่น่านเหนือ,Ban Lai Nan Nuea,55070308,55070308,18.578673105248786,100.75980082154274
