id,name.th,name.en,name.slug,code.dopa,geo.lat,geo.lon
86050401,บ้านทุ่งคาวัด,Ban Thung Kha Wat,86050401,86050401,9.73899666481336,99.02398779988289
86050402,บ้านทุ่งเชิงดี,Ban Thung Choeng Di,86050402,86050402,9.76581048227224,99.03792589902878
86050403,บ้านทุ่งคา,Ban Thung Kha,86050403,86050403,9.735158201570712,99.03088510036469
86050404,บ้านไสใหญ่,Ban Sai Yai,86050404,86050404,9.758487022994863,99.02695968747139
86050405,บ้านทับใหม่,Ban Thap Mai,86050405,86050405,9.762638456877765,98.97725969552994
86050406,บ้านเขาช่องลม,Ban Khao Chong Lom,86050406,86050406,9.730167075950162,99.001674503088
86050407,บ้านหินลูกช้าง,Ban Hin Luk Chang,86050407,86050407,9.778925164667559,98.9584681391716
86050408,บ้านเนินสันติ,Ban Noen Santi,86050408,86050408,9.794603159159024,98.94550368189812
