id,name.th,name.en,name.slug,code.dopa,geo.lat,geo.lon
90140401,บ้านคู,Ban Khu,90140401,90140401,7.072537382086929,100.46626657247543
90140402,บ้านท่าหาด,Ban Tha Hat,90140402,90140402,7.067791367826784,100.46327725052834
90140403,บ้านคดยาง,Ban Khok Yang,90140403,90140403,13.72706875088845,100.5340875685215
90140404,บ้านหาร,Ban Han,90140404,90140404,7.073442393291263,100.45045763254166
90140405,บ้านเกาะไหล,Ban Ko Lai,90140405,90140405,7.077502943784387,100.44813483953476
