id,name.th,name.en,name.slug,code.dopa,geo.lat,geo.lon
39060401,บ้านวังปลาป้อม,Ban Wang Pla Pom,39060401,39060401,17.424939683809498,101.99859783053398
39060402,บ้านโคกเจริญ,Ban Khok Charoen,39060402,39060402,17.423324870284514,101.99969753623009
39060403,บ้านวังปลาป้อม,Ban Wang Pla Pom,39060403,39060403,17.427703515332666,101.99538186192513
39060404,บ้านโคกสะอาด,Ban Khok Sa-at,39060404,39060404,17.41412067234869,102.0172418653965
39060405,บ้านโคกหนองบัว,Ban Khok Nong Bua,39060405,39060405,17.44727433921381,101.99995368719101
39060406,บ้านหนองหัวช้าง,Ban Nong Hua Chang,39060406,39060406,17.411209474685567,102.0223219692707
39060407,บ้านกุดดู่,Ban Kut Du,39060407,39060407,17.442965253360637,101.99927911162376
39060408,บ้านโคกสว่าง,Ban Khok Sawang,39060408,39060408,17.419761225716098,102.00603157281876
