id,name.th,name.en,name.slug,code.dopa,geo.lat,geo.lon
70080201,บ้านต้นกระโดน,Ban Ton Kradon,70080201,70080201,13.348757085749579,99.83905345201492
70080202,บ้านห้วยโรง,Ban Huai Rong,70080202,70080202,13.333644895521752,99.84061852097511
70080203,บ้านวังมะนาว,Ban Wang Manao,70080203,70080203,13.338303533480675,99.83245253562927
70080204,บ้านไร่กงสี,Ban Rai Kong Si,70080204,70080204,13.34156322170795,99.81228366494179
70080205,บ้านเขาหลาว,Ban Khao Lao,70080205,70080205,13.350222452062436,99.83006805181503
70080206,บ้านห้วยน้อย,Ban Huai Noi,70080206,70080206,13.333869347364526,99.79587391018867
70080207,บ้านมณีลอย,Ban Mani Loi,70080207,70080207,13.341051696280282,99.77412655949593
