id,name.th,name.en,name.slug,code.dopa,geo.lat,geo.lon
73060401,บ้านคลองเจริญพร,Ban Khlong Charoen Phon,73060401,73060401,13.762714520576145,100.31964227557182
73060402,บ้านคลองบางกระทึก,Ban Khlong Bang Krathuek,73060402,73060402,13.764699675252727,100.3015024960041
73060403,บ้านคลองรางหนอง,Ban Khlong Rang Nong,73060403,73060403,13.769754970091252,100.30857548117638
73060404,บ้านไทย,Ban Thai,73060404,73060404,13.771130470719713,100.29615417122841
73060405,บ้านโคกหวาย,Ban Khok Wai,73060405,73060405,13.769770600825675,100.28514236211777
73060406,บ้านคลองวัฒนา,Ban Khlong Watthana,73060406,73060406,13.778019575085874,100.29326543211937
73060407,บ้านคลองสวนฝ้าย,Ban Khlong Suan Fai,73060407,73060407,13.773938759372298,100.28182446956635
73060408,บ้านนอก,Ban Nok,73060408,73060408,13.767023483205445,100.29256537556648
