id,name.th,name.en,name.slug,code.dopa,geo.lat,geo.lon
95060801,บ้านโต๊ะพราน,Ban To Phran,95060801,95060801,6.5678598444532525,101.4629727602005
95060802,บ้านจะรังตาดง,Ban Charang Ta Dong,95060802,95060802,6.582673500304516,101.48927718400955
95060803,บ้านพรุ,Ban Phru,95060803,95060803,6.554919017747887,101.48661643266678
95060804,บ้านสาเมาะ,Ban Sa Mo,95060804,95060804,6.555026937078748,101.42521128058434
95060805,บ้านเกาะ,Ban Ko,95060805,95060805,6.5540903030954265,101.40925347805023
95060806,บ้านจำปูน,Ban Cham Pun,95060806,95060806,6.555030934090556,101.42521396279335
95060807,บ้านเจาะกาแต,Ban Cho Katae,95060807,95060807,6.563711035774742,101.48982435464859
