id,name.th,name.en,name.slug,code.dopa,geo.lat,geo.lon
94020701,บ้านบาเงง,Ban Ba Ngeng,94020701,94020701,6.634018928382657,101.19097396731377
94020702,บ้านคลองหิน,Ban Khlong Hin,94020702,94020702,6.622642450131713,101.20184898376465
94020703,บ้านพระยา,Ban Phra Ya,94020703,94020703,6.636053078962345,101.19959190487862
94020704,บ้านบ่อหว้า,Ban Bo Wa,94020704,94020704,6.610435756810034,101.19151309132576
94020705,บ้านชมภู่,Ban Chomphu,94020705,94020705,6.631120215991401,101.18410214781761
94020706,บ้านปากล่อ,Ban Pak Lo,94020706,94020706,6.619218798174059,101.18909373879433
94020707,บ้านโผงโผง (นอก),Ban Phong Phong (Nok),94020707,94020707,6.619868894224228,101.17919772863388
94020708,บ้านโผงโผง (ใน),Ban Phong Phong (Nai),94020708,94020708,6.62479254470598,101.16867944598198
94020709,บ้านปลักใหญ่,Ban Plak Yai,94020709,94020709,6.601668545960126,101.2145009636879
