id,name.th,name.en,name.slug,code.dopa,geo.lat,geo.lon
66050301,บ้านไข่เน่า,Ban Khai Nao,66050301,66050301,16.050449416288302,100.37772953510284
66050302,บ้านย่านท่าเสา,Ban Yan Tha Sao,66050302,66050302,16.06632068081971,100.38850530982018
66050303,บ้านหอไกร,Ban Ho Krai,66050303,66050303,16.084047573173144,100.39312943816185
66050304,บ้านหอไกร,Ban Ho Krai,66050304,66050304,16.08809247487338,100.40349751710892
66050305,บ้านคลองขุด,Ban Khlong Khut,66050305,66050305,16.044884186117656,100.37599012255669
66050306,บ้านไข่เน่า,Ban Khai Nao,66050306,66050306,16.058576589743282,100.37762761116028
66050307,บ้านย่านท่าเสา,Ban Yan Tha Sao,66050307,66050307,16.068746043934308,100.38925364613533
66050308,บ้านห้วงตะกวน,Ban Huang Takuan,66050308,66050308,16.02386817649968,100.35237595438957
66050309,บ้านห้วงกรวดใหญ่,Ban Huang Kruat Yai,66050309,66050309,16.032912872426362,100.37239596247673
