id,name.th,name.en,name.slug,code.dopa,geo.lat,geo.lon
85020501,บ้านบางแก้วน้อย,Ban Bang Kaeo Noi,85020501,85020501,10.172446799428023,98.7650714814663
85020502,บ้านบางแก้วใหญ่,Ban Bang Kaeo Yai,85020502,85020502,10.17366649855427,98.77645343542099
85020503,บ้านทุ่งตาพล,Ban Thung Ta Phon,85020503,85020503,10.174986514003576,98.79293158650398
85020504,บ้านเขาฝาชี,Ban Khao Fachi,85020504,85020504,10.17761464851068,98.71344700455666
85020505,บ้านพรุตาโรย,Ban Phru Ta Roi,85020505,85020505,10.198212612243818,98.7266756594181
