id,name.th,name.en,name.slug,code.dopa,geo.lat,geo.lon
53060201,บ้านโคกเหนือ,Ban Khok Nuea,53060201,53060201,18.02672814296645,101.06935992836952
53060202,บ้านน้ำแพ,Ban Nam Phae,53060202,53060202,18.034953459808417,101.11636161804199
53060203,บ้านโคกใหม่,Ban Khok Mai,53060203,53060203,18.021579791747037,101.06848016381264
53060204,บ้านห้วยครั่ง,Ban Huai Khrang,53060204,53060204,18.011277536284,101.10373511910439
53060205,บ้านฟากนา,Ban Fak Na,53060205,53060205,18.0218374041791,101.05822339653969
53060206,บ้านน้อยน้ำแพ,Ban Noi Nam Phae,53060206,53060206,18.038145289305966,101.10560327768326
53060207,บ้านโคกใน,Ban Khok Nai,53060207,53060207,18.02177618937788,101.06732681393623
