id,name.th,name.en,name.slug,code.dopa,geo.lat,geo.lon
61011201,บ้านหนองพังค่า,Ban Nong Phang Kha,61011201,61011201,15.407101953109134,99.95773181319237
61011202,บ้านเนื้อร้อน,Ban Nuea Ron,61011202,61011202,15.38346236315937,99.94793504476547
61011203,บ้านเขาน้อย,Ban Khao Noi,61011203,61011203,15.419068770046549,99.96001034975052
61011204,บ้านคลองหิน,Ban Khlong Hin,61011204,61011204,15.415927159447119,99.94760781526566
61011205,บ้านหนองหอย,Ban Nong Hoi,61011205,61011205,15.383118410130184,99.94785726070404
61011206,บ้านทุ่งแฝก,Ban Thung Faek,61011206,61011206,15.40120620659431,99.93958666920662
