id,name.th,name.en,name.slug,code.dopa,geo.lat,geo.lon
21010801,บ้านนาตาขวัญ,Ban Na Ta Khwan,21010801,21010801,12.708948138367258,101.3293705880642
21010802,บ้านทุ่งโพธิ์,Ban Thung Pho,21010802,21010802,12.714144445131016,101.33376270532608
21010803,บ้านชะวึก,Ban Chawuek,21010803,21010803,12.729233017111733,101.34739369153976
21010804,บ้านชากขนุน,Ban Chak Khanun,21010804,21010804,12.713360819573742,101.34651392698288
21010805,บ้านเขาวังม่าน,Ban Khao Wang Man,21010805,21010805,12.748446295950075,101.37898474931717
21010806,บ้านหนองละลอก,Ban Nong Lalok,21010806,21010806,12.732906256544405,101.36528000235558
