id,name.th,name.en,name.slug,code.dopa,geo.lat,geo.lon
16041101,บ้านแผ่นดินทอง,Ban Phaen Din Thong,16041101,16041101,15.23611200937447,101.2457326054573
16041102,บ้านหนองยายโต๊ะ,Ban Nong Yai To,16041102,16041102,15.2377436942915,101.23596802353859
16041103,บ้านหนองยายโต๊ะ,Ban Nong Yai To,16041103,16041103,15.23962251009521,101.23490452766418
16041104,บ้านท่ามะเดื่อ,Ban Tha Maduea,16041104,16041104,15.234083060753626,101.24342858791351
16041105,บ้านบ่อน้ำ,Ban Bo Nam,16041105,16041105,15.287023406692997,101.2775744497776
16041106,บ้านท่ารวก,Ban Tha Ruak,16041106,16041106,15.226720193851094,101.28540650010109
16041107,บ้านท่ายาง,Ban Tha Yang,16041107,16041107,15.238749095745124,101.24222829937935
16041108,บ้านสำราญชัย,Ban Samran Chai,16041108,16041108,15.23474298879158,101.23210564255714
