id,name.th,name.en,name.slug,code.dopa,geo.lat,geo.lon
86011101,บ้านนาเนียน,Ban Na Nian,86011101,86011101,10.524480104305692,99.09214273095131
86011102,บ้านเสียบญวน,Ban Siap Yuan,86011102,86011102,10.509702838519871,99.06606763601303
86011103,บ้านน้ำผุด,Ban Nam Phut,86011103,86011103,10.515705075523412,99.0640090405941
86011104,บ้านนาแซะ,Ban Na Sae,86011104,86011104,10.51327887777974,99.01355534791946
86011105,บ้านท่าไม้ลาย,Ban Tha Mai Lai,86011105,86011105,10.503113693156477,98.95971536636353
86011106,บ้านคลองสะเดา,Ban Khlong Sadao,86011106,86011106,10.509764813004194,99.03340101242065
86011107,บ้าน จปร.,Ban Cho Po Ro,86011107,86011107,10.483652675741942,98.92508000135422
86011108,บ้านพรุชิง,Ban Phru Ching,86011108,86011108,10.524354842690732,99.0808854997158
86011109,บ้านนาเนียนใต้,Ban Na Nian Tai,86011109,86011109,10.50837763646417,99.09602120518684
