id,name.th,name.en,name.slug,code.dopa,geo.lat,geo.lon
67071301,บ้านปางยาง,Ban Pang Yang,67071301,67071301,15.962516616945663,101.35445594787598
67071302,บ้านซับชมพู่,Ban Sap Chomphu,67071302,67071302,15.916865585287693,101.29893824458122
67071303,บ้านไทรงาม,Ban Sai Ngam,67071303,67071303,15.95769938322605,101.3082267343998
67071304,บ้านเฉลียงทอง,Ban Chaliang Thong,67071304,67071304,16.001028398102832,101.33139029145241
67071305,บ้านโป่งสะทอน,Ban Pong Sathon,67071305,67071305,15.92658572403261,101.26441150903702
67071306,บ้านสันเจริญ,Ban San Charoen,67071306,67071306,15.960496126434569,101.28365769982338
67071307,บ้านห้วยตลาด,Ban Huai Talat,67071307,67071307,16.03265637323425,101.31176456809044
67071308,บ้านท่าด้วง,Ban Tha Duang,67071308,67071308,15.970866558103241,101.3042289018631
