id,name.th,name.en,name.slug,code.dopa,geo.lat,geo.lon
72011201,บ้านโพธิ์ท่าทราย,Ban Pho Tha Sai,72011201,72011201,14.537583820367209,100.07214680314064
72011202,บ้านโพธิ์ตะวันตก,Ban Pho Tawan Tok,72011202,72011202,14.5089644,100.0704746
72011203,บ้านโพธิ์ตะวันออก,Ban Pho Tawan Ok,72011203,72011203,14.51406,100.0753101
72011204,บ้านลุ่มบัว,Ban Lum Bua,72011204,72011204,14.5288116,100.0581483
72011205,บ้านบึงหมู่เก่า,Ban Bueng Mu Kao,72011205,72011205,14.551372515826396,100.05868345499039
72011206,บ้านบึงหมู่ใหม่,Ban Bueng Mu Mai,72011206,72011206,14.536529706555239,100.0689885020256
72011207,บ้านลาดตานวล,Ban Lat Ta Nuan,72011207,72011207,14.486235371544536,100.07451117038727
72011208,บ้านหนองหม้อแกง,Ban Nong Mo Kaeng,72011208,72011208,14.4929834059931,100.06531655788422
72011209,บ้านศรีษะเกษ,Ban Si Sa Ket,72011209,72011209,14.552645934097626,100.06523609161377
