id,name.th,name.en,name.slug,code.dopa,geo.lat,geo.lon
15020201,บ้านสวนมะม่วง,Ban Suan Mamuang,15020201,15020201,14.726330236230144,100.43454140424728
15020202,บ้านหนองหมัน,Ban Nong Man,15020202,15020202,14.714240092286184,100.4443421959877
15020203,บ้านกลาง,Ban Klang,15020203,15020203,14.712638140090444,100.44460371136665
15020204,บ้านมหานาม,Ban Maha Nam,15020204,15020204,14.710453758792422,100.44646516442299
15020205,บ้านคุ้งคาว,Ban Khung Khao,15020205,15020205,14.7060200720473,100.45218095183372
15020206,บ้านคลองใหญ่,Ban Khlong Yai,15020206,15020206,14.702760256035528,100.45267581939697
15020207,บ้านสระเกษ,Ban Sa Ket,15020207,15020207,14.695883739627261,100.4552212357521
15020208,บ้านบางขัน,Ban Bang Khan,15020208,15020208,14.714250469266124,100.45406386256218
