id,name.th,name.en,name.slug,code.dopa,geo.lat,geo.lon
53080150,ชุมชนตลาดลับแล,,53080150,53080150,17.653026706031973,100.03898665308952
53080151,ชุมชนคอกช้าง,,53080151,53080151,17.658551209739862,100.03812968730927
53080152,ชุมชนยางกะไดใต้,,53080152,53080152,17.649306547994534,100.04257276654243
53080153,ชุมชนบ้านหนอง,,53080153,53080153,17.651004973892164,100.03791645169258
53080154,ชุมชนยางกะไดเหนือ,,53080154,53080154,17.653304021501828,100.04249095916748
53080155,ชุมชนฟากท่าห้วร้องป่ายาง,,53080155,53080155,17.65721450752851,100.03968805074692
