id,name.th,name.en,name.slug,code.dopa,geo.lat,geo.lon
76060701,บ้านไร่หมัน,Ban Rai Man,76060701,76060701,13.039018468620306,99.91912946105003
76060702,บ้านในคุ้ง,Ban Nai Khung,76060702,76060702,13.0414864845593,99.9201674759388
76060703,บ้านท่ามะพูด,Ban Tha Maphut,76060703,76060703,13.039018468620306,99.91912946105003
76060704,บ้านท่าเสน,Ban Tha Sen,76060704,76060704,13.039347713038037,99.91906106472015
76060705,บ้านไร่เหมือง,Ban Rai Mueang,76060705,76060705,13.05260204990472,99.9347747862339
76060706,บ้านหาดทราย,Ban Hat Sai,76060706,76060706,13.058734471543017,99.93393793702126
76060707,บ้านระหารป่าพลู,Ban Rahan Pa Phlu,76060707,76060707,13.042099238538976,99.93078231811523
76060708,บ้านหัวเขา,Ban Hua Khao,76060708,76060708,13.041229101304895,99.93624195456505
76060709,บ้านเขาทะโมน,Ban Khao Tha Mon,76060709,76060709,13.044060302372728,99.93809670209885
