id,name.th,name.en,name.slug,code.dopa,geo.lat,geo.lon
81040201,บ้านบางครามเหนือ,Ban Bang Khram Nuea,81040201,81040201,7.967284882524244,99.24919009208679
81040202,บ้านบางเตียว,Ban Bang Tiao,81040202,81040202,7.953874238276853,99.1441185772419
81040203,บ้านคลองท่อมเหนือ,Ban Khlong Thom Nuea,81040203,81040203,7.988880183043337,99.24785703420639
81040204,บ้านบางคราม,Ban Bang Khram,81040204,81040204,7.961163350433165,99.23324301838875
81040205,บ้านไสรุ่ง,Ban Sai Rung,81040205,81040205,8.012587213777877,99.2269492149353
81040206,บ้านนิคมหน้าเขา,Ban Nikhom Na Khao,81040206,81040206,7.957723351919705,99.20871958136559
81040207,บ้านหน้าถ้ำ,Ban Na Tham,81040207,81040207,7.904221689917884,99.21144604682922
81040208,บ้านบางครามใต้,Ban Bang Khram Tai,81040208,81040208,7.933990560738054,99.22762647271156
