id,name.th,name.en,name.slug,code.dopa,geo.lat,geo.lon
46160301,บ้านจาน,Ban Chan,46160301,46160301,16.72850230507492,104.00515839457512
46160302,บ้านนายอ,Ban Na Yo,46160302,46160302,16.725665158800666,103.98914024233818
46160303,บ้านดอนงิ้ว,Ban Don Ngio,46160303,46160303,16.713044548056672,104.00557681918144
46160304,บ้านหนองห้าง,Ban Nong Hang,46160304,46160304,16.709473737276692,104.02107998728752
46160305,บ้านม่วงนาดี,Ban Muang Na Di,46160305,46160305,16.745205805628697,103.9867477118969
46160306,บ้านโคกยาว,Ban Khok Yao,46160306,46160306,16.742594936748954,103.98979872465134
46160307,บ้านโนนสูง,Ban Non Sung,46160307,46160307,16.712320115588778,104.00604084134102
46160308,บ้านนาขาม,Ban Na Kham,46160308,46160308,16.719717161031816,104.0088477730751
46160309,บ้านจานพัฒนา,Ban Chan Phatthana,46160309,46160309,16.728705231981753,104.00294288992882
