id,name.local,name.en,name.slug,code.id,zip_codes,geo.lat,geo.lon
421104,ห้วยสีเสียด,Huai Sisiat,huai-sisiat-421104,421104,42230,17.138,101.74
421106,แก่งศรีภูมิ,Kaeng Si Phum,kaeng-si-phum-421106,421106,42230,17.049,101.678
421105,เลยวังไสย์,Loei Wang Sai,loei-wang-sai-421105,421105,42230,17.086,101.549
421102,หนองคัน,Nong Khan,nong-khan-421102,421102,42230,17.141,101.701
421101,ภูหอ,Phu Ho,phu-ho-421101,421101,42230,17.135,101.629
