id,name.th,name.en,name.slug,code.dopa,geo.lat,geo.lon
73011601,บ้านหนองดินแดง,Ban Nong Din Daeng,73011601,73011601,13.817611376380302,99.97331410646439
73011602,บ้านหนองดินแดง,Ban Nong Din Daeng,73011602,73011602,13.79897480172282,99.99016642570496
73011603,บ้านเหนือ,Ban Nuea,73011603,73011603,13.78771138953598,99.99049365520477
73011604,บ้านใต้,Ban Tai,73011604,73011604,13.774429815657003,99.98785972595215
73011605,บ้านเกาะจาน,Ban Ko Chan,73011605,73011605,13.77440767255763,99.98482882976532
73011606,บ้านนอก,Ban Nok,73011606,73011606,13.765508581874064,99.99016642570496
73011607,บ้านคลองสระเกตุ,Ban Khlong Sa Ket,73011607,73011607,13.794541395842623,99.99559387564659
73011608,บ้านบางปลาก่าย,Ban Bang Pla Kai,73011608,73011608,13.78889662616578,100.00124394893646
