id,name.th,name.en,name.slug,code.dopa,geo.lat,geo.lon
58050201,บ้านแม่ลาหลวง,Ban Mae La Luang,58050201,58050201,18.539618162292708,97.88446739315987
58050202,บ้านแม่สุ,Ban Mae Su,58050202,58050202,18.480732186203948,97.90734127163887
58050203,บ้านห้วยกองเป๊าะ,Ban Huai Kong Po,58050203,58050203,18.5344733,97.8453735
58050204,บ้านห้วยกู่ป๊ะ,Ban Huai Kupa,58050204,58050204,18.5429256,97.8973685
58050205,บ้านสันติสุข,Ban Santi Suk,58050205,58050205,18.5385250,97.9329148
58050206,บ้านห้วยไก่ป่า,Ban Huai Kai Pa,58050206,58050206,18.5144303,97.8972763
58050207,บ้านสันติพัฒนา,Ban Santi Phatthana,58050207,58050207,18.5313014,97.9327421
58050208,บ้านทุ่งป่าคา,Ban Thung Pa Kha,58050208,58050208,18.464090,97.909492
58050209,บ้านสุขใจ,Ban Suk Chai,58050209,58050209,18.477079,97.905563
