id,name.local,name.en,name.slug,code.id,zip_codes,geo.lat,geo.lon
600901,โคกเดื่อ,Khok Duea,khok-duea-600901,600901,60220,15.622,100.604
600907,นาขอม,Na Khom,na-khom-600907,600907,60220,15.721,100.784
600908,ไพศาลี,Phaisali,phaisali-600908,600908,60220,15.637,100.7
600905,โพธิ์ประสาท,Pho Prasat,pho-prasat-600905,600905,60220,15.44,100.587
600902,สำโรงชัย,Samrong Chai,samrong-chai-600902,600902,60220,15.524,100.633
600904,ตะคร้อ,Takhro,takhro-600904,600904,60220,15.476,100.71
600906,วังข่อย,Wang Khoi,wang-khoi-600906,600906,60220,15.598,100.761
600903,วังน้ำลัด,Wang Nam Lat,wang-nam-lat-600903,600903,60220,15.709,100.666
