id,name.th,name.en,name.slug,code.dopa,geo.lat,geo.lon
90050101,บ้านท่าพรุ,Ban Tha Phru,90050101,90050101,6.833945881433082,100.95622569322586
90050102,บ้านพระพุทธ,Ban Phra Phut,90050102,90050102,6.86605576160587,100.96261739730835
90050103,บ้านพรุหมาก,Ban Phru Mak,90050103,90050103,6.820817691489426,100.96145734190941
90050104,บ้านท่าดี,Ban Tha Di,90050104,90050104,6.851857908707381,100.9542529284954
90050105,บ้านป่ากอ,Ban Pa Ko,90050105,90050105,07.805481,100.952324
90050106,บ้านป่าโอน,Ban Pa On,90050106,90050106,06.800172,100.931866
90050107,บ้านปากบาง,Ban Pak Bang,90050107,90050107,6.840131012887433,100.94704449176788
90050108,บ้านปากทุ่ง,Ban Pak Thung,90050108,90050108,06.810007,100.929093
