id,name.th,name.en,name.slug,code.dopa,geo.lat,geo.lon
56060501,บ้านปางค่า,Ban Pang Kha,56060501,56060501,19.335364825509604,100.43586641550064
56060502,บ้านห้วนกอก,Ban Huai Kok,56060502,56060502,19.25461348570529,100.49069344997406
56060503,บ้านปางพริก,Ban Pang Phrik,56060503,56060503,19.311440782421606,100.46597957611084
56060504,บ้านปางมะโอ-ห้วยเฟือง,Ban Pang Ma-o - Huai Fueang,56060504,56060504,19.35281208143294,100.53963169455528
56060505,บ้านน้ำต้ม,Ban Nam Tom,56060505,56060505,19.35479736679569,100.3929403424263
56060506,บ้านปางค่าเหนือ,Ban Pang Kha Nuea,56060506,56060506,19.334575175388323,100.44007748365402
56060507,บ้านสิบสองพัฒนา,Ban Sing Song Phatthana,56060507,56060507,19.386165209383933,100.41110962629318
