id,name.th,name.en,name.slug,code.dopa,geo.lat,geo.lon
61061101,บ้านบึง,Ban Bueng,61061101,61061101,15.081682796023031,99.53267812728882
61061102,บ้านพูลสุข,Ban Phun Suk,61061102,61061102,15.083135681560941,99.5483073592186
61061103,บ้านนาตาโพ,Ban Na Ta Pho,61061103,61061103,15.073634769876387,99.53239515423775
61061104,บ้านหน้าฝาย,Ban Na Fai,61061104,61061104,15.074605987901792,99.53857898712158
61061105,บ้านห้วยบง,Ban Huai Bong,61061105,61061105,15.021670738498443,99.54864263534546
61061106,บ้านวังตอ,Ban Wang To,61061106,61061106,14.972565067096854,99.56744626164436
61061107,บ้านไร่พริก,Ban Rai Phrik,61061107,61061107,14.993604147707336,99.56411227583885
