id,name.th,name.en,name.slug,code.dopa,geo.lat,geo.lon
96060601,บ้านบือแรง,Ban Bue Raeng,96060601,96060601,6.369959254146765,101.5956723690033
96060602,บ้านบูเกะนากอ,Ban Buke Nako,96060602,96060602,6.345077477835899,101.57726973295212
96060603,บ้านอีนอ,Ban Ino,96060603,96060603,6.350932827350826,101.58828288316727
96060604,บ้านกูยิ,Ban Kuyi,96060604,96060604,6.3373106732398785,101.59450426697731
96060605,บ้านลาโละ,Ban Lalo,96060605,96060605,6.333333256255648,101.56473979353905
96060606,บ้านไอร์บูโละ,Ban Ai Bulo,96060606,96060606,6.341417350758343,101.60086512565613
96060607,บ้านบริจ๊ะ,Ban Bariche,96060607,96060607,6.35394244842549,101.57757818698883
96060608,บ้านไทยสุข,Ban Thai Suk,96060608,96060608,6.3617849743818615,101.5983210504055
96060609,บ้านพงจือติ,Ban Phong Chueti,96060609,96060609,6.325246369272825,101.55263766646385
