id,name.th,name.en,name.slug,code.dopa,geo.lat,geo.lon
38070501,บ้านนาสิงห์สาคร,Ban Na Sing Sakhon,38070501,38070501,18.162512575861268,103.79390493035316
38070502,บ้านนาทราย,Ban Na Sai,38070502,38070502,18.216564493762974,103.75994816422462
38070503,บ้านนาสิงห์,Ban Na Sing,38070503,38070503,18.163577875363696,103.79128709435463
38070504,บ้านนาทรายสามัคคี,Ban Na Sai Samakkhi,38070504,38070504,18.21262048364479,103.75702992081642
38070505,บ้านทรายทอง,Ban Sai Thong,38070505,38070505,18.171299828175904,103.79675880074501
38070506,บ้านนาทรายเจริญสุข,Ban Na Sai Charoen Suk,38070506,38070506,18.21726767998083,103.76234605908394
38070507,บ้านนาสิงห์บุรี,Ban Na Sing Buri,38070507,38070507,18.167446539956757,103.79512801766396
38070508,บ้านนาสิงห์รุ่งเรือง,Ban Na Sing Rung Rueang,38070508,38070508,18.16641694325722,103.7921293079853
