id,name.th,name.en,name.slug,code.dopa,geo.lat,geo.lon
80040701,บ้านท้ายทุ่ง,Ban Thai Thung,80040701,80040701,8.418748694308889,99.48509842157364
80040702,บ้านด่านท่อม,Ban Dan Thom,80040702,80040702,8.408335651739513,99.4912514090538
80040703,บ้านวัดมะเฟื่อง,Ban Wat Ma Fueang,80040703,80040703,8.409711425861909,99.45892408490181
80040704,บ้านนาจิก,Ban Na Chik,80040704,80040704,8.44805733723061,99.46566849946976
80040705,บ้านนาเส,Ban Na Se,80040705,80040705,8.421782738757623,99.44501414895058
80040706,บ้านไทรเลียบ,Ban Sai Liap,80040706,80040706,8.42773136026907,99.44725379347801
80040707,บ้านโคกสมอ,Ban Khok Samo,80040707,80040707,8.410368134063347,99.47001233696938
