id,name.th,name.en,name.slug,code.dopa,geo.lat,geo.lon
40151101,บ้านวังหิน,Ban Wang Hin,40151101,40151101,15.88051117001149,102.71767258644104
40151102,บ้านวังทอง,Ban Wang Thong,40151102,40151102,15.879693358752624,102.71725282073021
40151103,บ้านหนองศาลา,Ban Nong Sala,40151103,40151103,15.884014563621882,102.723069190979
40151104,บ้านหนองคลองน้อย,Ban Nong Khlong Noi,40151104,40151104,15.849152052923882,102.7285797894001
40151105,บ้านหนองทุ่ม,Ban Nong Thum,40151105,40151105,15.847051724749077,102.71974861621857
40151106,บ้านหลักด่าน,Ban Lak Dan,40151106,40151106,15.881647586767762,102.76075288653374
40151107,บ้านหนองเสี้ยว,Ban Nong Siao,40151107,40151107,15.858025311148113,102.76409894227982
40151108,บ้านหนองยาง,Ban Nong Yang,40151108,40151108,15.873675765292685,102.77878940105438
