id,name.th,name.en,name.slug,code.dopa,geo.lat,geo.lon
24011401,บ้านไร่,Ban Rai,24011401,24011401,13.6758032384566,101.0269059240818
24011402,บ้านคลองบางกะไห,Ban Khlong Bang Kahai,24011402,24011402,13.675480073669462,101.02585852146149
24011403,บ้านหัวจาก,Ban Hua Chak,24011403,24011403,13.66991844244328,100.992451608181
24011404,บ้านบางเตย,Ban Bang Toei,24011404,24011404,13.6788993431297,101.022619754076
24011405,บ้านหนองขอน,Ban Nong Khon,24011405,24011405,13.681367336796823,100.997853577137
24011406,บ้านแขม,Ban Khaem,24011406,24011406,13.685521430315653,101.02379590272903
24011407,บ้านปลายคลองบางพระ,Ban Plai Khlong Ban Phra,24011407,24011407,13.681339972700556,101.02110832929611
24011408,บ้านบางกะโหลก,Ban Bang Kalok,24011408,24011408,13.68830989612064,101.00479781627655
24011409,บ้านบางเรือน,Ban Bang Ruean,24011409,24011409,13.678776854913654,100.99105417728424
