id,name.th,name.en,name.slug,code.dopa,geo.lat,geo.lon
55071701,บ้านทุ่งทอง,Ban Thung Thong,55071701,55071701,18.656526152569047,100.70445343852043
55071702,บ้านทุ่งเจริญ,Ban Thung Charoen,55071702,55071702,18.65174087800331,100.69143667817116
55071703,บ้านทุ่งผง,Ban Thung Phong,55071703,55071703,18.653438484209776,100.6892828643322
55071704,บ้านศรีนาชื่น,Ban Si Na Chuen,55071704,55071704,18.678694723404856,100.65685495734215
55071705,บ้านชื่นใหม่,Ban Chuen Mai,55071705,55071705,18.68001346381975,100.64917176961899
