id,name.th,name.en,name.slug,code.dopa,geo.lat,geo.lon
90100601,บ้านสองพี่น้อง,Ban Song Phi Nong,90100601,90100601,6.773777498937846,100.42433962225914
90100602,บ้านท่าโพธิ์ออก,Ban Tha Pho Ok,90100602,90100602,6.77590695137948,100.43880343437195
90100603,บ้านท่าโพธิ์ตก,Ban Tha Pho Tok,90100603,90100603,6.7806345951651865,100.43472647666931
90100604,บ้านโคกเนียนตก,Ban Khok Nian Tok,90100604,90100604,6.777728764391125,100.4197584092617
90100605,บ้านโคกเนียนออก,Ban Khok Nian Ok,90100605,90100605,6.7756525895122675,100.42176470160484
90100606,บ้านหนำคอก,Ban Nam Khok,90100606,90100606,6.781224548585993,100.42391046881676
90100607,บ้านเขาวังชิง,Ban Khao Wang Ching,90100607,90100607,6.819070612394502,100.42724043130875
90100608,บ้านทุ่งยาว–ม่วงหวาน,Ban Thung Yao - Muang Wan,90100608,90100608,6.808689209242169,100.44120535254478
