id,name.th,name.en,name.slug,code.dopa,geo.lat,geo.lon
40050701,บ้านไชยสอเหนือ,Ban Chai So Nuea,40050701,40050701,16.51982332855727,102.14921727776527
40050702,บ้านไชยสอ,Ban Chai So,40050702,40050702,16.51504029568768,102.14800491929054
40050703,บ้านหนองตาไก,Ban Nong Takai,40050703,40050703,16.520862208215547,102.14982882142067
40050704,บ้านโนนทองหลาง,Ban Non Thonglang,40050704,40050704,16.5131270493887,102.16216698288918
40050705,บ้านหนองสังข์,Ban Nong Sang,40050705,40050705,16.520306768301182,102.13757649064064
40050706,บ้านท่าเดื่อ,Ban Tha Duea,40050706,40050706,16.497583793034302,102.12602153420448
40050750,ไผ่กุดหิน1,Phai Kut Hin 1,40050750,40050750,16.509053623213674,102.12212696671486
40050751,หนองหว้า,Nong Wa,40050751,40050751,16.53400715323768,102.12013140320778
40050752,หนองโพนทอง,Nong Phon Thong,40050752,40050752,16.52176222320462,102.11683228611946
