id,name.th,name.en,name.slug,code.dopa,geo.lat,geo.lon
96050201,บ้านตะโละ,Ban Talo,96050201,96050201,6.295486283370963,101.75675243139267
96050202,บ้านทุ่งขมิ้น,Ban Thung Khamin,96050202,96050202,6.287118867616177,101.76454022526741
96050203,บ้านตอหลัง,Ban Tolang,96050203,96050203,6.2929028897932655,101.7852683365345
96050204,บ้านทุ่งเกร็ง,Ban Thung Kreng,96050204,96050204,6.301978036095479,101.80673941969872
96050205,บ้านป่าไผ่,Ban Pa Phai,96050205,96050205,6.264828652577251,101.76577672362328
96050206,บ้านลูโบ๊ะดีแย,Ban Lubo Diyae,96050206,96050206,6.274309542360265,101.7934638261795
96050207,บ้านตันหยงลิมอ,Ban Tanyong Limo,96050207,96050207,6.275929221557516,101.75120830535889
96050208,บ้านไอปาเซ,Ban Aipase,96050208,96050208,6.258953667192067,101.75379261374474
