id,name.th,name.en,name.slug,code.dopa,geo.lat,geo.lon
34111101,บ้านตระการ,Ban Trakan,34111101,34111101,15.474243470788416,105.03001034259796
34111102,บ้านเอ็นอ้า,Ban En A,34111102,34111102,15.499334352223176,104.9972739815712
34111103,บ้านโพนเมือง,Ban Phon Mueang,34111103,34111103,15.447528561812303,105.04903927445412
34111104,บ้านดอนหมู,Ban Don Mu,34111104,34111104,15.449408076309183,105.08119225502014
34111105,บ้านผักกะย่า,Ban Phak Kaya,34111105,34111105,15.438371178721782,105.04928201436996
34111106,บ้านตระการ,Ban Trakan,34111106,34111106,15.477031353209968,105.02808317542076
34111107,บ้านโพนเมือง,Ban Phon Mueang,34111107,34111107,15.448540709631757,105.04786178469658
34111108,บ้านม่วงตอย,Ban Muang Toi,34111108,34111108,15.441048371924069,105.04425957798958
34111109,บ้านแก่งหอไตร,Ban Kaeng Ho Trai,34111109,34111109,15.428167537093435,105.0603649020195
