id,name.th,name.en,name.slug,code.dopa,geo.lat,geo.lon
16032001,บ้านวังกระเบียน,Ban Wang Krabiang,16032001,16032001,15.092702205733353,100.69452255964279
16032002,บ้านท่าฉนวน,Ban Tha Chanuan,16032002,16032002,15.094705320244358,100.69582343101501
16032003,บ้านวังจั่น,Ban Wang Chan,16032003,16032003,15.084676609917969,100.67175026983023
16032004,บ้านวังจั่น,Ban Wang Chan,16032004,16032004,15.082112706146937,100.67129865288734
16032005,บ้านวังจั่น,Ban Wang Chan,16032005,16032005,15.08280030155617,100.66688507795334
16032006,บ้านวังจั่นน้อย,Ban Wang Chan Noi,16032006,16032006,15.09003351510772,100.666643679142
16032007,บ้านนาโคก,Ban Na Khok,16032007,16032007,15.109955303656655,100.65676644444466
