id,name.th,name.en,name.slug,code.dopa,geo.lat,geo.lon
83010301,บ้านสะปำ,Ban Sa Pa,83010301,83010301,7.936316349886246,98.3950862288475
83010302,บ้านบางคู,Ban Bang Khu,83010302,83010302,7.950529809993917,98.39076653122902
83010303,บ้านบางเหนียว,Ban Bang Niao,83010303,83010303,7.943344111352039,98.39504599571228
83010304,บ้านเกาะแก้ว,Ban Ko Kaeo,83010304,83010304,7.962897948768665,98.36910635232925
83010305,บ้านเกาะแก้ว,Ban Ko Kaeo,83010305,83010305,7.963284447090835,98.380047082901
83010306,บ้านเกาะมะพร้าว,Ban Ko Maphrao,83010306,83010306,7.939609092254681,98.42805996537209
83010307,บ้านแหลมหิน,Ban Laem Hin,83010307,83010307,7.9320658971759155,98.4013719856739
