id,name.th,name.en,name.slug,code.dopa,geo.lat,geo.lon
43080401,บ้านนางิ้ว,Ban Na Ngio,43080401,43080401,18.131083318691147,102.13916435837746
43080402,บ้านซำเจียง,Ban Sam Chiang,43080402,43080402,18.112865731956187,102.1442337334156
43080403,บ้านเทาใต้,Ban Thao Tai,43080403,43080403,18.084785550935894,102.14691191911697
43080404,บ้านเทากลาง,Ban Thao Klang,43080404,43080404,18.07338673326458,102.14989587664604
43080405,บ้านนาบอน,Ban Na Bon,43080405,43080405,18.057059165383254,102.14346796274185
43080406,บ้านดงป่าเปลือย,Ban Dong Pa Plueai,43080406,43080406,18.092021458961682,102.1477997303009
43080407,บ้านนางิ้ว,Ban Na Ngio,43080407,43080407,18.137594693170705,102.13223621249199
43080408,บ้านนาบอน,Ban Na Bon,43080408,43080408,18.06129228981161,102.1403619647026
43080409,บ้านเทพประทับ,Ban Thepha Prathap,43080409,43080409,18.030814069330734,102.16111823916435
