id,name.th,name.en,name.slug,code.dopa,geo.lat,geo.lon
76060801,บ้านไร่ภูมิ,Ban Ria Phum,76060801,76060801,13.022283913603186,99.9470043182373
76060802,บ้านหนองกระเจ็ด,Ban Nong Krachet,76060802,76060802,13.014834791489834,99.95822936296463
76060803,บ้านแค,Ban Khae,76060803,76060803,13.00524115272613,99.94696140289307
76060804,บ้านซ่อง,Ban Song,76060804,76060804,12.981603049854746,99.95444342494011
76060805,บ้านห้วยชะอ้อม,Ban Huai Cha Om,76060805,76060805,13.015269906867141,99.95128646492958
76060806,บ้านไร่มะซาง,Ban Rai Masang,76060806,76060806,12.993940515037346,99.93830054998398
76060807,บ้านประชาบำรุง,Ban Pracha Bamrung,76060807,76060807,12.982285213596532,99.95471566915512
76060808,บ้านร่วมใจพัฒนา,Ban Ruam Chai Phatthana,76060808,76060808,13.00141509249571,99.9473811686039
