id,name.th,name.en,name.slug,code.dopa,geo.lat,geo.lon
76051501,บ้านในดง,Ban Nai Dong,76051501,76051501,12.947526459652678,99.94610711932182
76051502,บ้านชายนา,Ban Chai Na,76051502,76051502,12.948961550117716,99.93849769234657
76051503,บ้านหัวเข้,Ban Hua Khe,76051503,76051503,12.941928482255712,99.9259127676487
76051504,บ้านใหม่,Ban Mai,76051504,76051504,12.947434969087789,99.92705002427101
76051505,บ้านในดง,Ban Nai Dong,76051505,76051505,12.937664890517993,99.94675621390343
76051506,บ้านหนองค่าง,Ban Nong Khang,76051506,76051506,12.940068561408838,99.94771376252174
