id,name.th,name.en,name.slug,code.dopa,geo.lat,geo.lon
61040401,บ้านหนองหมอ,Ban Nong Mo,61040401,61040401,15.386799712487148,99.83718127012253
61040402,บ้านหนองสรวง,Ban Nong Suang,61040402,61040402,15.392102380288797,99.82787132263184
61040403,บ้านเนินเพิ่ม,Ban Noen Phoem,61040403,61040403,15.384873081858105,99.81676161289215
61040404,บ้านหนองหญ้าปล้อง,Ban Nong Ya Plong,61040404,61040404,15.362164651665418,99.79185998439789
61040405,บ้านบ่อทับใต้,Ban Bo Thap Tai,61040405,61040405,15.36136675339798,99.7906744480133
