id,name.th,name.en,name.slug,code.dopa,geo.lat,geo.lon
20011301,บ้านดอนล่าง,Ban Don Lang,20011301,20011301,13.277136438400838,100.95634907484055
20011302,บ้านดอนกลาง,Ban Don Klang,20011302,20011302,13.258033242602023,100.95591589808464
20011303,บ้านท้ายดอน,Ban Thai Don,20011303,20011303,13.24106166266119,100.96128568053246
20011304,บ้านดอนบน,Ban Don Bon,20011304,20011304,13.268411940016527,100.96820443868637
20011305,บ้านไร่ใหหลำ,Ban Rai Hai Lam,20011305,20011305,13.2868538866008,100.97848132252693
