id,name.th,name.en,name.slug,code.dopa,children_count.villages,zip_codes,geo.lat,geo.lon
320806,หัวงัว,Hua Ngua,hua-ngua,320806,8,32160,15.124,103.838
320805,แคน,Khaen,khaen,320805,15,32160,15.170,103.828
320804,นานวน,Na Nuan,na-nuan,320804,13,32160,15.139,103.793
320807,หนองอียอ,Nong I Yo,nong-i-yo,320807,11,32160,15.157,103.714
320803,หนองระฆัง,Nong Rakhang,nong-rakhang,320803,8,32160,15.152,103.755
320802,โพนโก,Phon Ko,phon-ko,320802,12,32160,15.251,103.766
320801,สนม,Sanom,sanom,320801,12,32160,15.203,103.761
