id,name.th,name.en,name.slug,code.dopa,children_count.villages,zip_codes,geo.lat,geo.lon
332004,โนนเพ็ก,Non Phek,non-phek,332004,11,33230,14.933,104.327
332005,หนองค้า,Nong Kha,nong-kha,332005,7,33230,14.898,104.334
332001,พยุห์,Phayu,phayu,332001,13,33230,14.935,104.387
332002,พรหมสวัสดิ์,Phrom Sawat,phrom-sawat,332002,20,33230,14.852,104.427
332003,ตำแย,Tamyae,tamyae,332003,15,33230,14.918,104.422
