id,name.th,name.en,name.slug,code.dopa,geo.lat,geo.lon
76040501,บ้านหนองศาลา,Ban Nong Sala,76040501,76040501,12.892318878483266,99.97850149869919
76040502,บ้านหนองศาลา (หนองรี),Ban Nong Sala (Nong Ri),76040502,76040502,12.896499578598007,99.97878044843674
76040503,บ้านหันกัญชา,Ban Han Kancha,76040503,76040503,12.880449649919335,99.98033612966537
76040504,บ้านเพชรบูรณ์,Ban Phetchabun,76040504,76040504,12.888457094076246,99.99284327030182
76040505,บ้านบ่อไร่,Ban Bo Rai,76040505,76040505,12.917341901437927,100.00758334994316
76040506,บ้านสถานีรถไฟ,Ban Sathani Rot Fai,76040506,76040506,12.904788871541509,99.97126623988152
76040507,บ้านหนองกระโดก,Ban Nong Kratok,76040507,76040507,12.891899235872367,99.98284131288528
76040508,บ้านข่อยกลึงดุม,Ban Khoi Klueng Dum,76040508,76040508,12.900965189875423,99.98945966362953
