id,name.th,name.en,name.slug,code.dopa,geo.lat,geo.lon
37050401,บ้านนาเวียง,Ban Na Wiang,37050401,37050401,16.02002950266548,104.59914967417717
37050402,บ้านโคกกลาง,Ban Khok Klang,37050402,37050402,16.03719468457564,104.57796961069107
37050403,บ้านหนองคู,Ban Nong Khu,37050403,37050403,16.029431415540053,104.54099670052528
37050404,บ้านโนนสูง,Ban Non Sung,37050404,37050404,16.058606231538416,104.55942884087563
37050405,บ้านห่องเตย,Ban Hong Toei,37050405,37050405,16.014819203327356,104.56265687942505
37050406,บ้านโนนหนามแท่ง,Ban Non Nam Thaeng,37050406,37050406,16.020505151618423,104.53732207417488
37050407,บ้านหนองคู,Ban Nong Khu,37050407,37050407,16.02880884575865,104.53872889280319
37050408,บ้านโนนสูง,Ban Non Sung,37050408,37050408,16.057777548384962,104.56051781773567
37050409,บ้านโคกกลาง,Ban Khok Klang,37050409,37050409,16.036204797586105,104.57805544137955
