id,name.th,name.en,name.slug,code.dopa,geo.lat,geo.lon
71060101,บ้านวัดศรีโลหะราษฎร์บำรุง,Ban Wat Si Loha Rat Bamrung,71060101,71060101,13.960486368317454,99.63452160358429
71060102,บ้านท่าม่วง,Ban Tha Muang,71060102,71060102,13.973512627623018,99.63765174150467
71060103,บ้านแขก,Ban Khaek,71060103,71060103,13.973952506426059,99.63427618145943
71060104,บ้านหนามแดง,Ban Nam Daeng,71060104,71060104,13.97665813300717,99.62826803326607
71060105,บ้านคันคูน้ำ,Ban Khan Khu Nam,71060105,71060105,13.977523562406644,99.62511509656906
