id,name.th,name.en,name.slug,code.dopa,geo.lat,geo.lon
40210301,บ้านโนน,Ban Non,40210301,40210301,16.529416038320807,102.98155635595322
40210302,บ้านโนน,Ban Non,40210302,40210302,16.529673174498594,102.97974452376366
40210303,บ้านโพธิ์ศรี,Ban Pho Si,40210303,40210303,16.53190638779851,102.97919869422913
40210304,บ้านกุดทิง,Ban Kut Hing,40210304,40210304,16.53485825243367,102.98138737678528
40210305,บ้านนายม,Ban Na Yom,40210305,40210305,16.547493162677103,103.00102651119232
40210306,บ้านโคกใหม่,Ban Khok Mai,40210306,40210306,16.549829013409102,102.99344658851624
40210307,บ้านดงซำ,Ban Dong Sam,40210307,40210307,16.550376655110554,103.01319167017937
40210308,บ้านแห้วคำ,Ban Haeo Kham,40210308,40210308,16.532641786869025,103.02912265062332
40210309,บ้านแห้ว,Ban Haeo,40210309,40210309,16.5367365713649,103.02760317921638
