id,name.local,name.en,name.slug,code.id,zip_codes,geo.lat,geo.lon
801403,ฉลอง,Chalong,chalong-801403,801403,80120,8.89,99.773
801408,เขาน้อย,Khao Noi,khao-noi-801408,801408,80120,8.945,99.787
801405,เปลี่ยน,Plian,plian-801405,801405,80120,8.833,99.87
801404,เสาเภา,Sao Phao,sao-phao-801404,801404,80340,8.89,99.904
801406,สีขีด,Si Khit,si-khit-801406,801406,80120,9.023,99.786
801401,สิชล,Sichon,sichon-801401,801401,80120,9.008,99.902
801407,เทพราช,Theppharat,theppharat-801407,801407,80340,8.841,99.735
801402,ทุ่งปรัง,Thung Prang,thung-prang-801402,801402,80120,8.958,99.876
801409,ทุ่งใส,Thung Sai,thung-sai-801409,801409,80120,9.06,99.89
