id,name.th,name.en,name.slug,code.dopa,geo.lat,geo.lon
76070701,บ้านท้องคุ้ง,Ban Thong Khung,76070701,76070701,13.263332947259967,99.9241478741169
76070702,บ้านสามคลอง,Ban Sam Khlong,76070702,76070702,13.261488506504358,99.93746638298035
76070703,บ้านปากอ่าง,Ban Pak Ang,76070703,76070703,13.263975169630946,99.94292870163918
76070704,บ้านบางกั้ง,Ban Bang Kang,76070704,76070704,13.24499626092922,99.91837039589882
76070705,บ้านเหมืองตานิ่ม,Ban Mueang Tanim,76070705,76070705,13.242911480052365,99.96181547641754
