id,name.th,name.en,name.slug,code.dopa,geo.lat,geo.lon
92020301,บ้านบางหมาก,Ban Bang Mak,92020301,92020301,7.47504767291124,99.55629900097847
92020302,บ้านพรุใหญ่,Ban Phru Yai,92020302,92020302,7.486473698006391,99.5920367538929
92020303,บ้านบางหมาก,Ban Bang Mak,92020303,92020303,7.480886378534705,99.55848231911659
92020304,บ้านโต๊ะเมือง,Ban To Mueang,92020304,92020304,7.44303379834293,99.54932123422623
92020305,บ้านไร่ใหญ่,Ban Rai Yai,92020305,92020305,7.454705337557127,99.56265717744827
92020306,บ้านตะเคียนหลบฟ้า,Ban Takhian Lop Fa,92020306,92020306,7.475680613117967,99.59255039691925
