id,name.th,name.en,name.slug,code.dopa,geo.lat,geo.lon
30012301,บ้านมะเริงน้อย,Ban Maroeng Noi,30012301,30012301,14.992696037981021,102.19272270798683
30012302,บ้านพุดซา,Ban Phutsa,30012302,30012302,14.992882582946965,102.18478336930275
30012303,บ้านหนองสายไพร,Ban Nong Sai Phrai,30012303,30012303,14.982542046519464,102.18848884105682
30012304,บ้านคอนอินทร์,Ban Khon In,30012304,30012304,14.984946505481,102.178253531456
30012305,บ้านพะเนา,Ban Phanao,30012305,30012305,14.99008698231479,102.19994723796844
30012306,บ้านพะเนา,Ban Phanao,30012306,30012306,14.988698236633232,102.20112204551697
30012307,บ้านมะเริงใหญ่,Ban Maroeng Yai,30012307,30012307,14.988698236633232,102.20112204551697
30012308,บ้านยองแยง,Ban Yong Yaeng,30012308,30012308,14.997507291552106,102.20676943659782
30012309,บ้านใหม่ยองแยง,Ban Mai Yong Yaeng,30012309,30012309,14.995693692251724,102.21601366996765
