id,name.th,name.en,name.slug,code.dopa,geo.lat,geo.lon
90040301,บ้านนาหมอศรี,Ban Na Mo Si,90040301,90040301,6.774624486776185,100.66946536302567
90040302,บ้านทุ่งแหลใต้,Ban Thung Lae Tai,90040302,90040302,6.779471998612385,100.67070454359055
90040303,บ้านทุ่งแหลกลาง,Ban Thung Lae Klang,90040303,90040303,6.77613734185546,100.67508190870285
90040304,บ้านทุ่งแหลเหนือ,Ban Thung Lae Nuea,90040304,90040304,6.7803322936967705,100.67453473806381
90040305,บ้านปลักจอก,Ban Plak Chok,90040305,90040305,6.780325635071988,100.67580074071884
90040306,บ้านโมยออก,Ban Moi Ok,90040306,90040306,6.803419855428837,100.67184448242188
90040307,บ้านโมยตก,Ban Moi Tok,90040307,90040307,6.782850578993017,100.6659422814846
90040308,บ้านท่าโก,Ban Tha Ko,90040308,90040308,6.76963309675569,100.66735044121742
