id,name.th,name.en,name.slug,code.dopa,geo.lat,geo.lon
71011601,บ้านดงยาง,Ban Dong Yang,71011601,71011601,13.906718098119386,99.46874767541885
71011602,บ้านนากาญจน์,Ban Na Kan,71011602,71011602,13.932874876758257,99.44806382060051
71011603,บ้านวังเย็น,Ban Wang Yen,71011603,71011603,13.94297153318352,99.41178157925606
71011604,บ้านหนองกลางพง,Ban Nong Klang Phong,71011604,71011604,13.94490568819891,99.38644409179688
71011605,บ้านวังตะเคียน,Ban Wang Takhian,71011605,71011605,13.95399053315521,99.35315519571304
71011606,บ้านลุ่มโป่งเสี้ยว,Ban Lum Pong Siao,71011606,71011606,13.951578789001754,99.34293329715729
71011607,บ้านสะพานหิน,Ban Saphan Hin,71011607,71011607,13.94873620441939,99.3492029607296
