id,name.th,name.en,name.slug,code.dopa,geo.lat,geo.lon
50220101,บ้านใหม่ปางเติม,Ban Mai Pang Toem,50220101,50220101,18.61708109711064,98.77096965909004
50220102,บ้านหัวฝาย,Ban Hua Fai,50220102,50220102,13.72706875088845,100.5340875685215
50220103,บ้านกิ่วแลป่าเป้า,Ban Kio Lae Pa Pao,50220103,50220103,18.601751732987022,98.80546420812607
50220104,บ้านมะกายอน,Ban Makayon,50220104,50220104,18.593188498208878,98.83119329810143
50220105,บ้านกาด,Ban Kat,50220105,50220105,18.60012733176167,98.81703123450279
50220106,บ้านน้ำต้น,Ban Nam Ton,50220106,50220106,18.58975011817434,98.81985425949097
50220107,บ้านริมวาง,Ban Rim Wang,50220107,50220107,18.59402742698108,98.8227429986
50220108,บ้านอัมพาราม,Ban Ampharam,50220108,50220108,18.595220986703076,98.81992802023888
50220109,บ้านปง,Ban Pong,50220109,50220109,18.60284228473789,98.81160512566566
