id,name.th,name.en,name.slug,code.dopa,geo.lat,geo.lon
80041001,บ้านเพ็ญมิตร,Ban Phen Mit,80041001,80041001,8.407761194947176,99.5201676338911
80041002,บ้านปากทอน,Ban Pak Thom,80041002,80041002,8.431170,99.516691
80041003,บ้านปลายคลองเพรง,Ban Plai Khlong Phreng,80041003,80041003,8.457727,99.564314
80041004,บ้านตรอกแค,Ban Trok Khae,80041004,80041004,8.439844561484872,99.55628458410501
80041005,บ้านควนสะตอ,Ban Khuan Sato,80041005,80041005,8.458174,99.550745
80041006,บ้านควน,Ban Khuan,80041006,80041006,8.427143997663745,99.52590320259333
80041007,บ้านโคกหาด,Ban Khok Hat,80041007,80041007,8.421669974085601,99.55852691084145
80041008,บ้านไสหร้า,Ban Saira,80041008,80041008,8.446919,99.532854
80041009,บ้านสวนจีน,Ban Suan Chin,80041009,80041009,8.397419832122349,99.5610498636961
