id,name.local,name.en,name.slug,code.id,zip_codes,geo.lat,geo.lon
390202,ด่านช้าง,Dan Chang,dan-chang-390202,390202,39170,17.315,102.14
390211,ดงสวรรค์,Dong Sawan,dong-sawan-390211,390211,39350,17.443,102.193
390206,ฝั่งแดง,Fang Daeng,fang-daeng-390206,390206,39170,17.221,102.223
390207,เก่ากลอย,Kao Kloi,kao-kloi-390207,390207,39350,17.397,102.339
390205,กุดดินจี่,Kut Din Chi,kut-din-chi-390205,390205,39350,17.349,102.273
390213,กุดแห่,Kut Hae,kut-hae-390213,390213,39170,17.391,102.149
390201,นากลาง,Na Klang,na-klang-390201,390201,39170,17.312,102.214
390209,โนนเมือง,Non Mueang,non-mueang-390209,390209,39170,17.181,102.154
390210,อุทัยสวรรค์,Uthai Sawan,uthai-sawan-390210,390210,39170,17.235,102.143
