id,name.th,name.en,name.slug,code.dopa,geo.lat,geo.lon
85030301,บ้านน้ำแดง,Ban Nam Daeng,85030301,85030301,9.58396000915557,98.64488571882248
85030302,บ้านย่านยาว,Ban Yan Yao,85030302,85030302,9.577366527070588,98.66884991526604
85030303,บ้านเชี่ยวเหลียง,Ban Chiao Liang,85030303,85030303,9.571660271457558,98.67391392588615
85030304,บ้านขุนรอง,Ban Khun Rong,85030304,85030304,9.558214817127196,98.66322532296181
85030305,บ้านนาใน,Ban Na Nai,85030305,85030305,9.576678872146639,98.67977857589722
85030306,บ้านหล่อไหล,Ban Lo Lai,85030306,85030306,9.567657239580727,98.6844576895237
85030307,บ้านชนนิมิตร,Ban Chon Nimit,85030307,85030307,9.590508402863202,98.68475139141083
