id,name.th,name.en,name.slug,code.dopa,geo.lat,geo.lon
30010301,บ้านต่างตา,Ban Tang Ta,30010301,30010301,15.00446618841346,102.0677961409092
30010302,บ้านกรีน,Ban Krin,30010302,30010302,15.002771824110697,102.05991044640541
30010303,บ้านถนนหัก,Ban Thanon Hak,30010303,30010303,14.885206205230027,102.05451384186745
30010304,บ้านหนองปรุ,Ban Nong Pru,30010304,30010304,14.906204599159116,102.06078216433525
30010305,บ้านบุญเรือง,Ban Bun Rueang,30010305,30010305,14.948954530336728,102.06242099404335
