id,name.th,name.en,name.slug,code.dopa,geo.lat,geo.lon
25010401,บ้านสะพานหิน,Ban Saphan Hin,25010401,25010401,14.009674885022218,101.38104870915413
25010402,บ้านสามเรือน,Ban Sam Ruean,25010402,25010402,14.036406752552917,101.3381963968277
25010403,บ้านบางเดชะ,Ban Bang Decha,25010403,25010403,13.960880719877945,101.35216802358627
25010404,บ้านอินทนิล,Ban In Thanin,25010404,25010404,14.00455065039923,101.32633566856384
25010405,"บ้านย่านขาว,หัวกรด","Ban Yan Khao, Hua Krot",25010405,25010405,13.975045692711282,101.35740637779236
25010406,"บ้านสะพานหิน,ปากคลองช้าง","Ban Saphan Hin, Pak Khlong Chang",25010406,25010406,13.995156790941115,101.38520076870918
25010407,บ้านคลองหัวกรด,Ban Khlong Hua Krot,25010407,25010407,13.981168741347842,101.37319386005402
25010408,บ้านสนามพลี,Ban Sanam Phli,25010408,25010408,13.93758679148137,101.38781726360321
25010409,บ้านคลองหัวกรด,Ban Khlong Hua Krot,25010409,25010409,13.977476712176589,101.34661182761192
