id,name.th,name.en,name.slug,code.dopa,geo.lat,geo.lon
66012001,บ้านวัดขนุน,Ban Wat Khanun,66012001,66012001,16.358127400853878,100.33417716622353
66012002,บ้านดงกลาง,Ban Dong Klang,66012002,66012002,16.349165803865358,100.33654689788818
66012003,บ้านดงกลาง,Ban Dong Klang,66012003,66012003,16.349686987842965,100.3378115594387
66012004,บ้านดงป่าคำเหนือ,Ban Dong Pa Kham Nuea,66012004,66012004,16.331160295851962,100.35275682806969
66012005,บ้านดงป่าคำใต้,Ban Dong Pa Kham Tai,66012005,66012005,16.325918297789094,100.36582723259926
66012006,บ้านเนินถ่อน,Ban Noen Thon,66012006,66012006,16.30969462720049,100.33505156636238
66012007,บ้านดงกลาง,Ban Dong Klang,66012007,66012007,16.342512543009114,100.34807503223419
66012008,บ้านดงป่าคำ,Ban Dong Pa Kham,66012008,66012008,16.327319867132992,100.35921692848206
66012009,บ้านดงกลาง,Ban Dong Klang,66012009,66012009,16.33056184258386,100.34774914383888
