id,name.th,name.en,name.slug,code.dopa,geo.lat,geo.lon
72011401,บ้านสามทอง,Ban Sam Thong,72011401,72011401,14.565734067197422,100.04126250743866
72011402,บ้านตลิ่งชัน,Ban Taling Chan,72011402,72011402,14.55076241476514,100.03767505288124
72011403,บ้านหนองศาลา,Ban Nong Sala,72011403,72011403,14.559791738236127,99.99205604195595
72011404,บ้านหนองแต้,Ban Nong Tae,72011404,72011404,14.573472613764052,99.96554508805275
72011405,บ้านระฆังทอง,Ban Rakhang Thong,72011405,72011405,14.564950073156794,99.99379679560661
72011406,บ้านหนองแดง,Ban Nong Daeng,72011406,72011406,14.570055070420812,99.97144594788551
72011407,บ้านหนองบัว,Ban Nong Bua,72011407,72011407,14.576221666378116,99.95197981595993
