id,name.th,name.en,name.slug,code.dopa,geo.lat,geo.lon
26020101,บ้านเกาะหวาย,Ban Ko Wai,26020101,26020101,14.170947628048651,101.25710651278496
26020102,บ้านคลองตะเคียน,Ban Khlong Takhian,26020102,26020102,14.183786369407818,101.26585721969604
26020103,บ้านท่าแดง,Ban Tha Daeng,26020103,26020103,14.16713383318633,101.27072811126709
26020104,บ้านใหม่,Ban Mai,26020104,26020104,14.166556492136262,101.26330241560936
26020105,บ้านดงแขวน,Ban Dong Khwaen,26020105,26020105,14.167362688691648,101.28471851348877
26020106,บ้านยอยใฮ,Ban Yai Hai,26020106,26020106,14.176087632700499,101.26384019851685
