id,name.local,name.en,name.slug,code.id,zip_codes,geo.lat,geo.lon
360201,บ้านเขว้า,Ban Khwao,ban-khwao-360201,360201,36170,15.753,101.911
360204,ชีบน,Chi Bon,chi-bon-360204,360204,36170,15.866,101.759
360203,ลุ่มลำชี,Lum Lam Chi,lum-lam-chi-360203,360203,36170,15.697,101.932
360206,โนนแดง,Non Dang,non-dang-360206,360206,36170,15.804,101.93
360205,ภูแลนคา,Phu Laen Kha,phu-laen-kha-360205,360205,36170,15.876,101.84
360202,ตลาดแร้ง,Talat Raeng,talat-raeng-360202,360202,36170,15.778,101.861
