id,name.local,name.en,name.slug,code.id,zip_codes,geo.lat,geo.lon
451608,บ้านบาก,Ban Bak,ban-bak-451608,451608,45000,15.987,103.518
451603,เมืองเปลือย,Mueang Plueai,mueang-plueai-451603,451603,45000,16.011,103.551
451607,หนองแวงควง,Nong Waeng Khuang,nong-waeng-khuang-451607,451607,45000,15.95,103.506
451604,หนองใหญ่,Nong Yai,nong-yai-451604,451604,45000,16.044,103.541
451606,โพธิ์สัย,Pho Sai,pho-sai-451606,451606,45280,16.096,103.475
451601,โพธิ์ทอง,Pho Thong,pho-thong-451601,451601,45000,15.973,103.535
451602,ศรีสมเด็จ,Si Somdet,si-somdet-451602,451602,45000,15.98,103.474
451605,สวนจิก,Suan Chik,suan-chik-451605,451605,45280,16.034,103.492
