id,name.th,name.en,name.slug,code.dopa,geo.lat,geo.lon
90020201,บ้านดอนแย้,Ban Don Yae,90020201,90020201,7.526651885773275,100.42341828346252
90020202,บ้านหนองมวง,Ban Nong Muang,90020202,90020202,7.515960845698874,100.42767763137817
90020203,บ้านกระดังงา,Ban Kradang-nga,90020203,90020203,7.520176930884858,100.42755827307701
90020204,บ้านพังเป็ด,Ban Phang Pet,90020204,90020204,7.5028815472048365,100.43532192707062
90020205,บ้านบ่อกุด,Ban Bo Kut,90020205,90020205,7.497584299450806,100.43408140540123
90020206,บ้านพังเถียะ,Ban Phang Thia,90020206,90020206,7.497541751015078,100.43405994772911
90020207,บ้านพังสาย,Ban Phang Sai,90020207,90020207,7.492203218983939,100.43263837695122
