id,name.th,name.en,name.slug,code.dopa,geo.lat,geo.lon
48020801,บ้านหนองเทาใหญ่,Ban Nong Thao Yai,48020801,48020801,17.1777885311747,104.52826157212257
48020802,บ้านหนองเทาน้อย,Ban Nong Thao Noi,48020802,48020802,17.110505201058032,104.52744215726852
48020803,บ้านนาเชือกน้อย,Ban Na Chueak Noi,48020803,48020803,17.08905394622801,104.55296471714973
48020804,บ้านนาเชือกใหญ่,Ban Na Chueak Yai,48020804,48020804,17.098187214525513,104.54131186008453
48020805,บ้านตับเต่า,Ban Tap Tao,48020805,48020805,17.120902434106373,104.52854588627815
48020806,บ้านหนองดู่,Ban Nong Du,48020806,48020806,17.137600619705637,104.52620968222618
48020807,บ้านหนองหมากแก้ว,Ban Nong Mak Kaeo,48020807,48020807,17.149290635423586,104.5274569094181
48020808,บ้านตับเต่า,Ban Tap Tao,48020808,48020808,17.12095882777027,104.52747568488121
