id,name.th,name.en,name.slug,code.dopa,geo.lat,geo.lon
23040501,บ้านนนทรีย์,Ban Nonsi,23040501,23040501,12.530859687143137,102.56771698594093
23040502,บ้านสระใหญ่,Ban Sa Yai,23040502,23040502,12.529435318818434,102.55077883601189
23040503,บ้านมะม่วง,Ban Mamuang,23040503,23040503,12.43160511452007,102.50481113791466
23040504,บ้านคลองโอน,Ban Khlong On,23040504,23040504,12.552088125911666,102.57947847247124
23040505,บ้านทุ่งตอง,Ban Thung Tong,23040505,23040505,12.515471379672904,102.5897553563118
