id,name.th,name.en,name.slug,code.dopa,geo.lat,geo.lon
96030601,บ้านบือเระ,Ban Bue Re,96030601,96030601,6.531428021515878,101.687201410532
96030602,บ้านบูเกะสูดอ,Ban Buke Sudo,96030602,96030602,6.530126264809487,101.7098593711853
96030603,บ้านคลอแระ,Ban Khlorae,96030603,96030603,6.548795556723051,101.6973240673542
96030604,บ้านตันหยง,Ban Tanyong,96030604,96030604,6.5375996612596685,101.6794390976429
96030605,บ้านชูโว,Ban Chuwo,96030605,96030605,6.550290455578685,101.67121946811676
96030606,บ้านฮูแตยือลอ,Ban Hutae Yuelo,96030606,96030606,6.4818896006198194,101.7274734377861
96030607,บ้านบือเระ 2,Ban Bue Re 2,96030607,96030607,6.525554766898592,101.68825283646584
