id,name.th,name.en,name.slug,code.dopa,geo.lat,geo.lon
90040401,บ้านคลองทราย,Ban Khlong Sai,90040401,90040401,6.774011885658294,100.65407887101173
90040402,บ้านลำชิง,Ban Lam Ching,90040402,90040402,6.752703537009943,100.65268948674202
90040403,บ้านลำพด,Ban Lam Phot,90040403,90040403,6.740530721534169,100.61343804001808
90040404,บ้านใหม่,Ban Mai,90040404,90040404,6.7363221058791884,100.60586348176003
90040405,บ้านล่องมุด,Ban Long Mut,90040405,90040405,6.756818785043806,100.6298665702343
90040406,บ้านปลายคลอง,Ban Plai Khlong,90040406,90040406,6.6970896615496684,100.58616533875465
90040407,บ้านโต้นนท์,Ban To Non,90040407,90040407,6.738548947573506,100.57644501328468
90040408,บ้านเขานา,Ban Khao Na,90040408,90040408,6.788631532080098,100.62316104769707
