id,name.th,name.en,name.slug,code.dopa,geo.lat,geo.lon
21070301,บ้านศรีประชา,Ban Si Pracha,21070301,21070301,12.909930160574438,101.64717212319374
21070302,บ้านคลองโพล,Ban Khlong Phon,21070302,21070302,12.92524359461661,101.68601587414742
21070303,บ้านชำฆ้อ,Ban Cham Kho,21070303,21070303,12.936874118249298,101.65409222245216
21070304,บ้านเขาช่องลม,Ban Khao Chong Lom,21070304,21070304,12.97630118852683,101.62314087152481
21070305,บ้านสวนขนุน,Ban Suan Khanun,21070305,21070305,12.967295475566827,101.66599452495575
21070306,บ้านโปร่งสะท้อน,Ban Prong Sathon,21070306,21070306,12.919596752525692,101.6287936270237
21070307,บ้านสี่แยกเนินสมบูรณ์,Ban Si Yaek Noen Sombun,21070307,21070307,12.988815333804496,101.67320966720581
21070308,บ้านหนองปลาไหล,Ban Nong Pla Lai,21070308,21070308,12.899084047768321,101.65675699710846
21070309,บ้านเขาบ่อแป้ง,Ban Khao Bo Paeng,21070309,21070309,12.898396427317833,101.69422343373299
