id,name.th,name.en,name.slug,code.dopa,geo.lat,geo.lon
12060501,บ้านตาล,Ban Tan,12060501,12060501,13.936981537099525,100.49762561917305
12060502,บ้านน้อย,Ban Noi,12060502,12060502,13.922625479488666,100.49635156989098
12060503,บ้านตำหนัก,Ban Tamnak,12060503,12060503,13.919116056368566,100.49460545182228
12060504,บ้านแหลม,Ban Laem,12060504,12060504,13.91709707256215,100.4921244084835
12060505,บ้านแหลมเหนือ,Ban Laem Nuea,12060505,12060505,13.930425163772346,100.4872240126133
