id,name.th,name.en,name.slug,code.dopa,geo.lat,geo.lon
90060601,บ้านทัพหลวง,Ban Thap Luang,90060601,90060601,6.620780092984866,100.82067623734474
90060602,บ้านถ้ำครก,Ban Tham Khrok,90060602,90060602,6.589878327645068,100.84297344088554
90060603,บ้านวังเอาะ,Ban Wang O,90060603,90060603,6.601448730897658,100.84810450673103
90060604,บ้านปลายนา,Ban Plai Na,90060604,90060604,6.584786465316248,100.84190592169762
90060605,บ้านใต้,Ban Tai,90060605,90060605,6.563707038832563,100.83965420722961
90060606,บ้านล่องควน,Ban Long Khuan,90060606,90060606,6.608077777372588,100.8871641755104
90060607,บ้านห้วยเต่า,Ban Huai Tao,90060607,90060607,6.654501255174571,100.82316935062408
90060608,บ้านทับยาง,Ban Thap Yang,90060608,90060608,6.590449859950148,100.81006273627281
