id,name.th,name.en,name.slug,code.dopa,geo.lat,geo.lon
16042201,บ้านห้วยหิน,Ban Huai Hin,16042201,16042201,15.096011801690517,100.95968574285507
16042202,บ้านเขาแหลม,Ban Khao Laem,16042202,16042202,15.044241026235461,100.94559878110886
16042203,บ้านหนองเกตุ,Ban Nong Ket,16042203,16042203,15.06122221317131,100.95035836100578
16042204,บ้านเขากำพร้า,Ban Khao Kamphra,16042204,16042204,15.087179623515832,101.00502446293831
16042205,บ้านหน้าค่าย,Ban Na Khai,16042205,16042205,15.077757883585916,100.93227759003639
16042206,บ้านสี่แยกตลาดหงษ์ไทย,Ban Si Yaek Talat Hong Thai,16042206,16042206,15.078501175104375,100.99622949957848
16042207,บ้านฝายพัฒนา,Ban Fai Phatthana,16042207,16042207,15.078121760071976,100.96576765179634
16042208,บ้านเนินทองพัฒนา,Ban Noen Thong Phatthana,16042208,16042208,13.72706875088845,100.5340875685215
