id,name.th,name.en,name.slug,code.dopa,geo.lat,geo.lon
24070101,บ้านไผ่ขวาง,Ban Phai Khwang,24070101,24070101,13.775691968853664,101.24373435974121
24070102,บ้านราชสาส์น,Ban Ratchasan,24070102,24070102,13.774773684695754,101.27923876047134
24070103,บ้านจระเข้ตาย,Ban Chorakhe Tai,24070103,24070103,13.758738950194433,101.28314137458801
24070104,บ้านเตาอิฐ,Ban Tao It,24070104,24070104,13.750020334780466,101.30232453346252
24070105,บ้านดอนทอง,Ban Don Thong,24070105,24070105,13.801768429313409,101.28833681344986
24070106,บ้านจระเข้ตาย,Ban Chorakhe Tai,24070106,24070106,13.773389087718401,101.27928033471107
