id,name.th,name.en,name.slug,code.dopa,geo.lat,geo.lon
55120401,บ้านนากอก,Ban Na Kok,55120401,55120401,19.03534855143961,101.17074072360992
55120402,บ้านห่างทางหลวง,Ban Hang Thang Luang,55120402,55120402,13.72706875088845,100.5340875685215
55120403,บ้านผาสุข,Ban Pha Suk,55120403,55120403,19.001820269618328,101.21259659528732
55120404,บ้านสบมาง,Ban Sop Mang,55120404,55120404,18.99388097350208,101.21339187026024
55120405,บ้านห้วยล้อม,Ban Huai Lom,55120405,55120405,18.990993516987913,101.20934844017029
55120406,บ้านห้วยลอย,Ban Huai Loi,55120406,55120406,18.979467285912538,101.15801900625229
