id,name.th,name.en,name.slug,code.dopa,geo.lat,geo.lon
85050201,บ้านทะเลนอก,Ban Thale Nok,85050201,85050201,9.461244274031978,98.4432452917099
85050202,บ้านเหนือ,Ban Nuea,85050202,85050202,9.366604366194483,98.41817870736122
85050203,บ้านกำพวน,Ban Kamphuan,85050203,85050203,9.373040467198383,98.41729089617729
85050204,บ้านภูเขาทอง,Ban Phukhao Thong,85050204,85050204,9.380357682128945,98.42374831438065
85050205,บ้านสุขสำราญ,Ban Suk Samran,85050205,85050205,9.345531388188421,98.4246575832367
85050206,บ้านโตนกลอย,Ban Ton Kloi,85050206,85050206,9.349416587062722,98.44847962260246
85050207,บ้านหาดทรายขาว,Ban Hat Sai Khao,85050207,85050207,9.376699093952595,98.40381816029549
