id,name.th,name.en,name.slug,code.dopa,geo.lat,geo.lon
43010801,บ้านหินโงม,Ban Hin Ngom,43010801,43010801,17.953813378456648,102.84041047096252
43010802,บ้านหินโงมเหนือ,Ban Hin Ngom Nuea,43010802,43010802,17.950474578763075,102.83607736229897
43010803,บ้านดงเจริญ,Ban Dong Charoen,43010803,43010803,17.93199840780262,102.83779934048653
43010804,บ้านศาลาคำ,Ban Sala Kham,43010804,43010804,17.939749677740764,102.85436064004898
43010805,บ้านท่าจาน,Ban Tha Chan,43010805,43010805,17.94488893342601,102.8655856847763
43010806,บ้านพร้าว,Ban Phrao,43010806,43010806,17.965596273066694,102.8533373773098
43010807,บ้านเจริญสุข,Ban Charoen Suk,43010807,43010807,17.962195184692998,102.84930601716042
43010808,บ้านหินโงมใต้,Ban Hin Ngom Tai,43010808,43010808,13.719731273862875,100.53305760025978
