id,name.local,name.en,name.slug,code.id,zip_codes,geo.lat,geo.lon
401805,บ้านแท่น,Ban Thaen,ban-thaen-401805,401805,40180,15.966,102.603
401801,ชนบท,Chonnabot,chonnabot-401801,401801,40180,16.067,102.632
401804,ห้วยแก,Huai Kae,huai-kae-401804,401804,40180,15.993,102.531
401802,กุดเพียขอม,Kut Phia Khom,kut-phia-khom-401802,401802,40180,16.032,102.613
401807,โนนพะยอม,Non Phayom,non-phayom-401807,401807,40180,16.054,102.547
401808,ปอแดง,Po Daeng,po-daeng-401808,401808,40180,15.95,102.579
401806,ศรีบุญเรือง,Si Bun Rueang,si-bun-rueang-401806,401806,40180,16.115,102.623
401803,วังแสง,Wang Saeng,wang-saeng-401803,401803,40180,16.013,102.482
