id,name.th,name.en,name.slug,code.dopa,geo.lat,geo.lon
52050801,บ้านแหงเหนือ,Ban Haeng Nuea,52050801,52050801,18.77521130127361,100.01088380813599
52050802,บ้านแหงใต้,Ban Haeng Tai,52050802,52050802,18.765671456269015,100.0090143084526
52050803,บ้านร่องเห็ด,Ban Rong Het,52050803,52050803,18.761891176706772,100.00523641705513
52050804,บ้านบ่อห้อ,Ban Bo Ho,52050804,52050804,18.749297675948693,100.0298336148262
52050805,บ้านแม่งอน,Ban Mae Ngon,52050805,52050805,18.749213860049654,100.03112107515335
52050806,บ้านทุ่งโป่ง,Ban Thung Pong,52050806,52050806,18.742927549018393,100.03194585442543
52050807,บ้านแหงเหนือ,Ban Haeng Nuea,52050807,52050807,18.776274072358778,100.00893115997314
52050808,บ้านร่องเห็ดพัฒนา,Ban Rong Het Phatthana,52050808,52050808,18.758816859344634,100.00600352883339
