id,name.th,name.en,name.slug,code.dopa,geo.lat,geo.lon
91040201,บ้านควนเก,Ban Khuan Ke,91040201,91040201,6.838324083946169,99.9237522482872
91040202,บ้านควนโท๊ะ,Ban Khuan Tho,91040202,91040202,6.854048264360372,99.94177803397179
91040203,บ้านเกาะไทร,Ban Ko Sai,91040203,91040203,6.846157610760072,99.94443207979202
91040204,บ้านแป-ระเหนือ,Ban Pae-ra Nuea,91040204,91040204,6.848543728350695,99.94607493281364
91040205,บ้านสวนเทศ,Ban Suan Thet,91040205,91040205,6.859820369185232,99.91035997867584
91040206,บ้านนาโต๊ะขุน,Ban Na To Khun,91040206,91040206,6.851443803863225,99.92786139249802
91040207,บ้านสวนไทย,Ban Suan Thai,91040207,91040207,6.85695629546211,99.88823980093002
