id,name.th,name.en,name.slug,code.dopa,children_count.villages,zip_codes,geo.lat,geo.lon
650502,บ้านไร่,Ban Rai,ban-rai,650502,10,65110,16.620,100.253
650501,บางกระทุ่ม,Bang Krathum,bang-krathum,650501,9,65110,16.591,100.297
650503,โคกสลุด,Khok Salut,khok-salut,650503,10,65110,16.577,100.245
650507,นครป่าหมาก,Nakhon Pa Mak,nakhon-pa-mak,650507,13,65110,16.609,100.351
650508,เนินกุ่ม,Noen Kum,noen-kum,650508,11,65210,16.541,100.458
650506,ไผ่ล้อม,Phai Lom,phai-lom,650506,11,65110,16.560,100.347
650504,สนามคลี,Sanam Khli,sanam-khli,650504,6,65110,16.547,100.256
650505,ท่าตาล,Tha Tan,tha-tan,650505,9,65110,16.658,100.331
650509,วัดตายม,Wat Ta Yom,wat-ta-yom,650509,8,65210,16.595,100.444
