id,name.th,name.en,name.slug,code.dopa,geo.lat,geo.lon
65012001,บ้านปากพิง,Ban Pak Phing,65012001,65012001,16.65085923212778,100.21819576621056
65012002,บ้านปากพิง,Ban Pak Phing,65012002,65012002,16.662600015426094,100.22969841957092
65012003,บ้านปากพิง,Ban Pak Phing,65012003,65012003,16.662000016925504,100.23638248443604
65012004,บ้านงิ้วงาม,Ban Ngio Ngam,65012004,65012004,16.684077951737983,100.25612890720367
65012005,บ้านบางทราย,Ban Bang Sai,65012005,65012005,16.67466382596884,100.2734586596489
65012006,บ้านปากพิงตะวันตก,Ban Pak Phing Tawan Tok,65012006,65012006,16.646518891695088,100.2363932132721
65012007,บ้านบึงขุนนนท์,Ban Bueng Khun Non,65012007,65012007,16.666776826532875,100.22239342331886
