id,name.th,name.en,name.slug,code.dopa,geo.lat,geo.lon
18020301,บ้านท่าแขก,Ban Tha Khaek,18020301,18020301,15.347037688051481,100.1019474864006
18020302,บ้านศิลาดาน,Ban Sila Dan,18020302,18020302,15.354671788207716,100.09780883789062
18020303,บ้านหาดมะตูม,Ban Hat Matum,18020303,18020303,13.72706875088845,100.5340875685215
18020304,บ้านหาดมะตูม,Ban Hat Matum,18020304,18020304,13.636334764698026,100.6000055372715
18020305,บ้านดอนเดื่อ - ดอนปูน,Ban Don Duea - Don Pun,18020305,18020305,15.338038842565107,100.1340052485466
18020306,บ้านต้นมะขาม,Ban Ton Makham,18020306,18020306,13.72706875088845,100.5340875685215
