id,name.th,name.en,name.slug,code.dopa,geo.lat,geo.lon
62040601,บ้านสลกบาตร,Ban Salokbat,62040601,62040601,16.00057848572672,99.80484992265701
62040602,บ้านโนนปอแดง,Ban Non Po Daeng,62040602,62040602,15.976049638558552,99.8272705078125
62040603,บ้านโนนปอแดง,Ban Non Po Daeng,62040603,62040603,15.978817761118558,99.83057498931885
62040604,บ้านวังสลักพระ,Ban Wang Salak Phra,62040604,62040604,16.00640148536612,99.8458032310009
62040605,บ้านเหนือ,Ban Nuea,62040605,62040605,16.00246321217954,99.80050206184387
62040606,บ้านรังแถว,Ban Rang Thaeo,62040606,62040606,16.00886238326479,99.75804805755615
62040607,บ้านอุตสาหกรรมยิ่งเจริญ,Ban Utsahakam Ying Charoen,62040607,62040607,16.008689644433304,99.75810170173645
