id,name.th,name.en,name.slug,code.dopa,geo.lat,geo.lon
23030701,บ้านคันนาสูง,Ban Khan Na Sung,23030701,23030701,12.43311121977778,102.43122339248657
23030702,บ้านเกษมสุข,Ban Kasem Suk,23030702,23030702,12.482044408218483,102.40083262324333
23030703,บ้านผาเรือง,Ban Pha Rueang,23030703,23030703,12.45013484064112,102.40876123309135
23030704,บ้านเจียรพัฒนา,Ban Chian Phatthana,23030704,23030704,12.485028527008009,102.4449522793293
23030705,บ้านร่วมมิตร,Ban Ruam Mit,23030705,23030705,12.48959302299885,102.41667240858078
23030706,บ้านมณฑล,Ban Monthon,23030706,23030706,12.46252828766837,102.4246533215046
23030707,บ้านเขาฉลาด,Ban Khao Chalat,23030707,23030707,12.463984452618723,102.46612161397934
