id,name.th,name.en,name.slug,code.dopa,geo.lat,geo.lon
37030301,บ้านนาหว้า,Ban Na Wa,37030301,37030301,15.884805269580886,104.91376206278801
37030302,บ้านนาหว้า,Ban Na Wa,37030302,37030302,15.88700323524783,104.91728514432907
37030303,บ้านแก้วมงคล,Ban Kaeo Mongkhon,37030303,37030303,15.890730950791559,104.9177035689354
37030304,บ้านสหกรณ์,Ban Sahakon,37030304,37030304,15.893987808378471,104.92897689342499
37030305,บ้านห้วยงูเหลือม,Ban Huai Ngu Lueam,37030305,37030305,15.909750253933698,104.89475592970848
37030306,บ้านทวีผล,Ban Thawi Phon,37030306,37030306,15.922550446905714,104.91043344140053
37030307,บ้านหนองแสง,Ban Nong Saeng,37030307,37030307,15.858074333590148,104.92977619171143
37030308,บ้านโนนสำราญ,Ban Non Samran,37030308,37030308,15.90387543399163,104.94080409407616
37030309,บ้านหินกอง,Ban Hin Kong,37030309,37030309,15.912285853142603,104.95354995131493
