id,name.th,name.en,name.slug,code.dopa,geo.lat,geo.lon
14130501,บ้านหนองพังพวย,Ban Nong Phangphuai,14130501,14130501,14.248889451384233,100.2590699493885
14130502,บ้านบึงกระสังข์,Ban Bueng Krasang,14130502,14130502,14.23614539806487,100.24730578064919
14130503,บ้านแผงลอย,Ban Phaeng Loi,14130503,14130503,14.228266447173144,100.24353057146072
14130504,บ้านรางอ้ายทึม,Ban Rang Ai Thuem,14130504,14130504,14.263669519823122,100.24951592087746
14130505,บ้านเทพมงคล,Ban Thepphamongkhon,14130505,14130505,14.251998662404496,100.28213158249855
14130506,บ้านหนองคต,Ban Nong Khot,14130506,14130506,14.257907605020325,100.28843611478806
14130507,บ้านโคกห้วย,Ban Khok Huai,14130507,14130507,14.24399937646614,100.27944669127464
14130508,บ้านรางเนื้อตาย,Ban Rang Muea Tai,14130508,14130508,14.231014556616847,100.27334466576576
