id,name.th,name.en,name.slug,code.dopa,geo.lat,geo.lon
60011601,บ้านหนองปลิง,Ban Nong Pling,60011601,60011601,15.664331478292354,100.16126185655594
60011602,บ้านตลาดหนองปลิง,Ban Talat Nong Pling,60011602,60011602,15.663643216413332,100.15529125928879
60011603,บ้านอ่างหิน,Ban Ang Hin,60011603,60011603,15.619872493549046,100.1698811352253
60011604,บ้านเขารัง,Ban Khao Rang,60011604,60011604,15.628197826492212,100.15398368239403
60011605,บ้านหนองอำโพ,Ban Nong Ampho,60011605,60011605,15.648778518639906,100.15702664852142
60011606,บ้านช่อกระถินพัฒนา,Ban Cho Krathin Phatthana,60011606,60011606,15.657243432122407,100.17169833183289
60011607,บ้านสามัคคีสุข,Ban Samakkhi Suk,60011607,60011607,15.664942260344729,100.14967873692513
60011608,บ้านป่ารังพัฒนา,Ban Pa Rang Phatthana,60011608,60011608,15.678238261817812,100.17958134412766
