id,name.th,name.en,name.slug,code.dopa,children_count.villages,zip_codes,geo.lat,geo.lon
191107,ลำพญากลาง,Lam Phaya Klang,lam-phaya-klang,191107,18,18180,14.871,101.367
191105,ลำสมพุง,Lam Somphung,lam-somphung,191105,10,18180,15.007,101.381
191102,มิตรภาพ,Mittraphap,mittraphap,191102,10,18180,14.474,101.213
191101,มวกเหล็ก,Muak Lek,muak-lek,191101,13,18180,14.705,101.151
191104,หนองย่างเสือ,Nong Yang Suea,nong-yang-suea,191104,14,18180,14.789,101.270
191109,ซับสนุ่น,Sap Sanun,sap-sanun,191109,15,18220,14.932,101.309
