id,name.th,name.en,name.slug,code.dopa,geo.lat,geo.lon
58030401,บ้านแม่เย็น,Ban Mae Yen,58030401,58030401,19.350953306060205,98.45088019967079
58030402,บ้านทรายขาว,Ban Sai Khao,58030402,58030402,19.338527184118796,98.44790160655975
58030403,บ้านท่าปาย,Ban Tha Pai,58030403,58030403,19.298900269410826,98.46738651394844
58030404,บ้านแม่ปิง,Ban Mae Ping,58030404,58030404,19.2865550004457,98.46530646085739
58030405,บ้านแม่ฮี้,Ban Mae Hi,58030405,58030405,19.34310547231666,98.44988375902176
58030406,บ้านห้วยแก้ว,Ban Huai Kaeo,58030406,58030406,19.285452450364243,98.47195968031883
