id,name.th,name.en,name.slug,code.dopa,geo.lat,geo.lon
76030401,บ้านวังซอ,Ban Wang So,76030401,76030401,13.101546130059793,99.72531035542488
76030402,บ้านท่าตระคร้อ,Ban Tha Tra Khro,76030402,76030402,13.111823060562068,99.72917944192886
76030403,บ้านหนองรี,Ban Nong Ri,76030403,76030403,13.086417310772513,99.73130777478218
76030404,บ้านสามเรือน,Ban Sam Ruean,76030404,76030404,13.11946908999953,99.76194128394127
76030405,บ้านทุ่งเคล็ด,Ban Thung Khalet,76030405,76030405,13.065457228382884,99.72662597894669
76030406,บ้านพุบอน,Ban Phu Bon,76030406,76030406,13.108174982234143,99.74841758608818
76030407,บ้านหนองมะไฟ,Ban Nong Mafai,76030407,76030407,13.09049285688807,99.73389610648155
76030408,บ้านท่าตะคร้อเหนือ,Ban Tha Takhro Nuea,76030408,76030408,13.116326592840037,99.73107978701591
