id,name.th,name.en,name.slug,code.dopa,geo.lat,geo.lon
77040101,บ้านตลาดบางสะพาน,Ban Talat Bang Saphan,77040101,77040101,11.213313478225427,99.5082338154316
77040102,บ้านนาผักขวง,Ban Na Phak Khuang,77040102,77040102,11.269553634908277,99.51882988214493
77040103,บ้านปอแดง,Ban Po Daeng,77040103,77040103,11.245691449050668,99.51519951224327
77040104,บ้านระหาร,Ban Rahan,77040104,77040104,11.244537880203879,99.50512379407883
77040105,บ้านห้วยทรายขาว,Ban Huai Sai Khao,77040105,77040105,11.232583636168643,99.5006887614727
77040106,บ้านดอนทอง,Ban Don Thong,77040106,77040106,11.233794802015135,99.48814574629068
77040107,บ้านหนองตาจ่า,Ban Nong Ta Cha,77040107,77040107,11.25803612221025,99.47623237967491
77040108,บ้านดอนสง่า,Ban Don Sa-nga,77040108,77040108,11.292526121812699,99.46828231215477
