id,name.th,name.en,name.slug,code.dopa,geo.lat,geo.lon
95010150,ชุมชนหลังวัดเมืองยะลา,,95010150,95010150,6.531738470670482,101.27676576375961
95010151,ชุมชนเวฬุวัน,,95010151,95010151,6.527905142940781,101.26952648162842
95010152,ชุมชนห้าแยกกำปงบาโงย,,95010152,95010152,6.532456633427342,101.26273781061172
95010153,ชุมชนบ้านร่ม,,95010153,95010153,6.537129329564493,101.26291483640671
95010154,ชุมชนหัวสะพานสะเตง,,95010154,95010154,6.541840620836869,101.26970484852791
95010155,ชุมชนคุปตาสา,,95010155,95010155,6.552694009054928,101.2729449570179
95010156,ชุมชนคูหามุข,,95010156,95010156,6.553757218040033,101.27655252814293
95010157,ชุมชนประชานุกูล,,95010157,95010157,6.554203551963577,101.28362819552422
95010158,ชุมชนร่วมใจพัฒนา,,95010158,95010158,6.56309417398547,101.29158094525337
95010159,ชุมชนมุสลิมสัมพันธ์,,95010159,95010159,6.565582933502504,101.29437312483788
95010160,ชุมชนจารูนอก,,95010160,95010160,6.571566297455926,101.29681929945946
95010161,ชุมชนจารูพัฒนา,,95010161,95010161,6.568267528989107,101.2977084517479
95010162,ชุมชนโรงเรียนเทศบาล5,,95010162,95010162,6.566109195297222,101.29676699638367
95010163,ชุมชนตลาดเก่าซอย8,,95010163,95010163,6.566091875297655,101.29676699638367
95010164,ชุมชนสันติสุข,,95010164,95010164,6.565566945793707,101.29665434360504
95010165,ชุมชนสามัคคี,,95010165,95010165,6.5662264383554705,101.29670664668083
95010166,ชุมชนวัดยะลาธรรมาราม,,95010166,95010166,6.550022653171773,101.3008077442646
95010167,ชุมชนเมืองทอง,,95010167,95010167,6.553593340111135,101.29792705178261
95010168,ชุมชนหลังโรงเรียนจีน,,95010168,95010168,6.556828253819256,101.29465743899345
95010169,ชุมชนดารุสลาม,,95010169,95010169,6.565930666041877,101.29470303654671
95010170,ชุมชนวิฑูรอุทิศสัมพันธ์,,95010170,95010170,6.559003947978177,101.29701241850853
95010171,ชุมชนธนวิถี,,95010171,95010171,6.554713837721053,101.29581347107887
95010172,ชุมชนธนวิถีพัฒนา,,95010172,95010172,6.552908516313369,101.29471644759178
95010173,ชุมชนมะลิสัมพันธ์,,95010173,95010173,6.548274606069752,101.29473522305489
95010174,ชุมชนหลังกองร้อย,,95010174,95010174,6.534656416830012,101.2856425344944
95010175,ชุมชนการเคหะ,,95010175,95010175,6.544569312209775,101.28568813204765
95010176,ชุมชนเบอร์เส้งนอก,,95010176,95010176,6.526154353671673,101.28349676728249
95010177,ชุมชนตลาดเกษตร,,95010177,95010177,6.527393497394705,101.26341640949249
95010178,ชุมชนอุตสาหกรรมสามหมอ,,95010178,95010178,6.5638469317897545,101.28983616828918
95010179,ชุมชนมณโฑ18,,95010179,95010179,6.5417726698361225,101.28994345664978
95010180,ชุมชนพิทยนิโรธ,,95010180,95010180,6.548014796717203,101.27275720238686
95010181,ชุมชนหน้าศูนย์แม่และเด็ก,,95010181,95010181,6.544532005982923,101.27792045474052
95010182,ชุมชนคนรักถิ่น,,95010182,95010182,6.540096542225667,101.28686964511871
95010183,ชุมชนอยู่ดีมีสุข,,95010183,95010183,6.543018436714852,101.28694206476212
95010184,ชุมชนประชารัฐ,,95010184,95010184,6.550859368672584,101.28338143229485
95010185,ชุมชนเสรี,,95010185,95010185,6.562017661732516,101.29296764731407
95010186,ชุมชนผังเมือง4,,95010186,95010186,6.530811119834524,101.28388300538063
95010187,ชุมชนตลาดเมืองใหม่,,95010187,95010187,6.55600353934421,101.27905771136284
95010188,ชุมชนเบญจมิตรสัมพันธ์,,95010188,95010188,6.543772557187576,101.28806859254837
95010189,ชุมชนสะพรั่ง,,95010189,95010189,6.544168270125023,101.29069983959198
