id,name.local,name.en,name.slug,code.id,zip_codes,geo.lat,geo.lon
431501,เฝ้าไร่,Fao Rai,fao-rai-431501,431501,43120,17.969,103.27
431502,นาดี,Na Di,na-di-431502,431502,43120,17.999,103.366
431503,หนองหลวง,Nong Luang,nong-luang-431503,431503,43120,18.021,103.24
431505,อุดมพร,Udom Phon,udom-phon-431505,431505,43120,17.891,103.357
431504,วังหลวง,Wang Luang,wang-luang-431504,431504,43120,18.086,103.256
