id,name.th,name.en,name.slug,code.dopa,geo.lat,geo.lon
55010701,บ้านนาซาว,Ban Na Sao,55010701,55010701,18.726856388377637,100.70621564984322
55010702,บ้านสไมย์,Ban Samo,55010702,55010702,18.700706688350845,100.67335724830627
55010703,บ้านนาหิน,Ban Na Hin,55010703,55010703,18.707774504821657,100.65938025712967
55010704,บ้านก๊อด,Ban Kot,55010704,55010704,18.721218292526682,100.6990434229374
55010705,บ้านนวราษฎร์,Ban Nua Rat,55010705,55010705,18.714530827623143,100.66952034831047
55010706,บ้านดอนคีรี,Ban Don Khiri,55010706,55010706,18.707686857575343,100.67649811506271
55010707,บ้านก๊อดใหม่พัฒนา,Ban Kot Mai Phatthana,55010707,55010707,18.719986243843767,100.70450976490974
