id,name.th,name.en,name.slug,code.dopa,geo.lat,geo.lon
74011801,บ้านบางสะแก,Ban Bang Sakae,74011801,74011801,13.535870650585032,100.16334727406502
74011802,บ้านคลองหลวง,Ban Khlong Luang,74011802,74011802,13.528326435128333,100.1755540072918
74011803,บ้านหัวตะเข้,Ban Hua Takhe,74011803,74011803,13.559394914575117,100.15323802828789
74011804,บ้านปากบ่อ,Ban Pak Bo,74011804,74011804,13.546047008936483,100.19338399171829
74011805,บ้านเต่าดำ,Ban Tao Dam,74011805,74011805,13.564355534263433,100.18019959330559
74011806,บ้านรวมเจริญ,Ban Ruam Charoen,74011806,74011806,13.565783078417784,100.16452208161354
