id,name.th,name.en,name.slug,code.dopa,geo.lat,geo.lon
43160301,บ้านต้อนน้อย,Ban Ton Noi,43160301,43160301,18.288818567274078,103.24160724878311
43160302,บ้านต้อนใหญ่,Ban Ton Yai,43160302,43160302,18.28334175536268,103.25988247990608
43160303,บ้านดอนเหมือด,Ban Don Mueat,43160303,43160303,18.24590226969955,103.25692534446716
43160304,บ้านดงหอ,Ban Dong Ho,43160304,43160304,18.24541699853752,103.2469891011715
43160305,บ้านดงเล้า,Ban Dong Lao,43160305,43160305,18.264295722080536,103.23857098817825
43160306,บ้านดอนบก,Ban Don Bok,43160306,43160306,18.259698178381548,103.23984235525131
43160307,บ้านต้อนหัวนา,Ban Ton Hua Na,43160307,43160307,18.279378885664983,103.26284229755402
43160308,บ้านเปงจานนคร,Ban Peng Chan Nakhon,43160308,43160308,18.27194189353727,103.23236033320427
43160309,บ้านหนองลาด,Ban Nong Lat,43160309,43160309,18.27024050943927,103.24767708778381
