id,name.th,name.en,name.slug,code.dopa,geo.lat,geo.lon
61060301,บ้านห้วยแห้ง,Ban Huai Haeng,61060301,61060301,15.13946423583545,99.52452689409256
61060302,บ้านผาทั่ง,Ban Pha Thang,61060302,61060302,15.106516449078027,99.53622937202454
61060303,บ้านป่ากล้วย,Ban Pa Kluai,61060303,61060303,15.13119443306874,99.53526511788368
61060304,บ้านนาทุ่งเชือก,Ban Na Thung Chueak,61060304,61060304,15.160437637645105,99.54498276114464
61060305,บ้านสระ,Ban Sa,61060305,61060305,15.105107745573115,99.5392294228077
61060306,บ้านนา,Ban Na,61060306,61060306,15.122723635161863,99.53095749020576
61060307,บ้านห้วยพลู,Ban Huai Phlu,61060307,61060307,15.182516879045783,99.58470895886421
61060308,บ้านเขาขวาง,Ban Khao Khwang,61060308,61060308,15.180352806375202,99.59870606660843
61060309,บ้านแม่ระมาด,Ban Mae Ramat,61060309,61060309,15.196727761977003,99.56298440694809
