id,name.th,name.en,name.slug,code.dopa,geo.lat,geo.lon
48050901,บ้านอุ่มเหม้า,Ban Um Mao,48050901,48050901,16.853715838501515,104.67590376734734
48050902,บ้านโสกแมว,Ban Sok Maeo,48050902,48050902,16.82563459226227,104.644865244627
48050903,บ้านดอนสวรรค์,Ban Don Sawan,48050903,48050903,16.84228591212167,104.67594534158707
48050904,บ้านแดนสวรรค์,Ban Daen Sawan,48050904,48050904,16.803691175863694,104.66157540678978
48050905,บ้านโนนงาม,Ban Non Ngam,48050905,48050905,13.72706875088845,100.5340875685215
48050906,บ้านยางคำ,Ban Yang Kham,48050906,48050906,16.85241564698621,104.67369362711906
48050907,บ้านชาติพัฒนาชาติไทย,Ban Chat Phatthana Chat Thai,48050907,48050907,16.83580501046606,104.71617713570595
48050908,บ้านนิคมทหารผ่านศึก,Ban Nikhom Thanan Phan Suek,48050908,48050908,16.841642837916304,104.7042278945446
48050909,บ้านโชคอำนวย,Ban Chok Amnuai,48050909,48050909,16.81657279420157,104.68571931123734
