id,name.th,name.en,name.slug,code.dopa,geo.lat,geo.lon
38010701,บ้านนาสวรรค์,Ban Na Sawan,38010701,38010701,18.25081731515285,103.62006694078445
38010702,บ้านคำแคน,Ban Kham Khaen,38010702,38010702,18.25357981788974,103.62264454364777
38010703,บ้านโนนสวาท,Ban Non Sawat,38010703,38010703,18.245336756718768,103.62323731184006
38010704,บ้านหนองแสง,Ban Nong Saeng,38010704,38010704,18.24916030188788,103.61850991845131
38010705,บ้านแสนสุข,Ban Saen Suk,38010705,38010705,18.25069759297155,103.621516674757
38010706,บ้านโคกสวาง,Ban Khok Sawang,38010706,38010706,18.266167817182517,103.61613750457764
38010707,บ้านหนองตอ,Ban Nong To,38010707,38010707,18.25434398793047,103.57557982206345
38010708,บ้านนาแวง,Ban Na Waeng,38010708,38010708,18.26517191604289,103.55096653103828
38010709,บ้านห้วยบอนพัฒนา,Ban Huai Bon Phatthana,38010709,38010709,18.254899282717794,103.57339650392532
