id,name.th,name.en,name.slug,code.dopa,geo.lat,geo.lon
60080101,บ้านท่าตะโก,Ban Tha Tako,60080101,60080101,15.636685546395494,100.47808974981308
60080102,บ้านเขาน้อย,Ban Khao Noi,60080102,60080102,15.65601536343271,100.47203332185745
60080103,บ้านหางน้ำ,Ban Hang Nam,60080103,60080103,15.6182877230634,100.45915871858597
60080104,บ้านหนองขานาง,Ban Nong Kha Nang,60080104,60080104,15.64721721714879,100.42041555047035
60080105,บ้านเขาน้อยพัฒนา,Ban Khao Noi Phatthana,60080105,60080105,15.649143982859043,100.47260329127312
60080106,บ้านโคกมะรื่น,Ban Khok Maruen,60080106,60080106,15.632659993340928,100.48700541257858
60080107,บ้านท่าตะโกพัฒนา,Ban Tha Tako Phatthana,60080107,60080107,15.642543572647622,100.49007520079613
