id,name.th,name.en,name.slug,code.dopa,geo.lat,geo.lon
34020201,บ้านแก้งกอก,Ban Kaeng Kok,34020201,34020201,15.483361787710523,105.26209518313408
34020202,บ้านกุดชุม,Ban Kut Chum,34020202,34020202,15.482479053975485,105.26479616761208
34020203,บ้านดอนงัว,Ban Don Ngua,34020203,34020203,15.48111811156813,105.26192754507065
34020204,บ้านดอนต่าย,Ban Don Tai,34020204,34020204,15.479863141546423,105.23748323321342
34020205,บ้านสัน,Ban San,34020205,34020205,15.491072300225296,105.2373531460762
34020206,บ้านนาแค,Ban Na Khae,34020206,34020206,15.486386059204131,105.2150559425354
34020207,บ้านนาโพธิ์,Ban Na Pho,34020207,34020207,15.496815579253857,105.2496899664402
