id,name.th,name.en,name.slug,code.dopa,geo.lat,geo.lon
85020101,บ้านล่าง,Ban Lang,85020101,85020101,10.110482870293325,98.7575814127922
85020102,บ้านบางแก่นจันทร์,Ban Bang Kaem Chan,85020102,85020102,10.121491164620561,98.7606793642044
85020103,บ้านวัดควน,Ban Wat Khuan,85020103,85020103,10.109695983283896,98.76099050045013
85020104,บ้านบางแกะ,Ban Bang Kae,85020104,85020104,10.106907535953848,98.76460611820221
85020105,บ้านพรุข่า,Ban Phru Kha,85020105,85020105,10.110154120753618,98.75235915184021
85020106,บ้านด่าน,Ban Dan,85020106,85020106,10.118974790004449,98.74410465359688
