id,name.th,name.en,name.slug,code.dopa,geo.lat,geo.lon
33080701,บ้านขุนหาญ,Ban Khun Han,33080701,33080701,14.630882782741727,104.36696827411652
33080702,บ้านดู่,Ban Du,33080702,33080702,14.611900424724302,104.35968473553658
33080703,บ้านโคกระเวียง,Ban Khok Rawiang,33080703,33080703,14.653593792649112,104.37959611415863
33080704,บ้านแดง,Ban Daeng,33080704,33080704,14.636266528514641,104.36751142144203
33080705,บ้านค้อปอ,Ban Kho Po,33080705,33080705,14.634213739609198,104.36458513140678
33080706,บ้านโนนลัด,Ban Non Lat,33080706,33080706,14.611489044281596,104.36054706573486
33080707,บ้านโนนใหญ่,Ban Non Yai,33080707,33080707,14.61796462814381,104.36282023787498
33080708,บ้านดู่ตะวันออก,Ban Du Tawan Ok,33080708,33080708,14.617156163871472,104.36186268925667
33080709,บ้านขุนหาญใต้,Ban Khun Han Tai,33080709,33080709,14.626549997716861,104.36709702014923
