id,name.th,name.en,name.slug,code.dopa,geo.lat,geo.lon
30220301,บ้านทรัพย์เจริญ,Ban Sap Charoen,30220301,30220301,14.718157367133248,102.45469808578491
30220302,บ้านสระสำราญ,Ban Sa Samran,30220302,30220302,14.753722223019128,102.45849609375
30220303,บ้านซับประดู่,Ban Sap Pradu,30220303,30220303,14.727312101333816,102.46135666966438
30220304,บ้านสามัคคีพัฒนา,Ban Samakkhi Phatthana,30220304,30220304,14.741532436191411,102.47668951749802
30220305,บ้านสระซาง,Ban Sa Sang,30220305,30220305,14.753942693779482,102.46338978409767
30220306,บ้านซับตะคร้อ,Ban Sap Takhro,30220306,30220306,14.715353020571584,102.45657831430435
30220307,บ้านโนนสะอาด,Ban Non Sa-at,30220307,30220307,14.739389847541197,102.47874543070793
30220308,บ้านไทยเจริญ,Ban Thai Charoen,30220308,30220308,14.715663031052673,102.45318666100502
