id,name.th,name.en,name.slug,code.dopa,geo.lat,geo.lon
66060701,บ้านท่าเสา,Ban Tha Sao,66060701,66060701,15.991717970559295,100.22202864289284
66060702,บ้านหนองดง,Ban Nong Dong,66060702,66060702,15.972667758243484,100.23303642868996
66060703,บ้านยี่มุ่ย,Ban Yimui,66060703,66060703,15.954977388658016,100.22089138627052
66060704,บ้านพังน้อย,Ban Phang Noi,66060704,66060704,15.954296561877316,100.21278038620949
66060705,บ้านบางพล้อ,Ban Bang Phlo,66060705,66060705,15.963626782061057,100.16594633460045
66060706,บ้านจระเข้ไห้,Ban Chorakhe Hai,66060706,66060706,15.959939101855088,100.18500342965126
66060707,บ้านวังตาด้วง,Ban Wang Ta Duang,66060707,66060707,15.938301625120937,100.20556390285492
66060708,บ้านยางหลวง,Ban Yang Luang,66060708,66060708,15.968950589415288,100.18006280064583
66060709,บ้านหนองลี,Ban Nong Li,66060709,66060709,15.99648281845812,100.24064853787422
