id,name.th,name.en,name.slug,code.dopa,geo.lat,geo.lon
60110701,บ้านดอนเปร็ง,Ban Don Phreng,60110701,60110701,15.7654894,99.9338970
60110702,บ้านดงหนองหลวง,Ban Dong Nong Luang,60110702,60110702,15.7456,99.9134
60110703,บ้านดอนตะเคียน,Ban Don Takhian,60110703,60110703,15.7493,99.8950
60110704,บ้านหนองยาว,Ban Nong Yao,60110704,60110704,15.7445,99.8925
60110705,บ้านวังยิ้มแย้ม,Ban Wang Yuem Yaem,60110705,60110705,15.7267,99.8960
60110706,บ้านหนองหูช้าง,Ban Nong Hu Chang,60110706,60110706,15.7352,99.8768
60110707,บ้านนกคลาน,Ban Nok Khlan,60110707,60110707,15.7181,99.8651
60110708,บ้านหนองพลับ,Ban Nong Phlap,60110708,60110708,15.7222,99.8446
60110709,บ้านหนองผำ,Ban Nong Pham,60110709,60110709,15.7283,99.8525
