id,name.th,name.en,name.slug,code.dopa,geo.lat,geo.lon
30090901,บ้านกฎีกรุ,Ban Kudi Kru,30090901,30090901,15.27660148381421,102.14461728930473
30090902,บ้านโนนพรม,Ban Non Phrom,30090902,30090902,15.280045329431044,102.13703602552414
30090903,บ้านแฉ่ง,Ban Chaeng,30090903,30090903,15.25528124324869,102.13695555925369
30090904,บ้านหลุมปูน,Ban Lum Pun,30090904,30090904,15.27849806394035,102.1576863527298
30090905,บ้านถนนโพธิ์,Ban Thanon Pho,30090905,30090905,15.260327190264228,102.13712990283966
30090906,บ้านดอนสระจันทร์,Ban Don Sa Chan,30090906,30090906,15.302963185511043,102.13224828243256
30090907,บ้านโตนด,Ban Tanot,30090907,30090907,15.29551218194043,102.12432369589806
30090908,บ้านหนองตาแมน,Ban Nong Tamaen,30090908,30090908,15.294928767520817,102.10872262716293
30090909,บ้านศรีพัฒนา,Ban Si Phatthana,30090909,30090909,15.283941903988296,102.15107336640358
