id,name.th,name.en,name.slug,code.dopa,geo.lat,geo.lon
92061701,บ้านวังหลาม,Ban Wang Lam,92061701,92061701,7.907464211554814,99.54999446868896
92061702,บ้านห้วยนาง,Ban Huai Nang,92061702,92061702,7.902363305728323,99.59290981292725
92061703,บ้านหนองราโพ,Ban Nong Rapho,92061703,92061703,7.914945425995202,99.57231044769287
92061704,บ้านห้วยนางใต้,Ban Huai Nang Tai,92061704,92061704,7.875359336378848,99.57691982388496
92061705,บ้านพรุพี,Ban Phru Phi,92061705,92061705,7.903723553447054,99.54518795013428
92061706,บ้านวัดห้วยนาง,Ban Wat Huai Nang,92061706,92061706,7.881808939328574,99.58951011300087
92061707,บ้านควนใสบุก,Ban Khuan Sai Buk,92061707,92061707,7.89760506018724,99.60085317492485
92061708,บ้านวังหลัก,Ban Wang Lak,92061708,92061708,7.900648377655994,99.55425783991814
