id,name.th,name.en,name.slug,code.dopa,geo.lat,geo.lon
14150801,บ้านบางขายหมู,Ban Bang Khai Mu,14150801,14150801,14.61714578228843,100.55124700069427
14150802,บ้านเกาะ,Ban Ko,14150802,14150802,14.61714188919467,100.55140122771263
14150803,บ้านวัดทอง,Ban Wat Thong,14150803,14150803,14.599510657898618,100.54305955767632
14150804,บ้านพิตเพียน,Ban Phit Phian,14150804,14150804,14.599065511356185,100.54537028074265
14150805,บ้านวัดเกาะ,Ban Wat Ko,14150805,14150805,14.594924177758886,100.54599791765213
14150806,บ้านกรอกขวด,Ban Krok Khuat,14150806,14150806,14.597031842079192,100.5432741343975
14150807,บ้านพิตเพียน,Ban Phit Phian,14150807,14150807,14.593388840609059,100.5430394411087
