id,name.th,name.en,name.slug,code.dopa,geo.lat,geo.lon
32120901,บ้านสะโน,Ban Sano,32120901,32120901,15.096947957388274,103.95127952098846
32120902,บ้านน้ำท่วม,Ban Nam Thuam,32120902,32120902,15.099497439328783,103.95377397537231
32120903,บ้านอาเลา,Ban A Lao,32120903,32120903,15.099488375709257,103.97252932190895
32120904,บ้านจิก,Ban Chik,32120904,32120904,15.094662590784841,103.96547377109528
32120905,บ้านแขม,Ban Khaem,32120905,32120905,15.108973889244464,103.98902088403702
32120906,บ้านจารย์,Ban Chan,32120906,32120906,15.085199746080944,103.9716374874115
32120907,บ้านนายาว,Ban Na Yao,32120907,32120907,15.093881805511305,103.94778996706009
32120908,บ้านหนองบัวลำพุก,Ban Nong Bua Lamphuk,32120908,32120908,15.098408507414543,103.94604921340942
32120909,บ้านกอไผ่น้อย,Ban Ko Phai Noi,32120909,32120909,15.090256230988174,103.98196265101433
