id,name.th,name.en,name.slug,code.dopa,geo.lat,geo.lon
35050401,บ้านเชียงเพ็ง,Ban Chiang Pheng,35050401,35050401,15.830618611869774,104.43907409906387
35050402,บ้านเซ,Ban Se,35050402,35050402,15.809794363009527,104.43341597914696
35050403,บ้านโนนม่วง,Ban Non Muang,35050403,35050403,15.797057986233138,104.42496031522751
35050404,บ้านเซซ่ง,Ban Se Song,35050404,35050404,15.795572668650829,104.42332684993744
35050405,บ้านโนนตูม,Ban Non Tum,35050405,35050405,15.764896039299932,104.41614791750908
35050406,บ้านท่าลาด,Ban Tha Lat,35050406,35050406,15.775458512474064,104.41807106137276
35050407,บ้านเชียงเพ็ง,Ban Chiang Pheng,35050407,35050407,15.828849685682208,104.44066196680069
