id,name.th,name.en,name.slug,code.dopa,geo.lat,geo.lon
92040201,บ้านทุ่งยาว,Ban Thung Yao,92040201,92040201,7.20895565807549,99.72295805811882
92040202,บ้านทุ่งยาว,Ban Thung Yao,92040202,92040202,7.219413292522029,99.72508639097214
92040203,บ้านตำเสา,Ban Tam Sao,92040203,92040203,7.252785630871686,99.73984658718109
92040204,บ้านหนองหว้า,Ban Nong Wa,92040204,92040204,7.235793772730748,99.77031648159027
92040205,บ้านป่าขวาง,Ban Pa Khwang,92040205,92040205,7.265211153202855,99.74838942289352
92040206,บ้านทุ่งมะขามป้อม,Ban Thung Makham Pom,92040206,92040206,7.220069214974087,99.75192859768867
92040207,บ้านเขาล้อม,Ban Khao Lom,92040207,92040207,7.2456614213277355,99.78629037737846
