id,name.th,name.en,name.slug,code.dopa,geo.lat,geo.lon
23011201,บ้านท่าเลื่อน,Ban Tha Luean,23011201,23011201,12.2173,102.6491
23011202,บ้านตะกาง,Ban Takang,23011202,23011202,12.2282,102.6370
23011203,บ้านตะกาง,Ban Takang,23011203,23011203,12.2306,102.6290
23011204,บ้านทุ่งบางเพชร,Ban Thung Bang Phet,23011204,23011204,12.238677,102.622748
23011205,บ้านหนองยาง,Ban Nong Yang,23011205,23011205,12.2352442,102.6547845
23011206,บ้านด่านเนินสูง,Ban Dan Noen Sung,23011206,23011206,12.2496,102.6168
