id,name.th,name.en,name.slug,code.dopa,geo.lat,geo.lon
52060501,บ้านแม่เบิน,Ban Mae Boen,52060501,52060501,18.615356437840777,99.67361479997635
52060502,บ้านนาไหม้,Ban Na Mai,52060502,52060502,18.65872306428519,99.70138773322105
52060503,บ้านนางาม,Ban Na Ngam,52060503,52060503,18.66069632164152,99.67827916145325
52060504,บ้านไผ่งาม,Ban Phai Ngam,52060504,52060504,18.606385894170142,99.62918400764465
52060505,บ้านไผ่แพะ,Ban Phai Phae,52060505,52060505,18.61370801834794,99.62936639785767
52060506,บ้านไผ่ทอง,Ban Phai Thong,52060506,52060506,18.603934100529177,99.63061094284058
