id,name.th,name.en,name.slug,code.dopa,geo.lat,geo.lon
50080201,บ้านแม่เลย,Ban Mae Loei,50080201,50080201,19.04035743362049,98.69481101632118
50080202,บ้านแม่แพะ,Ban Mae Phae,50080202,50080202,19.004566789859854,98.7081778049469
50080203,บ้านโป่งกวาว,Ban Pong Kwao,50080203,50080203,18.987120670597143,98.72781828045845
50080204,บ้านป่าลาน,Ban Pa Lan,50080204,50080204,18.96841205803834,98.72754871845245
50080205,บ้านป้อก,Ban Pok,50080205,50080205,18.92873301254012,98.75674456357956
50080206,บ้านแม่ปะ,Ban Mae Pa,50080206,50080206,18.954550452536516,98.74786108732224
