id,name.th,name.en,name.slug,code.dopa,geo.lat,geo.lon
90020301,บ้านพังกก,Ban Phang Kok,90020301,90020301,7.560038248220231,100.41298180818558
90020302,บ้านสนามชัย,Ban Sanam Chai,90020302,90020302,7.548736471290105,100.41741013526917
90020303,บ้านระวางสนามชัย,Ban Rawang Sanam Chai,90020303,90020303,7.553761883253469,100.42223811149597
90020304,บ้านดอนเค็ด,Ban Don Khet,90020304,90020304,7.543668457001169,100.42283892631531
90020305,บ้านปลายคลอง,Ban Plai Khlong,90020305,90020305,7.539077678228379,100.41891887784004
