id,name.th,name.en,name.slug,code.dopa,geo.lat,geo.lon
92062101,บ้านเขาพรุเสม็ด,Ban Khao Phru Samet,92062101,92062101,7.785510145750489,99.4844600558281
92062102,บ้านวังลำใต้,Ban Wang Lam Tai,92062102,92062102,7.779748679188949,99.4711697101593
92062103,บ้านเขานายพัน,Ban Khao Nai Phan,92062103,92062103,7.802440638910437,99.49246242642403
92062104,บ้านวังลำ,Ban Wang Lam,92062104,92062104,7.7901142128048875,99.46090623736382
92062105,บ้านต้นโพธิ์,Ban Ton Pho,92062105,92062105,7.759313171810097,99.5112419128418
92062106,บ้านควนนกหว้า,Ban Khuan Nok Wa,92062106,92062106,7.783778790851297,99.47049781680107
