id,name.local,name.en,name.slug,code.id,zip_codes,geo.lat,geo.lon
390602,นาแก,Na Kae,na-kae-390602,390602,39170,17.396,102.078
390601,นาเหล่า,Na Lao,na-lao-390601,390601,39170,17.294,102.073
390605,เทพคีรี,Thep Khiri,thep-khiri-390605,390605,39170,17.308,102.117
390604,วังปลาป้อม,Wang Pla Pom,wang-pla-pom-390604,390604,39170,17.426,102.024
390603,วังทอง,Wang Thong,wang-thong-390603,390603,39170,17.32,102.03
