id,name.th,name.en,name.slug,code.dopa,geo.lat,geo.lon
72100201,บ้านหนองเต่าทอง,Ban Nong Tao Thong,72100201,72100201,14.746860283156234,99.95676219463348
72100202,บ้านหนองคาง,Ban Nong Khang,72100202,72100202,14.704201430199012,99.96576100587845
72100203,บ้านหนองทราย,Ban Nong Sai,72100203,72100203,14.698077347230319,99.92406606674194
72100204,บ้านหนองราชวัตร,Ban Nong Ratchawat,72100204,72100204,14.72386452906844,99.95115503668785
72100205,บ้านมาบพะยอม,Ban Map Phayom,72100205,72100205,14.735557258975241,99.91652101278305
72100206,บ้านทัพมะเขือ,Ban Thap Makhuea,72100206,72100206,14.709414743150035,99.90661695599556
72100207,บ้านหนองกระทุ่ม,Ban Nong Krathum,72100207,72100207,14.694720119793162,99.95355293154716
72100208,บ้านหนองเสือทับหมี,Ban Nong Suea Thap Mi,72100208,72100208,14.730321224432773,99.92230385541916
