id,name.th,name.en,name.slug,code.dopa,geo.lat,geo.lon
15041201,บ้านทางพระ,Ban Thang Phra,15041201,15041201,14.675770535660936,100.35237595438957
15041202,บ้านทางพระ,Ban Thang Phra,15041202,15041202,14.676835658190862,100.35560265183449
15041203,บ้านทางพระ,Ban Thang Phra,15041203,15041203,14.67782423256124,100.35867512226105
15041204,บ้านกาไสย์,Ban Ka Sai,15041204,15041204,14.687586488852055,100.34527614712715
15041205,บ้านตาล,Ban Tan,15041205,15041205,14.677392218326906,100.36576017737389
15041206,บ้านตาล,Ban Tan,15041206,15041206,14.677524547101953,100.36567032337189
15041207,บ้านวัดจันทร์,Ban Wat Chan,15041207,15041207,14.669133187578108,100.36910220980644
15041208,บ้านไร่,Ban Rai,15041208,15041208,14.680800307434321,100.3504005074501
