id,name.th,name.en,name.slug,code.dopa,geo.lat,geo.lon
45030401,บ้านโพนสูง,Ban Phon Sung,45030401,45030401,15.654585835697986,103.44665944576263
45030402,บ้านสามขา,Ban Sam Kha,45030402,45030402,15.652001813048965,103.44882935285568
45030403,บ้านท่าม่วง,Ban Tha Muang,45030403,45030403,15.673977231006363,103.42965826392174
45030404,บ้านจานใต้,Ban Chan Tai,45030404,45030404,15.641541417788165,103.40905889868736
45030405,บ้านโคกก่อง,Ban Khok Kong,45030405,45030405,15.624748136809414,103.4019872546196
45030406,บ้านโพธิ์น้อย,Ban Pho Noi,45030406,45030406,15.66597400008725,103.42952683568001
45030407,บ้านโพธิ์ศรีสวัสดิ์,Ban Pho Si Sawat,45030407,45030407,15.667790830747327,103.42571139335632
45030408,บ้านข่าน้อย,Ban Kha Noi,45030408,45030408,15.673152130217913,103.42607215046883
45030409,บ้านจานใต้,Ban Chan Tai,45030409,45030409,15.640873742303308,103.40259745717049
