id,name.th,name.en,name.slug,code.dopa,geo.lat,geo.lon
45061401,บ้านเจริญศิลป์,Ban Charoen Sin,45061401,45061401,15.693211851430421,104.07926112413406
45061402,บ้านสระแก้ว,Ban Sa Kaeo,45061402,45061402,15.699069547998578,104.09313216805458
45061403,บ้านสระแก้ว,Ban Sa Kaeo,45061403,45061403,15.697095483032383,104.09511163830757
45061404,บ้านสระแก้ว,Ban Sa Kaeo,45061404,45061404,15.699774474348663,104.09334406256676
45061405,บ้านสระแก้ว,Ban Sa Kaeo,45061405,45061405,15.699854520776414,104.09557431936264
45061406,บ้านโนนทราย,Ban Non Sai,45061406,45061406,15.71130083623149,104.09800440073013
45061407,บ้านสระทอง,Ban Sa Thong,45061407,45061407,15.711129133340341,104.08601492643356
45061408,บ้านโพธิ์ศรี,Ban Pho Si,45061408,45061408,15.693211851430421,104.07926112413406
45061409,บ้านสระแก้วน้อยพัฒนา,Ban Sa Kaeo Noi Phatthana,45061409,45061409,15.698080581281335,104.09271642565727
