id,name.th,name.en,name.slug,code.dopa,geo.lat,geo.lon
46090801,บ้านโนนน้ำเกลี้ยง,Ban Non Nam Kliang,46090801,46090801,16.677022539636685,103.54397937655449
46090802,บ้านห้วยเสือเต้น,Ban Huai Suea Ten,46090802,46090802,16.670976671717433,103.53837087750435
46090803,บ้านโคกไม้งาม,Ban Khok Mai Ngam,46090803,46090803,16.693099815461913,103.54753330349922
46090804,บ้านโนนป่างิ้ว,Ban Non Pa Ngio,46090804,46090804,16.703574046342883,103.54062661528587
46090805,บ้านโคกสง่า,Ban Khok Sa-nga,46090805,46090805,16.674902781945566,103.55110064148903
46090806,บ้านโคกศาลาทอง,Ban Khok Sala Thong,46090806,46090806,16.671409626961605,103.54681044816971
46090807,บ้านโนนทอง,Ban Non Thong,46090807,46090807,16.700934347669353,103.53309363126755
46090808,บ้านป่ากล้วย,Ban Pa Kluai,46090808,46090808,16.66215933148589,103.52174788713455
