id,name.th,name.en,name.slug,code.dopa,geo.lat,geo.lon
76061601,บ้านท่าช้าง,Ban Tha Chang,76061601,76061601,13.063798111855267,99.90731835365295
76061602,บ้านหาด,Ban Hat,76061602,76061602,13.05864563482145,99.91258218884468
76061603,บ้านโพธิ์กรุ,Ban Pho Kru,76061603,76061603,13.055953083146777,99.90996837615967
76061604,บ้านไร่ปึก,Ban Rai Puek,76061604,76061604,13.04966250964987,99.91249769926071
76061605,บ้านไร่มะตูม,Ban Rai Mathum,76061605,76061605,13.060035664568428,99.89905312657356
76061606,บ้านคำ,Ban Kham,76061606,76061606,13.052182677633082,99.89478707313538
76061607,บ้านเหมืองหาม,Ban Mueang Ham,76061607,76061607,13.04861602488153,99.89373832941055
76061608,บ้านไร่มาบ,Ban Rai Map,76061608,76061608,13.053632840407937,99.88865956664085
