id,name.th,name.en,name.slug,code.dopa,geo.lat,geo.lon
34072301,บ้านนาอุดม,Ban Na Udom,34072301,34072301,14.73989307243545,105.01082316040993
34072302,บ้านนาแก,Ban Na Kae,34072302,34072302,14.740850234102336,105.04637852311134
34072303,บ้านใหม่พัฒนา,Ban Mai Phatthana,34072303,34072303,14.75664538776627,105.0423176586628
34072304,บ้านทันเวลาสามัคคี,Ban Than Wela Samakkhi,34072304,34072304,14.76014172133681,105.01357913017273
34072305,บ้านโนนสมบูรณ์,Ban Non Sombun,34072305,34072305,14.787179345416368,105.03836542367935
34072306,บ้านขนวน,Ban Khanuan,34072306,34072306,14.742038250048763,105.05250871181488
34072307,บ้านสวนสวรรค์,Ban Suan Sawan,34072307,34072307,14.756507919496848,105.00767692923546
34072308,บ้านกอกกลาง,Ban Kok Klang,34072308,34072308,14.750128518127493,105.00158026814461
34072309,บ้านโนนงาม,Ban Non Ngam,34072309,34072309,14.778505627263156,105.03498986363411
