id,name.th,name.en,name.slug,code.dopa,geo.lat,geo.lon
15010701,บ้านหนองไข่เน่า,Ban Nong Khai Nao,15010701,15010701,14.543211301000735,100.40324941277504
15010702,บ้านบางหัก,Ban Bang Hak,15010702,15010702,14.56959039465496,100.38859516382217
15010703,บ้านท่ามอญ,Ban Tha Mon,15010703,15010703,14.57383214714589,100.39235293865204
15010704,บ้านหัวตะพาน,Ban Hua Taphan,15010704,15010704,14.576119129148491,100.39504319429398
15010705,บ้านคุ้มมักเม่า,Ban Khum Mak Mao,15010705,15010705,14.578892809292906,100.39494663476944
15010706,บ้านโรงนา,Ban Rong Na,15010706,15010706,14.586184423252703,100.39850860834122
