id,name.th,name.en,name.slug,code.dopa,geo.lat,geo.lon
96110601,บ้านเปาะเจ๊ะเต็ง,Ban Po Che Teng,96110601,96110601,6.025405135553363,101.86906054615974
96110602,บ้านกาวะ,Ban Kawa,96110602,96110602,6.029078120552221,101.88570767641068
96110603,บ้านจาแบปะ,Ban Chabaepa,96110603,96110603,6.024360850966407,101.91170498728752
96110604,บ้านสายะ,Ban Sa Ya,96110604,96110604,6.006190244654176,101.90878674387932
96110605,บ้านบาโงฮูมอ,Ban Ba Ngo Hu Mo,96110605,96110605,6.039630145299232,101.89438059926033
96110606,บ้านบาโงสนิง,Ban Ba Ngo Saming,96110606,96110606,6.023032486060508,101.87822967767715
