id,name.th,name.en,name.slug,code.dopa,geo.lat,geo.lon
74010701,บ้านไร่,Ban Rai,74010701,74010701,13.495777695994516,100.08344426751137
74010702,บ้านนาโคก,Ban Na Khok,74010702,74010702,13.47595888018674,100.10370567440987
74010703,บ้านนาโคก,Ban Na Khok,74010703,74010703,13.47664879090514,100.10387867689133
74010704,บ้านชายทะเลรางจันทร์,Ban Chai Thale Rang Chan,74010704,74010704,13.43616762072933,100.11128693819046
74010705,บ้านชายทะเลโรงกุ้ง,Ban Chai Thale Rong Kung,74010705,74010705,13.425908313717937,100.07865250110626
74010706,บ้านสุนัขหอน,Ban Sunak Hon,74010706,74010706,13.485562675652034,100.05447775125504
