id,name.th,name.en,name.slug,code.dopa,geo.lat,geo.lon
85010201,บ้านละออง,Ban La-ong,85010201,85010201,9.864104448098887,98.59597027301788
85010202,บ้านล่าง,Ban Lang,85010202,85010202,9.730128743393873,98.59425365924835
85010203,บ้านราชกรูด,Ban Ratchakrut,85010203,85010203,9.740551071257892,98.59816700220108
85010204,บ้านห้วยน้ำใส,Ban Huai Nam Sai,85010204,85010204,9.727181088827312,98.59877720475197
85010205,บ้านนกงาง,Ban Nok Ngong,85010205,85010205,13.72706875088845,100.5340875685215
85010206,บ้านคลองของ,Ban Khlong Kong,85010206,85010206,13.72706875088845,100.5340875685215
85010207,บ้านห้วยปลิง,Ban Huai Pling,85010207,85010207,13.72706875088845,100.5340875685215
85010208,บ้านช้างแหก,Ban Chang Haek,85010208,85010208,9.666858183437986,98.56525629758835
