id,name.th,name.en,name.slug,code.dopa,geo.lat,geo.lon
21020101,บ้านสำนักท้อน,Ban Samnak Thon,21020101,21020101,12.771564917846005,101.0246005654335
21020102,บ้านชากหมาก,Ban Chak Mak,21020102,21020102,12.795042379329775,101.03061944246292
21020103,บ้านหนองสระ,Ban Nong Sa,21020103,21020103,12.719509402562604,101.00961238145828
21020104,บ้านคลองบางไผ่,Ban Khlong Bang Phai,21020104,21020104,12.713260086229889,101.0015818476677
21020105,บ้านยายร้า,Ban Yai Ra,21020105,21020105,12.754607108275374,101.03977113962173
21020106,บ้านเขาคลอก,Ban Khao Khlong,21020106,21020106,12.754006729973327,101.01335540413857
21020107,บ้านหนองตะเคียน,Ban Nong Takhian,21020107,21020107,12.785563245892556,101.03104189038277
21020108,บ้านเชิงเขา,Ban Choeng Khao,21020108,21020108,12.719806362269205,101.02275788784027
