id,name.th,name.en,name.slug,code.dopa,geo.lat,geo.lon
30170401,บ้านหนองแดง,Ban Nong Daeng,30170401,30170401,15.156276002783768,102.70938590168953
30170402,บ้านหนองหว้า,Ban Nong Wa,30170402,30170402,15.169620127879796,102.69920691847801
30170403,บ้านหนองปรือสมอ,Ban Nong Prue Samo,30170403,30170403,15.169006593604527,102.72099047899246
30170404,บ้านโคกหินช้าง,Ban Khok Hin Chang,30170404,30170404,15.192396003158931,102.72948905825615
30170405,บ้านเก่าตาดำ,Ban Kao Ta Dam,30170405,30170405,15.16591300757474,102.6904334127903
30170406,บ้านหนองหว้าสีชมพู,Ban Nong Wa Si Chomphu,30170406,30170406,15.174907580450784,102.70311489701271
