id,name.th,name.en,name.slug,code.dopa,geo.lat,geo.lon
96080601,บ้านตือมายู,Ban Tue Mayu,96080601,96080601,5.966503289390464,101.84520363807678
96080602,บ้านแขยง,Ban Khaeyong,96080602,96080602,5.975418600239454,101.87037885189056
96080603,บ้านแอแว,Ban Aewae,96080603,96080603,5.976779092721283,101.85926914215088
96080604,บ้านจาแบดูวอ,Ban Chabae Duwo,96080604,96080604,5.977520693081298,101.8383626639843
96080605,บ้านหินสูง,Ban Hin Sung,96080605,96080605,5.986515851913449,101.84855371713638
96080606,บ้านตอแล,Ban Tolae,96080606,96080606,5.9692616625854305,101.85684978961945
96080607,บ้านลูโบะสะโต,Ban Lubo Sato,96080607,96080607,5.971634546017955,101.86676323413849
