id,name.th,name.en,name.slug,code.dopa,geo.lat,geo.lon
40091001,บ้านหนองโน,Ban Nong No,40091001,40091001,16.71522938889705,103.03158894181252
40091002,บ้านป่าติ้ว,Ban Pa Tio,40091002,40091002,16.733088657303558,103.02183106541634
40091003,บ้านกุดโง้ง,Ban Kut Ngong,40091003,40091003,16.742131320775915,103.02406266331673
40091004,บ้านนาเลาะ,Ban Na Lo,40091004,40091004,16.7324298013942,103.04653823375702
40091005,บ้านโคกกลาง,Ban Khok Klang,40091005,40091005,16.739980179266265,103.05904537439346
40091006,บ้านศรีประชาใหม่,Ban Si Pracha Mai,40091006,40091006,16.709146195532572,103.03044095635414
40091007,บ้านประชาชื่น,Ban Pracha Chuen,40091007,40091007,16.708031264912197,103.03307756781578
