id,name.local,name.en,name.slug,code.id,zip_codes,geo.lat,geo.lon
540302,บ้านปิน,Ban Pin,ban-pin-540302,540302,54150,18.065,99.937
540308,บ่อเหล็กลอง,Bo Lek Long,bo-lek-long-540308,540308,54150,18.013,99.719
540306,หัวทุ่ง,Hua Thung,hua-thung-540306,540306,54150,18.093,99.776
540301,ห้วยอ้อ,Huai O,huai-o-540301,540301,54150,18.131,99.825
540309,แม่ปาน,Mae Pan,mae-pan-540309,540309,54150,17.986,99.871
540305,ปากกาง,Pak Kang,pak-kang-540305,540305,54150,18.042,99.811
540303,ต้าผามอก,Ta Pha Mok,ta-pha-mok-540303,540303,54150,18.151,99.983
540307,ทุ่งแล้ง,Thung Laeng,thung-laeng-540307,540307,54150,17.959,99.752
540304,เวียงต้า,Wiang Ta,wiang-ta-540304,540304,54150,18.303,99.999
