id,name.th,name.en,name.slug,code.dopa,geo.lat,geo.lon
20011401,บ้านปึกใหญ่,Ban Puek Yai,20011401,20011401,13.323730962982445,100.92778891324997
20011402,บ้านสวนมะม่วง,Ban Suan Mamuang,20011402,20011402,13.315641091365569,100.93103438615799
20011403,บ้านปึกเล็ก,Ban Puek Lek,20011403,20011403,13.316985289444139,100.9244629740715
20011404,บ้านหนองยีพร้า,Ban Nong Yi Phra,20011404,20011404,13.30935197228323,100.9357537329197
20011405,บ้านสวนหมาก,Ban Suan Mak,20011405,20011405,13.322840946791874,100.93134015798569
20011406,บ้านหนองเพชร,Ban Nong Phet,20011406,20011406,13.30906615867526,100.93463122844696
20011407,บ้านมาบหม้อ,Ban Map Mo,20011407,20011407,13.317291974367723,100.9274174273014
