id,name.th,name.en,name.slug,code.dopa,geo.lat,geo.lon
21010701,บ้านแลง,Ban Laeng,21010701,21010701,12.69999564157825,101.33519232273102
21010702,บ้านก้นหนอง,Ban Kan Nong,21010702,21010702,12.685369804709628,101.34135872125626
21010703,บ้านหนองพญา,Ban Nong Phaya,21010703,21010703,12.69172447368675,101.3407364487648
21010704,บ้านขวากลิง,Ban Kwak Ling,21010704,21010704,12.702050962824307,101.35970503091812
21010705,บ้านหนองหว้า,Ban Nong Wa,21010705,21010705,12.707714457779492,101.34871736168861
21010706,บ้านตระเกราทอง,Ban Tra Krao Thong,21010706,21010706,12.708180195799617,101.3776396214962
21010707,บ้านหนองหิน,Ban Nong Hin,21010707,21010707,12.702544185119436,101.364726126194
