id,name.th,name.en,name.slug,code.dopa,geo.lat,geo.lon
73030801,บ้านวัดท่าใน,Ban Wat Tha Nai,73030801,73030801,13.802239891369183,100.1528987288475
73030802,บ้านคลองวัว (บ้านเก่า),Ban Khlong Wua (Ban Kao),73030802,73030802,13.78387430748858,100.15127465128899
73030803,บ้านกลาง,Ban Klang,73030803,73030803,13.783889937278566,100.15126392245293
73030804,บ้านวัดน้อย,Ban Wat Noi,73030804,73030804,13.789349879901842,100.14416009187698
73030805,บ้านหัวโต่ง (บ้านท่าพระยา),Ban Hua Tong (Ban Tha Phraya),73030805,73030805,13.79103003693584,100.14100447297096
