id,name.local,name.en,name.slug,code.id,zip_codes,geo.lat,geo.lon
380404,บ้านต้อง,Ban Tong,ban-tong-380404,380404,38150,18.099,103.946
380406,น้ำจั้น,Nam Chan,nam-chan-380406,380406,38150,18.063,103.894
380408,หนองทุ่ม,Nong Thum,nong-thum-380408,380408,38150,17.914,103.891
380405,ป่งไฮ,Pong Hai,pong-hai-380405,380405,38150,17.976,103.873
380402,ซาง,Sang,sang-380402,380402,38150,17.839,103.958
380401,เซกา,Seka,seka-380401,380401,38150,17.964,103.945
380409,โสกก่าม,Sok Kam,sok-kam-380409,380409,38150,18.075,104.015
380403,ท่ากกแดง,Tha Kok Daeng,tha-kok-daeng-380403,380403,38150,17.911,103.816
380407,ท่าสะอาด,Tha Sa-at,tha-sa-at-380407,380407,38150,17.975,103.744
