id,name.th,name.en,name.slug,code.dopa,geo.lat,geo.lon
17040201,บ้านหมื่นหาญ,Ban Muen Han,17040201,17040201,14.844565744959368,100.44531852006912
17040202,บ้านบางสำโรง,Ban Bang Samrong,17040202,17040202,14.84338217933029,100.45698747038841
17040203,บ้านเตาอิฐ,Ban Tao It,17040203,17040203,14.834530510497974,100.44200330972672
17040204,บ้านอัมพวัน,Ban Amphawan,17040204,17040204,14.82499005941176,100.4464128613472
17040205,บ้านอัมพวัน,Ban Amphawan,17040205,17040205,14.820628718451168,100.4438365995884
17040206,บ้านบางงา,Ban Bang Nga,17040206,17040206,14.856761408460605,100.45553371310234
