id,name.th,name.en,name.slug,code.dopa,children_count.villages,zip_codes,geo.lat,geo.lon
130207,คลองเจ็ด,Khlong Chet,khlong-chet,130207,9,12120,14.125,100.750
130205,คลองห้า,Khlong Ha,khlong-ha,130205,16,12120,14.106,100.710
130206,คลองหก,Khlong Hok,khlong-hok,130206,14,12120,14.117,100.733
130201,คลองหนึ่ง,Khlong Nueng,khlong-nueng,130201,73,12120,14.066,100.607
130203,คลองสาม,Khlong Sam,khlong-sam,130203,16,12120,14.087,100.664
130204,คลองสี่,Khlong Si,khlong-si,130204,16,12120,14.097,100.687
130202,คลองสอง,Khlong Song,khlong-song,130202,39,12120,14.079,100.642
