id,name.th,name.en,name.slug,code.dopa,geo.lat,geo.lon
76060601,บ้านไร่ใหญ่,Ban Rai Yai,76060601,76060601,13.707723998474574,100.53168430924416
76060602,บ้านหนองปลาไหล,Ban Nong Pla Lai,76060602,76060602,13.749413289253997,100.53340092301369
76060603,บ้านหนองน้ำลาด,Ban Nong Nam Lat,76060603,76060603,13.004421847661872,99.94291126728058
76060604,บ้านไร่ปะแหน,Ban Rai Pra Nae,76060604,76060604,13.72706875088845,100.5340875685215
76060605,บ้านฝั่งห้วย,Ban Fang Huai,76060605,76060605,13.72706875088845,100.5340875685215
76060606,บ้านไร่ถิ่นน้อย,Ban Rai Thin Noi,76060606,76060606,13.72706875088845,100.5340875685215
76060607,บ้านศาลเจ้างิ้ว,Ban San Chao Ngio,76060607,76060607,13.72706875088845,100.5340875685215
76060608,บ้านไร่สัตว์,Ban Rai Sat,76060608,76060608,13.015846139569627,99.92631509900093
76060609,บ้านไร่ภูมิ,Ban Ria Phum,76060609,76060609,13.72706875088845,100.5340875685215
