id,name.th,name.en,name.slug,code.dopa,geo.lat,geo.lon
40110201,บ้านวังม่วง,Ban Wang Muang,40110201,40110201,15.89275472315182,102.85788103938103
40110202,บ้านวังม่วง,Ban Wang Muang,40110202,40110202,15.893590539067736,102.85867229104042
40110203,บ้านห้วยแร่,Ban Huai Rae,40110203,40110203,15.85800854030995,102.83786907792091
40110204,บ้านโนนสว่าง,Ban Non Sawang,40110204,40110204,15.896677094611368,102.8432884812355
40110205,บ้านห้วยโป่ง,Ban Huai Pong,40110205,40110205,15.86842812230455,102.79307752847672
40110206,บ้านโสกนาค,Ban Sok Nak,40110206,40110206,15.88552502858598,102.78409481048584
40110207,บ้านห้วยแร่,Ban Huai Rae,40110207,40110207,15.857676993453724,102.83446401357651
40110208,บ้านโสกนาค,Ban Sok Nak,40110208,40110208,15.885748179152833,102.79773250222206
