id,name.th,name.en,name.slug,code.dopa,geo.lat,geo.lon
93070301,บ้านสวนโหนด,Ban Suan Not,93070301,93070301,7.647355439446586,99.97719258069992
93070302,บ้านตะแพน,Ban Taphaen,93070302,93070302,7.654443879240506,99.87535580992699
93070303,บ้านวังยาว,Ban Wang Yao,93070303,93070303,7.698447250601345,99.91126924753189
93070304,บ้านห้วยครก,Ban Huai Khrok,93070304,93070304,7.6614365036349925,99.83829841017723
93070305,บ้านท่ายูง,Ban Tha Yung,93070305,93070305,7.648862723023091,99.83971193432808
93070306,บ้านหน้าควน,Ban Na Khuan,93070306,93070306,7.651192754968851,99.95341077446938
93070307,บ้านหัสคุณ,Ban Hat Khun,93070307,93070307,7.633075856706708,99.92183446884155
93070308,บ้านท่าข้าม,Ban Tha Kham,93070308,93070308,7.678964744421272,99.89967942237854
93070309,บ้านไสยางผึ้ง,Ban Sai Ya Phueng,93070309,93070309,7.653072189602614,99.96426433324814
