id,name.th,name.en,name.slug,code.dopa,geo.lat,geo.lon
76010801,บ้านไร่ดอน,Ban Rai Don,76010801,76010801,13.114157123113214,99.92652162909508
76010802,บ้านสะพานยี่หน,Ban Saphan Yihon,76010802,76010802,13.115529860245378,99.92147102952003
76010803,บ้านสะพานยี่หน,Ban Saphan Yihon,76010803,76010803,13.114595981868831,99.92196321487427
76010804,บ้านไร่ส้ม,Ban Rai Som,76010804,76010804,13.72706875088845,100.5340875685215
76010805,บ้านไร่ส้ม,Ban Rai Som,76010805,76010805,13.119095545059157,99.91405606269836
76010806,บ้านท่าข้าม,Ban Tha Kham,76010806,76010806,13.72706875088845,100.5340875685215
76010807,บ้านหัวนอน,Ban Hua Non,76010807,76010807,13.72706875088845,100.5340875685215
76010808,บ้านทางหลวง,Ban Thang Luang,76010808,76010808,13.777424324887146,100.46198979020119
76010809,บ้านดอนจุฬา,Ban Don Chula,76010809,76010809,13.098701220135759,99.91964980959892
