id,name.th,name.en,name.slug,code.dopa,geo.lat,geo.lon
12060801,บ้านบนบ้านล่าง,Ban Bon Ban Lang,12060801,12060801,13.909087351915085,100.4908275604248
12060802,บ้านคลองศาลากุล,Ban Khlong Sala Kun,12060802,12060802,13.905189786371443,100.48805549740791
12060803,บ้านศาลากุล,Ban Sala Kun,12060803,12060803,13.9065189234806,100.48312157392502
12060804,บ้านคลองสระน้ำอ้อย,Ban Khlong Sa Nam Oi,12060804,12060804,13.911330309937629,100.47374457120895
12060805,บ้านท่าน้ำ,Ban Tha Nam,12060805,12060805,13.912811717762628,100.47372043132782
12060806,บ้านเสาธงทอง,Ban Sao Thong Thong,12060806,12060806,13.91428790909229,100.4824148118496
12060807,บ้านโอ่งอ่าง,Ban Ong Ang,12060807,12060807,13.913216564823301,100.48845916986465
