id,name.th,name.en,name.slug,code.dopa,geo.lat,geo.lon
53040601,บ้านห้วยโป่ง,Ban Huai Pong,53040601,53040601,17.77497097188728,100.91237023472786
53040602,บ้านห้วยมุ่น,Ban Huai Mun,53040602,53040602,17.811159791423804,100.93325852991867
53040603,บ้านโป่งปุ้น,Ban Pong Pun,53040603,53040603,17.857909791423804,100.96321552991867
53040604,บ้านห้วยพร้าว,Ban Huai Phrao,53040604,53040604,13.72706875088845,100.5340875685215
53040605,บ้านโป่งพาน,Ban Pong Phan,53040605,53040605,13.65234918462675,100.55297031998634
53040606,บ้านธรรมวงศ์,Ban Thammawong,53040606,53040606,13.631663687606016,100.51554813981056
53040607,บ้านส่องสี,Ban Song Si,53040607,53040607,17.754352539183504,100.94277039170265
53040608,บ้านมณีแก้ว,Ban Mani Kaeo,53040608,53040608,17.767619925293598,100.92191353440285
