id,name.local,name.en,name.slug,code.id,zip_codes,geo.lat,geo.lon
820504,บางม่วง,Bang Muang,bang-muang-820504,820504,82110,8.819,98.289
820502,บางนายสี,Bang Nai Si,bang-nai-si-820502,820502,82110,8.914,98.324
820503,บางไทร,Bang Sai,bang-sai-820503,820503,82110,8.773,98.312
820506,โคกเคียน,Khok Khian,khok-khian-820506,820506,82110,8.851,98.388
820507,คึกคัก,Khuekkhak,khuekkhak-820507,820507,82190,8.698,98.28
820508,เกาะคอเขา,Ko Kho Khao,ko-kho-khao-820508,820508,82190,8.962,98.284
820501,ตะกั่วป่า,Takua Pa,takua-pa-820501,820501,82110,8.829,98.362
820505,ตำตัว,Tam Tua,tam-tua-820505,820505,82110,8.784,98.377
