id,name.th,name.en,name.slug,code.dopa,geo.lat,geo.lon
14110401,บ้านหัวคลอง,Ban Hua Khlong,14110401,14110401,14.192309155017604,100.63438341021538
14110402,บ้านลำไทร,Ban Lam Sai,14110402,14110402,14.184234945061476,100.63065379858017
14110403,บ้านลำตาสังข์,Ban Lam Ta Sang,14110403,14110403,14.205782433335978,100.66257074475288
14110404,บ้านลาดทราย,Ban Lat Sai,14110404,14110404,14.210430222803225,100.68236142396927
14110405,บ้านลาดทราย,Ban Lat Sai,14110405,14110405,14.22678058221413,100.69928884506226
14110406,บ้านง่ามผักตบ,Ban Ngam Phak Top,14110406,14110406,14.20643637983423,100.66262170672417
14110407,บ้านสี่แยกวังน้อย,Ban Si Yaek Wang Noi,14110407,14110407,14.230458177649496,100.71571603417397
