id,name.local,name.en,name.slug,code.id,zip_codes,geo.lat,geo.lon
401402,ก้านเหลือง,Kan Lueang,kan-lueang-401402,401402,40230,15.844,102.464
401404,ละหานนา,Lahan Na,lahan-na-401404,401404,40230,15.813,102.367
401403,ท่านางแนว,Tha Nang Naeo,tha-nang-naeo-401403,401403,40230,15.866,102.372
401405,ท่าวัด,Tha Wat,tha-wat-401405,401405,40230,15.735,102.397
401406,ทางขวาง,Thang Khwang,thang-khwang-401406,401406,40230,15.758,102.429
401401,แวงน้อย,Waeng Noi,waeng-noi-401401,401401,40230,15.813,102.423
