id,name.th,name.en,name.slug,code.dopa,geo.lat,geo.lon
37060101,บ้านหัวตะพาน,Ban Hua Taphan,37060101,37060101,15.738501651062892,104.46283310651779
37060102,บ้านหนองขอน,Ban Nong Khon,37060102,37060102,15.732212649123891,104.47367995977402
37060103,บ้านท่าวังหิน,Ban Tha Wang Hin,37060103,37060103,15.704053040951294,104.44600760936737
37060104,บ้านคำแหลม,Ban Kha Laem,37060104,37060104,15.747195178839757,104.48801770806313
37060105,บ้านโสกสว่าง,Ban Sok Sawang,37060105,37060105,15.701718819008342,104.4500832259655
37060106,บ้านหัวตะพาน,Ban Hua Taphan,37060106,37060106,15.722865273637616,104.4614665210247
37060107,บ้านหัวตะพาน,Ban Hua Taphan,37060107,37060107,15.722865273637616,104.4630329310894
37060108,บ้านหัวตะพาน,Ban Hua Taphan,37060108,37060108,15.722720689951284,104.4630329310894
37060109,บ้านดอนว่าน,Ban Don Wan,37060109,37060109,15.716837854116372,104.42968100309372
