id,name.th,name.en,name.slug,code.dopa,geo.lat,geo.lon
86030201,บ้านท่าตาเสือ,Ban Tha Ta Suea,86030201,86030201,10.69947993767824,99.29662361741066
86030202,บ้านเกาะชะอม,Ban Ko Cha-om,86030202,86030202,10.699288858255002,99.31273967027664
86030203,บ้านห้วยหลุด,Ban Huai Lut,86030203,86030203,10.711157956283003,99.31621044874191
86030204,บ้านทะเลทรัพย์,Ban Thale Sap,86030204,86030204,10.69375804512418,99.25151959061623
86030205,บ้านปากบ่อ,Ban Pak Bo,86030205,86030205,10.734797251689853,99.2627526819706
86030206,บ้านบ่อนก,Ban Bo Nok,86030206,86030206,10.76153878720575,99.2343319952488
86030207,บ้านเจริญทรัพย์,Ban Charoen Sap,86030207,86030207,10.714504992143466,99.24883738160133
86030208,บ้านวังทอง,Ban Wang Thong,86030208,86030208,10.724561689864297,99.27670553326607
