id,name.th,name.en,name.slug,code.dopa,geo.lat,geo.lon
38080101,บ้านบุ่งคล้า,Ban Bung Khla,38080101,38080101,18.29670685880827,103.99685427546501
38080102,บ้านบุ่งคล้าทุ่ง,Ban Bung Khla Thung,38080102,38080102,18.29198284033362,103.99420961737633
38080103,บ้านบุ่งคล้าเหนือ,Ban Bung Khla Nuea,38080103,38080103,18.30351380286666,103.99351224303246
38080104,บ้านนาจาน,Ban Na Chan,38080104,38080104,18.276777248133186,103.97108495235443
38080105,บ้านดอนจิก,Ban Don Chik,38080105,38080105,18.272767109756995,104.00125578045845
38080106,บ้านดอนแพง,Ban Don Phaeng,38080106,38080106,18.27120581773369,103.99221137166023
38080107,บ้านขามเปี้ย,Ban Kham Pia,38080107,38080107,18.261865788943933,103.97734388709068
38080108,บ้านซำบอน,Ban Sam Bon,38080108,38080108,18.253430804340127,103.98537576198578
38080109,บ้านโนนสะอาด,Ban Non Sa-at,38080109,38080109,18.262637563845633,104.00409892201424
