id,name.th,name.en,name.slug,code.dopa,geo.lat,geo.lon
72010801,บ้านดอนมะสังข์,Ban Don Masang,72010801,72010801,14.528846986297925,100.18818989396095
72010802,บ้านหนองบอน,Ban Nong Bon,72010802,72010802,14.519855346040824,100.18567934632301
72010803,บ้านลาดตาล,Ban Lat Tan,72010803,72010803,14.54834276331326,100.20040199160576
72010804,บ้านริ้วห้วยพรอด,Ban Riu Huai Phrot,72010804,72010804,14.531631646241447,100.1792111992836
72010805,บ้านลาดตะโก,Ban Lat Tako,72010805,72010805,14.52967394957916,100.2019040286541
