id,name.th,name.en,name.slug,code.dopa,geo.lat,geo.lon
36130501,บ้านทุ่งลุยลาย,Ban Thung Luilai,36130501,36130501,16.49932231327449,101.74689397215843
36130502,บ้านร่องแว่,Ban Rong Wae,36130502,36130502,16.497597937862608,101.76251247525215
36130503,บ้านน้ำทิพย์,Ban Nam Thip,36130503,36130503,16.471270051140166,101.77753552794456
36130504,บ้านหนองหญ้าโก้ง,Ban Nong Ya Kong,36130504,36130504,16.484662703473983,101.79562166333199
36130505,บ้านหนองเชียงรอด,Ban Nong Chiang Rot,36130505,36130505,16.50334836783116,101.8228554725647
36130506,บ้านโนนศิลา,Ban Non Sila,36130506,36130506,16.49919501091723,101.74556493759155
36130507,บ้านหนองเชียงรอดเหนือ,Ban Nong Chiang Rot Nuea,36130507,36130507,16.511829682755028,101.81871816515923
