id,name.th,name.en,name.slug,code.dopa,geo.lat,geo.lon
31200201,บ้านหนองกก,Ban Nong Kok,31200201,31200201,14.355138502207227,102.76649013161659
31200202,บ้านส้มป่อย,Ban Som Poi,31200202,31200202,14.349350348906173,102.76146098971367
31200203,บ้านน้อยสะแกกวน,Ban Noi Sakae Khuan,31200203,31200203,14.32602471954923,102.75104328989983
31200204,บ้านโคกตะแบง,Ban Khok Tabaeng,31200204,31200204,14.400303040429145,102.75752484798431
31200205,บ้านโคกกรวด,Ban Khok Kruat,31200205,31200205,14.35542433306127,102.76624873280525
31200206,บ้านหนองสะแกกวน,Ban Nong Sakae Kuan,31200206,31200206,14.337352609409402,102.74625688791275
31200207,บ้านโคกตะคร้อ,Ban Khok Takhro,31200207,31200207,14.346334733224014,102.7565498650074
