id,name.th,name.en,name.slug,code.dopa,geo.lat,geo.lon
41100201,บ้านหนองหญ้าไซ,Ban Nong Ya Sai,41100201,41100201,16.952865953704418,103.33893522620201
41100202,บ้านโคกสะอาด,Ban Khok Sa-at,41100202,41100202,16.90930124508264,103.37412312626839
41100203,บ้านหนองไผ่,Ban Nong Phai,41100203,41100203,16.94701232413172,103.37818801403046
41100204,บ้านเลิงถ่อน,Ban Loeng Thon,41100204,41100204,16.963847912559416,103.3341796696186
41100205,บ้านโนนสมบูรณ์,Ban Non Sombun,41100205,41100205,16.972693560425313,103.33599150180817
41100206,บ้านไทรทอง,Ban Sai Thong,41100206,41100206,16.954890243405877,103.34252133965492
41100207,บ้านโพธิ์งาม,Ban Pho Ngam,41100207,41100207,16.953067357395373,103.34083557128906
41100208,บ้านพรเจริญ,Ban Phon Charoen,41100208,41100208,16.94861205208738,103.38141337037086
41100209,บ้านเลิงถ่อน,Ban Loeng Thon,41100209,41100209,16.961002747589525,103.33387792110443
