id,name.th,name.en,name.slug,code.dopa,geo.lat,geo.lon
71060601,บ้านกร่างทอง,Ban Krang Thong,71060601,71060601,14.010247418102656,99.6658444404602
71060602,บ้านห้วยนาคราช,Ban Huai Nakkhrat,71060602,71060602,13.997967571804036,99.63141158223152
71060603,บ้านหนองไผ่,Ban Nong Phai,71060603,71060603,13.987059988449115,99.6461033821106
71060604,บ้านทุ่งทอง,Ban Thung Thong,71060604,71060604,14.013547262758419,99.64880436658859
71060605,บ้านป่าดิบ,Ban Pa Dip,71060605,71060605,14.007099769723952,99.66887801885605
71060606,บ้านหนองปลวก,Ban Nong Pluak,71060606,71060606,13.9838164,99.6282838
71060607,บ้านรางกะพอน,Ban Rang Kaphon,71060607,71060607,16.346458,99.897343
71060608,บ้านลานทอง,Ban Lan Thong,71060608,71060608,13.996411,99.6573469
