id,name.th,name.en,name.slug,code.dopa,geo.lat,geo.lon
45061701,บ้านชานุวรรณ,Ban Chanuwan,45061701,45061701,15.79382795502447,104.07596468925476
45061702,บ้านหนองหิน,Ban Nong Hin,45061702,45061702,15.798103250981198,104.07111391425133
45061703,บ้านหนองเรือ,Ban Nong Ruea,45061703,45061703,15.793671807584113,104.06970843672752
45061704,บ้านศาลา,Ban Sala,45061704,45061704,15.796590841477927,104.07724544405937
45061705,บ้านพนัส,Ban Phanat,45061705,45061705,15.790231371456835,104.0966847538948
45061706,บ้านพนัส,Ban Phanat,45061706,45061706,15.792907844818545,104.09958824515343
45061707,บ้านดงสว่าง,Ban Dong Sawang,45061707,45061707,15.741487309873175,104.0796634554863
