id,name.th,name.en,name.slug,code.dopa,geo.lat,geo.lon
92100301,บ้านนาทะเล,Ban Na Thale,92100301,92100301,7.197243086984887,99.5691628754139
92100302,บ้านนาชุมเห็ด,Ban Na Chum Het,92100302,92100302,7.206570059540668,99.56479623913765
92100303,บ้านทุ่งเปลว,Ban Thung Plao,92100303,92100303,7.178213339747901,99.57816705107689
92100304,บ้านตะเสะ,Ban Tase,92100304,92100304,7.150305951301486,99.58826020359993
92100305,บ้านนาควน,Ban Na Khuan,92100305,92100305,7.177295229433628,99.57688629627228
92100306,บ้านโคกออก,Ban Khok Ok,92100306,92100306,7.204028777904818,99.58376884460449
