id,name.local,name.en,name.slug,code.id,zip_codes,geo.lat,geo.lon
360603,บ้านขาม,Ban Kham,ban-kham-360603,360603,36130,15.474,101.805
360601,บ้านกอก,Ban Kok,ban-kok-360601,360601,36130,15.467,101.902
360605,กุดน้ำใส,Kut Nam Sai,kut-nam-sai-360605,360605,36130,15.596,101.794
360607,ละหาน,Lahan,lahan-360607,360607,36130,15.629,101.938
360602,หนองบัวบาน,Nong Bua Ban,nong-bua-ban-360602,360602,36130,15.652,101.802
360611,หนองบัวโคก,Nong Bua Khok,nong-bua-khok-360611,360611,36220,15.448,101.854
360610,หนองบัวใหญ่,Nong Bua Yai,nong-bua-yai-360610,360610,36130,15.561,101.888
360606,หนองโดน,Nong Don,nong-don-360606,360606,36130,15.567,101.736
360613,ส้มป่อย,Sompoi,sompoi-360613,360613,36130,15.711,101.806
