id,name.th,name.en,name.slug,code.dopa,geo.lat,geo.lon
37020201,บ้านโคกสารเทิง,Ban Khok San Thoeng,37020201,37020201,16.160196176918365,105.00704661011696
37020202,บ้านโคกเจริญ,Ban Khok Charoen,37020202,37020202,16.164247253343124,105.01072525978088
37020203,บ้านคันสูง,Ban Khan Sung,37020203,37020203,16.18486330491739,105.0071270763874
37020204,บ้านหินขัน,Ban Hin Khan,37020204,37020204,16.12432153182929,105.03038853406906
37020205,บ้านโคกสารท่า,Ban Khok San Tha,37020205,37020205,16.153871436976257,105.02399817109108
37020206,บ้านโคกสะอาด,Ban Khok Sa-at,37020206,37020206,16.153362615095126,105.01235336065292
37020207,บ้านโคกนกกระเต็น,Ban Khok Nok Kraten,37020207,37020207,16.143256755010757,105.02030611038208
37020208,บ้านโคกเจริญ,Ban Khok Charoen,37020208,37020208,16.160377800881978,105.01167878508568
37020209,บ้านโคกสาร,Ban Khok San,37020209,37020209,16.1652390781638,105.00862240791321
