id,name.th,name.en,name.slug,code.dopa,geo.lat,geo.lon
65081001,บ้านไชยนาม,Ban Chaiyanam,65081001,65081001,16.847750029328992,100.4731048643589
65081002,บ้านวังบอน,Ban Wang Bon,65081002,65081002,16.828988849606727,100.45284882187843
65081003,บ้านบึงพร้าว,Ban Bueng Phrao,65081003,65081003,16.838881829824512,100.46224057674408
65081004,บ้านท่าโปร่ง,Ban Tha Prong,65081004,65081004,16.834432812494487,100.46254500746727
65081005,บ้านเตาอิฐ,Ban Tao It,65081005,65081005,16.835875609718535,100.44944778084755
65081006,บ้านซำบอน,Ban Sam Bon,65081006,65081006,16.817480405626082,100.48636704683304
65081007,บ้านเนินคลี,Ban Noen Khli,65081007,65081007,16.84364265033324,100.45460969209671
65081008,บ้านร้องส้มมวง,Ban Rom Som Muang,65081008,65081008,16.84018083074467,100.445656478405
65081009,บ้านคลองนาเมี่ยง,Ban Khlong Na Mueang,65081009,65081009,16.83526588803363,100.46644359827042
