id,name.th,name.en,name.slug,code.dopa,geo.lat,geo.lon
70010302,"บ้านดอนตะโก, บ้านคอกควาย","Ban Don Tako, Ban Don Khwai",70010302,70010302,13.51782724327323,99.78957742452621
70010303,บ้านดอนแจง,Ban Don Chaeng,70010303,70010303,13.518798685688829,99.81827706098557
70010304,บ้านใหม่,Ban Mai,70010304,70010304,13.508093041296453,99.81204628944397
70010305,"บ้านนครบาล, บ้านมูลโค","Ban Nakhon Ban, Ban Mun Kho",70010305,70010305,13.503974956542917,99.79702055454254
70010306,บ้านเขาหลวง,Ban Khao Luang,70010306,70010306,13.496998304968974,99.79766562581062
70010307,บ้านเขาแง้ม,Ban Khao Ngaem,70010307,70010307,13.503999733072867,99.78432297706604
70010308,บ้านเขาแก่นจันทน์,Ban Khao Kaen Chan,70010308,70010308,13.513861891621826,99.77582171559334
70010309,บ้านเขาแก่นจันทน์,Ban Khao Kaen Chan,70010309,70010309,13.51215367969175,99.7905121743679
70010310,บ้านสวนดอกไม้,Ban Suan Dok Mai,70010310,70010310,13.520529016934372,99.80456694960594
