id,name.th,name.en,name.slug,code.dopa,geo.lat,geo.lon
19050401,บ้านโคกวัว,Ban Khok Wua,19050401,19050401,14.515620346412069,100.83631083369255
19050402,บ้านโคก,Ban Khok,19050402,19050402,14.508670461103023,100.83611235022545
19050403,บ้านขาม,Ban Kham,19050403,19050403,14.500057130348695,100.82346171140671
19050404,บ้านหนองสีดา,Ban Nong Sida,19050404,19050404,14.507440933179303,100.83156734704971
19050405,บ้านหนองสีดา,Ban Nong Sida,19050405,19050405,14.515030919437399,100.82547336816788
19050406,บ้านโดน,Ban Don,19050406,19050406,14.504253476835588,100.81216156482697
