id,name.th,name.en,name.slug,code.dopa,geo.lat,geo.lon
90111801,บ้านทุ่งลุง,Ban Thung Lung,90111801,90111801,6.84825345352241,100.47078743577003
90111802,บ้านคลองตง,Ban Khlong Tong,90111802,90111802,6.849545041999137,100.47783628106117
90111803,บ้านควนเนียง,Ban Khuan Niang,90111803,90111803,6.834290759545999,100.49793809652328
90111804,บ้านปลักเด,Ban Plak De,90111804,90111804,6.841763501396093,100.50926506519318
90111805,บ้านคลองนุ้ย,Ban Khlong Nui,90111805,90111805,6.852542312709662,100.50591766834259
90111806,บ้านควนขี้แรด,Ban Khuan Khi Raet,90111806,90111806,6.8235261841354715,100.54185658693314
90111807,บ้านทุ่งปรือ,Ban Thung Prue,90111807,90111807,6.816342120181302,100.55393189191818
90111808,บ้านคลองประตู,Ban Khlong Pratu,90111808,90111808,6.8319818024955,100.45701295137405
