id,name.th,name.en,name.slug,code.dopa,geo.lat,geo.lon
52060601,บ้านทุ่งฮ้าง,Ban Thung Hang,52060601,52060601,18.88384204270519,99.67075288295746
52060602,บ้านแจ้คอน,Ban Chae Khon,52060602,52060602,18.924667159906914,99.66237634420395
52060603,บ้านหัวฝาย,Ban Hua Fai,52060603,52060603,18.938495729167563,99.67027544975281
52060604,บ้านทุ่งผึ้ง,Ban Thung Phueng,52060604,52060604,18.95148981104384,99.66861248016357
52060605,บ้านแม่ช่อฟ้า,Ban Mae Cho Fa,52060605,52060605,18.864422607219645,99.73039582371712
52060606,บ้านแจ้คอน,Ban Chae Khon,52060606,52060606,18.919370620048863,99.66005489230156
5206067,บ้านใหม่สามัคคี,Ban Mai Samakkhi,5206067,5206067,18.885388851231788,99.64081406593323
5206068,บ้านแม่จอกฟ้า,Ban Mae Chok Fa,5206068,5206068,18.84333443400529,99.7824414074421
