id,name.th,name.en,name.slug,code.dopa,geo.lat,geo.lon
91011201,บ้านไร่,Ban Rai,91011201,91011201,6.6937517744614405,100.08202537894249
91011202,บ้านกาเน๊ะ,Ban Kane,91011202,91011202,6.651253659079769,100.08055552840233
91011203,บ้านเกตรี,Ban Ketri,91011203,91011203,6.696548888096213,100.08449837565422
91011204,บ้านลูโป๊ะฆอเล๊าะ,Ban Lupo Kholo,91011204,91011204,6.673676020438828,100.07415443658829
91011205,บ้านวังพะเนียด,Ban Wang Phaniat,91011205,91011205,6.692924624930295,100.10779738426208
91011206,บ้านโคกมุดพัฒนา,Ban Khok Mut Phatthana,91011206,91011206,6.722458721068374,100.0913742184639
91011207,บ้านทุ่ง,Ban Thung,91011207,91011207,6.6930311821143915,100.08989229798317
