id,name.th,name.en,name.slug,code.dopa,geo.lat,geo.lon
75030701,บ้านปลายคลองอ้อม,Ban Plai Khlong Om,75030701,75030701,13.428001952362699,99.93180558085442
75030702,บ้านปากคลองอ้อม,Ban Pak Khlong Om,75030702,75030702,13.436719380307174,99.93370190262794
75030703,บ้านปากคลองบางเชิงกรานต์,Ban Pak Khlong Ban Choeng Kran,75030703,75030703,13.439892951526286,99.93127584457397
75030704,บ้านปากคลองบางเชิงกรานต์,Ban Pak Khlong Ban Choeng Kran,75030704,75030704,13.435165841229967,99.92705404758453
75030705,บ้านบางเกาะ,Ban Bang Ko,75030705,75030705,13.434341457045269,99.93744224309921
75030706,บ้านปากน้ำ,Ban Pak Nam,75030706,75030706,13.43885857801578,99.94279459118843
75030707,บ้านบางแคใหญ่,Ban Bang Khae Yai,75030707,75030707,13.432040471008143,99.9447700381279
75030708,บ้านคลองบางแค,Ban Khlong Bang Khae,75030708,75030708,13.429959911913036,99.94496449828148
