id,name.th,name.en,name.slug,code.dopa,geo.lat,geo.lon
60011701,บ้านดงยาง,Ban Dong Yang,60011701,60011701,15.760651019531014,100.13953730463982
60011702,บ้านสันพิง,Ban San Phing,60011702,60011702,15.727147227849345,100.1506657898426
60011703,บ้านคลองคาง,Ban Khlong Khang,60011703,60011703,15.721789930011798,100.1421283185482
60011704,บ้านคลองมอญ,Ban Khlong Mon,60011704,60011704,15.727732003870369,100.13767316937447
60011705,บ้านคลองลาดเค้า,Ban Khlong Lat Khao,60011705,60011705,15.737940140940593,100.13097301125526
60011706,บ้านคลองกร่าง,Ban Khlong Krang,60011706,60011706,15.719604370177764,100.14905378222466
