id,name.th,name.en,name.slug,code.dopa,geo.lat,geo.lon
86060401,บ้านพระรักษ์,Ban Phra Rak,86060401,86060401,9.870445203810645,98.85703772306442
86060402,บ้านพระรักษ์คลองราง,Ban Phra Rak Khlong Rang,86060402,86060402,9.882863429495659,98.8719467818737
86060403,บ้านคลองเหนกซอยสอง,Ban Khlong Nek Soi Song,86060403,86060403,9.90159095498393,98.87553423643112
86060404,บ้านน้ำยืน,Ban Nam Yuen,86060404,86060404,9.877656525443488,98.86798113584518
86060405,บ้านโหมง,Ban Mong,86060405,86060405,9.876270558156616,98.91424119472504
86060406,บ้านพูนสุข,Ban Phun Suk,86060406,86060406,9.885098898153531,98.90220209956169
86060407,บ้านเขาช่องแบก,Ban Khao Chong Baek,86060407,86060407,9.893587463074722,98.9106322824955
86060408,บ้านไร่ยาว,Ban Rai Yao,86060408,86060408,9.869341955441246,98.92852127552032
86060409,บ้านจำปุย,Ban Cham Pui,86060409,86060409,9.849813187352861,98.9166122674942
