id,name.th,name.en,name.slug,code.dopa,geo.lat,geo.lon
76070401,บ้านเหมืองกลาง,Ban Mueang Klang,76070401,76070401,13.099124431957794,100.06329417228699
76070402,บ้านนาแค,Ban Na Khae,76070402,76070402,13.09376108266619,100.04133358597755
76070403,บ้านทำเนียบ,Ban Thamniap,76070403,76070403,13.093588659367969,100.0620187819004
76070404,บ้านบนดอน,Ban Bon Don,76070404,76070404,13.099294238965868,100.06330624222755
76070405,บ้านหนองแห้ว,Ban Nong Haeo,76070405,76070405,13.125548911227215,100.05079910159111
76070406,บ้านนาบัว,Ban Na Bua,76070406,76070406,13.120542702017783,100.03467366099358
76070407,บ้านร่องใหญ่,Ban Rong Yai,76070407,76070407,13.087897316562687,100.06150111556053
76070408,บ้านบางแก้ว,Ban Bang Kaeo,76070408,76070408,13.10699421060106,100.05861639976501
