id,name.th,name.en,name.slug,code.dopa,geo.lat,geo.lon
25081001,บ้านกรอกสมบูรณ์,Ban Krok Sombun,25081001,25081001,13.776735291581954,101.66470035910606
25081002,บ้านวังขอน,Ban Wang Khon,25081002,25081002,13.853779786532163,101.61793738603592
25081003,บ้านวังทะลุ,Ban Wang Thalu,25081003,25081003,13.878933533849889,101.58619210124016
25081004,บ้านประพาส,Ban Praphat,25081004,25081004,13.8838366280284,101.59869655966759
25081005,บ้านคลองประดู่,Ban Khlong Pradu,25081005,25081005,13.780684505960226,101.45154386758804
25081006,บ้านหนองแสง,Ban Nong Saeng,25081006,25081006,13.84805311658363,101.57792150974274
25081007,บ้านทุ่งบัวงาม,Ban Thung Bua Ngam,25081007,25081007,13.744990667592432,101.6543684899807
