id,name.th,name.en,name.slug,code.dopa,children_count.villages,zip_codes,geo.lat,geo.lon
320201,ชุมพลบุรี,Chumphon Buri,chumphon-buri,320201,22,32190,15.377,103.411
320208,กระเบื้อง,Krabueang,krabueang,320208,10,32190,15.359,103.291
320206,เมืองบัว,Mueang Bua,mueang-bua,320206,17,32190,15.429,103.205
320202,นาหนองไผ่,Na Nong Phai,na-nong-phai,320202,19,32190,15.376,103.487
320209,หนองเรือ,Nong Ruea,nong-ruea,320209,10,32190,15.312,103.557
320203,ไพรขลา,Phrai Khla,phrai-khla,320203,12,32190,15.395,103.556
320207,สระขุด,Sa Khut,sa-khut,320207,11,32190,15.440,103.150
320204,ศรีณรงค์,Si Narong,si-narong,320204,13,32190,15.373,103.338
320205,ยะวึก,Yawuek,yawuek,320205,10,32190,15.359,103.230
