id,name.th,name.en,name.slug,code.dopa,geo.lat,geo.lon
94021401,บ้านแม่กัง,Ban Mae Kang,94021401,94021401,6.721550375194984,101.18571415543556
94021402,บ้านช้างให้,Ban Chang Hai,94021402,94021402,6.667950976275003,101.1687545478344
94021403,บ้านส้ม,Ban Som,94021403,94021403,6.678031697900798,101.18688762187958
94021404,บ้านหนองครก,Ban Nong Khrok,94021404,94021404,6.71056218590057,101.17925003170967
94021405,บ้านตุปะ,Ban Tu Pa,94021405,94021405,6.697278798921486,101.18079364299774
94021406,บ้านคลองกลาง,Ban Khlong Klang,94021406,94021406,6.722607892075926,101.18657782673836
