id,name.th,name.en,name.slug,code.dopa,children_count.villages,zip_codes,geo.lat,geo.lon
331402,พิงพวย,Phing Phuai,phing-phuai,331402,14,33240,14.744,104.453
331403,สระเยาว์,Sa Yao,sa-yao,331403,14,33240,14.785,104.515
331407,สะพุง,Saphung,saphung,331407,14,33240,14.828,104.474
331401,ศรีแก้ว,Si Kaeo,si-kaeo,331401,15,33240,14.766,104.476
331406,ศรีโนนงาม,Si Non Ngam,si-non-ngam,331406,10,33240,14.806,104.419
331405,เสืองข้าว,Sueang Khao,sueang-khao,331405,11,33240,14.813,104.555
331404,ตูม,Tum,tum,331404,12,33240,14.866,104.488
