id,name.th,name.en,name.slug,code.dopa,geo.lat,geo.lon
33170601,บ้านนาตราว,Ban Na Trao,33170601,33170601,14.507144910653102,104.21107292175293
33170602,บ้านไร่พัฒนา,Ban Rai Phatthana,33170602,33170602,14.502979779822683,104.20822575688362
33170603,บ้านจำปานวง,Ban Champa Nuang,33170603,33170603,14.50097249117249,104.18591111898422
33170604,บ้านคูสี่แจ,Ban Khu Si Chae,33170604,33170604,14.476182406073242,104.15482968091965
33170605,บ้านกลาง,Ban Klang,33170605,33170605,14.476543396184672,104.14784118533134
33170606,บ้านแซร์สะโบว,Ban Sae Sabo,33170606,33170606,14.474013855995409,104.1311725974083
33170607,บ้านโนนจำปา,Ban Non Champa,33170607,33170607,14.502086499668263,104.18949723243713
33170608,บ้านสันติสุข,Ban Santi Suk,33170608,33170608,14.506145182529933,104.20998394489288
