id,name.th,name.en,name.slug,code.dopa,geo.lat,geo.lon
54030501,บ้านร่องบอน,Ban Rong Bon,54030501,54030501,18.06263105793699,99.81584563851357
54030502,บ้านปากกาง,Ban Pak Kang,54030502,54030502,18.054191548161338,99.81216162443161
54030503,บ้านท่าเดื่อ,Ban Tha Duea,54030503,54030503,18.048854008875715,99.81343299150467
54030504,บ้านวังเคียน,Ban Wang Khian,54030504,54030504,18.0453002348368,99.79769513010979
54030505,บ้านไฮสร้อย,Ban Hai Soi,54030505,54030505,18.03842328050436,99.78483259677887
54030506,บ้านปากปง,Ban Pak Pong,54030506,54030506,18.055317434579,99.80345517396927
54030507,บ้านวังต้นเกลือ,Ban Wang Ton Kluea,54030507,54030507,18.050738614833026,99.80379581451416
54030508,บ้านพร้าว-ท่าหลุก,Ban Phrao - Tha Luk,54030508,54030508,18.068369795029636,99.81832802295685
54030509,บ้านหาดทรายคำ,Ban Hat Sai Kham,54030509,54030509,18.03425336641136,99.78518396615982
