id,name.th,name.en,name.slug,code.dopa,geo.lat,geo.lon
82010901,บ้านป่ากอ,Ban Pa Ko,82010901,82010901,8.496977496245025,98.5012748837471
82010902,บ้านปากโตน,Ban Pak Ton,82010902,82010902,8.483777094751643,98.50083768367767
82010903,บ้านในโตน,Ban Nai Ton,82010903,82010903,8.496461532487912,98.47615867853165
82010904,บ้านพรุดีด,Ban Phru Dit,82010904,82010904,8.502783035444107,98.47151443362236
82010905,บ้านนอก,Ban Nok,82010905,82010905,8.494546226506946,98.46727654337883
