id,name.th,name.en,name.slug,code.dopa,geo.lat,geo.lon
92030201,บ้านโหละหาร,Ban Ho Lahan,92030201,92030201,7.394134164818349,99.70114901661873
92030202,บ้านพรุกำหวาน,Ban Phru Kam Wan,92030202,92030202,7.434375355433823,99.73203599452972
92030203,บ้านหนักแบก,Ban Nak Baek,92030203,92030203,7.427158304413794,99.72336709499359
92030204,บ้านปากคลอง,Ban Pak Khlong,92030204,92030204,13.72706875088845,100.5340875685215
92030205,บ้านทุ่งเกาะญวน,Ban Thung Ko Yuan,92030205,92030205,7.404579486896358,99.71732944250107
92030206,บ้านพรุนายช้าง,Ban Phru Nai Chang,92030206,92030206,13.72706875088845,100.5340875685215
