id,name.th,name.en,name.slug,code.dopa,geo.lat,geo.lon
82020101,บ้านท่าค่าย,Ban Tha Khai,82020101,82020101,8.117092261022112,98.59319016337395
82020102,บ้านใหญ่,Ban Yai,82020102,82020102,8.123738515839724,98.59735697507858
82020103,บ้านน้ำจืด,Ban Nam Chuet,82020103,82020103,8.130939607389282,98.60277369618416
82020104,บ้านท่าเขา,Ban Tha Khao,82020104,82020104,8.135181340298493,98.6265917122364
82020105,บ้านริมทะเล,Ban Rim Thale,82020105,82020105,8.10137368325999,98.60727041959763
82020106,บ้านแหลมยาง,Ban Laem Yang,82020106,82020106,8.096484986111918,98.5879048705101
82020107,บ้านอันเป้า,Ban An Pao,82020107,82020107,8.13655939597838,98.60502004623413
