id,name.th,name.en,name.slug,code.dopa,geo.lat,geo.lon
64010901,บ้านปากพระ,Ban Pak Phra,64010901,64010901,16.917708084063474,99.84360381960869
64010902,บ้านลัดทรายมูล,Ban Lat Sai Mun,64010902,64010902,16.93706086394223,99.82443138957024
64010903,บ้านจอมสังข์,Ban Chom Sang,64010903,64010903,16.893058765606913,99.82529640197754
64010904,บ้านวังขวาก,Ban Wang Khwak,64010904,64010904,16.918456110322456,99.85097989439964
64010905,บ้านหนองพยอม,Ban Nong Phayom,64010905,64010905,16.89617058295402,99.84435886144638
64010906,บ้านวังกุ้ง,Ban Wang Kung,64010906,64010906,16.931165687267033,99.84043210744858
