id,name.th,name.en,name.slug,code.dopa,geo.lat,geo.lon
77080301,บ้านตาลเจ็ดยอด,Ban Tan Chet Yot,77080301,77080301,12.233873743467964,99.87937107682228
77080302,บ้านสามร้อยยอด,Ban Sam Roi Yot,77080302,77080302,12.21069914158376,99.90047201514244
77080303,บ้านไร่เก่า,Ban Rai Kao,77080303,77080303,12.23330623180742,99.85419049859047
77080304,บ้านไร่ดินทอง,Ban Rai Din Thong,77080304,77080304,12.246578870090064,99.83789339661598
77080305,บ้านห้วยขมิ้น,Ban Huai Khamin,77080305,77080305,12.211067465988014,99.87813994288445
77080306,บ้านหนองไทร,Ban Nong Sai,77080306,77080306,12.239640536478474,99.81624260544777
77080307,บ้านเนินพะยอม,Ban Noen Phayom,77080307,77080307,12.239678544469347,99.77061554789543
77080308,บ้านไร่เจริญ,Ban Rai Charoen,77080308,77080308,12.218129757931852,99.8715041577816
