id,name.th,name.en,name.slug,code.dopa,geo.lat,geo.lon
95040101,บ้านธารโต,Ban Than To,95040101,95040101,6.165948967580794,101.18040069937706
95040102,บ้านหน้าเกษตร,Ban Na Kaset,95040102,95040102,6.193095200047813,101.1741578578949
95040103,บ้านจาเราะแป,Ban Charopae,95040103,95040103,6.14621774414919,101.2141965329647
95040104,บ้านศรีท่าน้ำ,Ban Si Tha Nam,95040104,95040104,6.164596952829786,101.21357291936874
95040105,บ้านบันนังกระแจะ,Ban Ban Nang Krachae,95040105,95040105,6.1433189339845535,101.19272947311401
95040106,บ้านมายอ,Ban Mayo,95040106,95040106,6.150475259606956,101.18621438741684
95040107,บ้านหลังเกษตร,Ban Lang Kaset,95040107,95040107,6.18667809509294,101.15850180387497
