id,name.th,name.en,name.slug,code.dopa,geo.lat,geo.lon
63061001,บ้านค้างภิบาล,Ban Khang Phiban,63061001,63061001,16.693938648583803,98.59503149986267
63061002,บ้านหัวฝาย,Ban Hua Fai,63061002,63061002,16.707865566142015,98.60575899481773
63061003,บ้านแม่ตาวใหม่,Ban Mae Tao Mai,63061003,63061003,16.669599430716488,98.60293328762054
63061004,บ้านพะเด๊ะ,Ban Phate,63061004,63061004,16.67798862746959,98.62816751003265
63061005,บ้านถ้ำเสือ,Ban Tham Suea,63061005,63061005,16.669731759340166,98.67054507136345
63061006,บ้านขุนห้วย,Ban Khun Huai,63061006,63061006,16.72262503714649,98.66366788744926
63061007,บ้านเอื้องดอย,Ban Ueang Doi,63061007,63061007,16.703698644356457,98.61738502979279
