id,name.th,name.en,name.slug,code.dopa,geo.lat,geo.lon
32051401,บ้านตานี,Ban Tani,32051401,32051401,14.628757276246175,103.25973093509674
32051402,บ้านหนองกระบือ,Ban Nong Krabue,32051402,32051402,14.627878779454987,103.25563386082649
32051403,บ้านหนองปรือ,Ban Nong Prue,32051403,32051403,14.609511292855203,103.27845677733421
32051404,บ้านโคกเพนา,Ban Khok Phena,32051404,32051404,14.594220753276861,103.29381108283997
32051405,บ้านโคกจำเริญ,Ban Khok Chamroen,32051405,32051405,14.594220753276861,103.29381108283997
32051406,บ้านสว่างพัฒนา,Ban Sawang Phatthana,32051406,32051406,14.60016215354662,103.24414595961571
32051407,บ้านนาครอง,Ban Na Khrong,32051407,32051407,14.586101358878242,103.2228197157383
32051408,บ้านตาจัน,Ban Ta Chan,32051408,32051408,14.619611394481394,103.25429946184158
32051409,บ้านเดื่อพัฒนา,Ban Duea Phatthana,32051409,32051409,14.607123432775523,103.2817491889
