id,name.th,name.en,name.slug,code.dopa,geo.lat,geo.lon
22010401,บ้านเกาะขวาง,Ban Ko Khwang,22010401,22010401,12.578528278625674,102.11954265832901
22010402,บ้านเกาะขวาง,Ban Ko Khwang,22010402,22010402,12.580316251535233,102.11641922593117
22010403,บ้านอ่างหิน,Ban Ang Hin,22010403,22010403,12.586015168467112,102.10189908742905
22010404,บ้านเกาะลอย,Ban Ko Loi,22010404,22010404,12.57624028341999,102.0839524269104
22010405,บ้านเกาะโตนด,Ban Ko Tanot,22010405,22010405,12.570826501926314,102.10194602608681
22010406,บ้านเกาะโตนด,Ban Ko Tanot,22010406,22010406,12.5685790160897,102.10417360067368
22010407,บ้านเกาะตะเคียน,Ban Ko Takhian,22010407,22010407,12.562813,102.117297
22010408,บ้านเกาะตะเคียน,Ban Ko Takhian,22010408,22010408,12.565746396741455,102.11442768573761
22010409,บ้านเกาะตะเคียน,Ban Ko Takhian,22010409,22010409,12.56301977478817,102.1151103079319
