id,name.th,name.en,name.slug,code.dopa,geo.lat,geo.lon
19021501,บ้านท่ามะปราง,Ban Tha Maprang,19021501,19021501,14.468697572343936,101.06224671006203
19021502,บ้านน้ำซับ,Ban Nam Sap,19021502,19021502,14.471227173113427,101.05745360255241
19021503,บ้านโป่งมงคล,Ban Pong Mongkhon,19021503,19021503,14.447877915828755,101.07703104615211
19021504,บ้านหนองคล้า,Ban Nong Khla,19021504,19021504,14.486439230894712,101.04875922203064
19021505,บ้านโป่งก้อนเส้า,Ban Pong Kon Sao,19021505,19021505,14.491777162842801,101.13707363605499
