id,name.th,name.en,name.slug,code.dopa,geo.lat,geo.lon
71011101,บ้านท่ากระบือ,Ban Tha Krabue,71011101,71011101,13.936781086911486,99.50067400932312
71011102,บ้านท่าอ้อ,Ban Tha O,71011102,71011102,13.95630073393327,99.47735622525215
71011103,บ้านแก่งหลวง,Ban Kaeng Luang,71011103,71011103,13.942394927979676,99.49617594480515
71011104,บ้านเกาะสำโรง,Ban Ko Samrong,71011104,71011104,13.96868691978329,99.48098659515381
71011105,บ้านเขาตก,Ban Khao Tok,71011105,71011105,13.972156546261244,99.51101794838905
71011106,บ้านชายทุ่ง,Ban Chai Thung,71011106,71011106,13.952229558932023,99.48562145233154
71011107,บ้านถ้ำมังกรทอง,Ban Tham Mangkon Thong,71011107,71011107,13.988645016585123,99.51148733496666
71011108,บ้านเขาขวาง,Ban Khao Khwang,71011108,71011108,13.949399997910215,99.57913264632225
71011109,บ้านท่าแล่นพัฒนา,Ban Tha Laen Phatthana,71011109,71011109,13.911795040830217,99.49421525001526
