id,name.th,name.en,name.slug,code.dopa,geo.lat,geo.lon
93100201,บ้านลานข่อย,Ban Lan Khoi,93100201,93100201,7.88694463779258,99.8509356379509
93100202,บ้านห้วยหลุด,Ban Huai Lut,93100202,93100202,7.880976009644075,99.88919198513031
93100203,บ้านทุ่งชุมพล,Ban Thung Chumphon,93100203,93100203,7.886686924489927,99.84198912978172
93100204,บ้านห้วยเรียน,Ban Huai Rian,93100204,93100204,7.867145412415582,99.8269285261631
93100205,บ้านถ้ำลา,Ban Tham La,93100205,93100205,7.856995684359959,99.8003277182579
93100206,บ้านมาดนั่ง,Ban Mat Nang,93100206,93100206,7.867233092230495,99.87363517284393
93100207,บ้านห้วยศรีเกษร,Ban Huai Si Kasen,93100207,93100207,7.860864301087184,99.89200964570045
93100208,บ้านห้วยรำพึง,Ban Huai Ram Phueng,93100208,93100208,7.855971398276937,99.82347920536995
93100209,บ้านควนยาว,Ban Khuan Yao,93100209,93100209,7.845647356937072,99.79693874716759
