id,name.th,name.en,name.slug,code.dopa,geo.lat,geo.lon
72071001,บ้านต้นตาล,Ban Ton Tan,72071001,72071001,14.202136939506902,100.07338598370552
72071002,บ้านท้ายบ้าน,Ban Thai Ban,72071002,72071002,14.214108084200431,100.05758911371231
72071003,บ้านกลาง,Ban Klang,72071003,72071003,14.218581499907888,100.05212008953094
72071004,บ้านแม่พระประจักษ์,Ban Mae Phra Prachak,72071004,72071004,14.231630731724632,100.05103379487991
72071005,บ้านโคกงูเห่า,Ban Khok Ngu Hao,72071005,72071005,14.2568521695228,100.0750757753849
72071006,บ้านไผ่หมู่,Ban Phai Mu,72071006,72071006,14.234176011088893,100.04588529467583
