id,name.th,name.en,name.slug,code.dopa,geo.lat,geo.lon
61050201,บ้านหนองไผ่,Ban Nong Phai,61050201,61050201,15.37410689700293,99.92543801665306
61050202,บ้านหนองไผ่,Ban Nong Phai,61050202,61050202,15.375625006729113,99.92245271801949
61050203,บ้านทุ่งน้ำเค็ม,Ban Thung Nam Khem,61050203,61050203,15.368880066665835,99.91369262337685
61050204,บ้านหนองโสน,Ban Nong Sano,61050204,61050204,15.361959034737747,99.89595919847488
61050205,บ้านดงจันทร์,Ban Dong Chan,61050205,61050205,15.352115048850806,99.90974977612495
61050206,บ้านหนองระแหงเหนือ,Ban Nong Rahaeng Nuea,61050206,61050206,15.354567036224333,99.90942254662514
61050207,บ้านหนองระแหงใต้,Ban Nong Rahaeng Tai,61050207,61050207,15.348654283470047,99.91438999772072
61050208,บ้านหนองสะแก,Ban Nong Sakae,61050208,61050208,15.322901077167124,99.9000133574009
61050209,บ้านหนองปลาไหล,Ban Nong Pla Lai,61050209,61050209,15.330413188017465,99.88159194588661
