id,name.th,name.en,name.slug,code.dopa,geo.lat,geo.lon
85050101,บ้านบางมัน,Ban Bang Man,85050101,85050101,9.452496079770366,98.49494621157646
85050102,บ้านนาพรุ,Ban Na Phru,85050102,85050102,9.432657373005856,98.46577048301697
85050103,บ้านบางกล้วยนอก,Ban Bang Kluai Nok,85050103,85050103,9.394889768856139,98.4329442679882
85050104,บ้านควนไทรงาม,Ban Khuan Sai Ngam,85050104,85050104,9.39825972866285,98.4514407813549
85050105,บ้านฝ่ายท่า,Ban Fai Tha,85050105,85050105,9.41432976476981,98.4643529355526
85050106,บ้านแหลมนาว,Ban Laem Nao,85050106,85050106,9.561470763277427,98.46787601709366
85050107,บ้านไร่ใน,Ban Rai Nai,85050107,85050107,9.386188849398442,98.46192955970764
85050108,บ้านทุ่งถั่ว,Ban Thung Thua,85050108,85050108,9.43154607531386,98.46151247620583
