id,name.th,name.en,name.slug,code.dopa,geo.lat,geo.lon
94031201,บ้านมะพร้าวต้นเดียว,Ban Ma Phrao Ton Diao,94031201,94031201,6.818041270890474,101.24141559004784
94031202,บ้านแนบุ,Ban Mae Bu,94031202,94031202,6.795616258368889,101.23945221304893
94031203,บ้านกาเดาะ,Ban Ka Do,94031203,94031203,6.7932698277900005,101.21514201164246
94031204,บ้านท่ากูโบ,Ban Tha Ku Bo,94031204,94031204,6.781699973277618,101.21001496911049
94031205,บ้านทุ่งโพธิ์,Ban Thung Pho,94031205,94031205,6.778104312708759,101.21793687343597
