id,name.th,name.en,name.slug,code.dopa,geo.lat,geo.lon
90060401,บ้านกะเชะ,Ban Ka Che,90060401,90060401,6.652174124304107,101.0481396317482
90060402,บ้านห้วยบอน,Ban Huai Bon,90060402,90060402,6.629400429579393,101.04710564017296
90060403,บ้านนากัน,Ban Na Kan,90060403,90060403,6.6277579014016945,101.02882638573647
90060404,บ้านนาม่วง,Ban Na Muang,90060404,90060404,6.666798766420427,101.01837381720543
90060405,บ้านโคก,Ban Khok,90060405,90060405,6.626231264466928,101.05403110384941
90060406,บ้านละโอน,Ban La On,90060406,90060406,6.620284528955249,101.04124903678894
90060407,บ้านพรุจา,Ban Phu Cha,90060407,90060407,6.630326264218397,101.03326544165611
