id,name.local,name.en,name.slug,code.id,zip_codes,geo.lat,geo.lon
950204,อัยเยอร์เวง,Aiyoe Weng,aiyoe-weng-950204,950204,95110,5.963,101.398
950201,เบตง,Betong,betong-950201,950201,95110,5.803,101.009
950203,ตาเนาะแมเราะ,Tano Maero,tano-maero-950203,950203,95110,5.853,101.099
950205,ธารน้ำทิพย์,Than Nam Thip,than-nam-thip-950205,950205,95110,5.686,101.141
950202,ยะรม,Yarom,yarom-950202,950202,95110,5.771,101.203
