id,name.th,name.en,name.slug,code.dopa,geo.lat,geo.lon
66090201,บ้านหนองผักบุ้ง,Ban Nong Phak Bung,66090201,66090201,16.523116094996332,100.56396469473839
66090202,บ้านท่าเยี่ยม,Ban Tha Yiam,66090202,66090202,16.524418528703826,100.55174186825752
66090203,บ้านท่าชะโงก,Ban Tha Cha-ngok,66090203,66090203,16.530121876308588,100.54529920220375
66090204,บ้านวังอ้อเหนือ,Ban Tha Khlo Nuea,66090204,66090204,16.519926188178562,100.52828997373581
66090205,บ้านท่าคล้อ,Ban Tha Khlo,66090205,66090205,16.50110839508925,100.527154058218
66090206,บ้านท่าคล้อเหนือ,Ban Tha Khlo Nuea,66090206,66090206,16.508284702960026,100.52062153816223
