id,name.th,name.en,name.slug,code.dopa,geo.lat,geo.lon
94070201,บ้านตะบิ้ง,Ban Tabing,94070201,94070201,6.6984948705538985,101.60310208797455
94070202,บ้านกูแบบาเดาะ,Ban Kubae Bado,94070202,94070202,6.687055952116499,101.6029840707779
94070203,บ้านเจาะกือแย,Ban Cho Kue Yae,94070203,94070203,6.684907462122858,101.57544314861298
94070204,บ้านแซะโมะ,Ban Sae Mo,94070204,94070204,6.677293766281053,101.58475309610367
94070205,บ้านลานช้าง,Ban Lan Chang,94070205,94070205,6.677525535537791,101.57173365354538
94070206,บ้านกาเยาะมาตี,Ban Kayo Mati,94070206,94070206,6.678331399053161,101.57382309436798
