id,name.th,name.en,name.slug,code.dopa,geo.lat,geo.lon
66011301,บ้านหัวดง,Ban Hua Dong,66011301,66011301,16.339264331033675,100.40303349494934
66011302,บ้านลำชะล่า,Ban Lam Chala,66011302,66011302,16.334027698140883,100.43493166565895
66011303,บ้านเขาพระ,Ban Khao Phra,66011303,66011303,16.331129407986186,100.40197938680649
66011304,บ้านเนินยาว,Ban Noen Yao,66011304,66011304,16.33323105872537,100.4553177952766
66011305,บ้านหนองนาดำ,Ban Nong Na Kham,66011305,66011305,16.35234950848586,100.44836148619652
66011306,บ้านน้ำโจน,Ban Nam Chon,66011306,66011306,16.299000813563335,100.41213288903236
66011307,บ้านหัวดง,Ban Hua Dong,66011307,66011307,16.346325648467822,100.39692476391792
66011308,บ้านหัวดง,Ban Hua Dong,66011308,66011308,16.350864472449537,100.39746791124344
66011309,บ้านปากคลอง,Ban Pak Khlong,66011309,66011309,16.321794614045338,100.40326818823814
