id,name.th,name.en,name.slug,code.dopa,geo.lat,geo.lon
92080201,บ้านช่อง,Ban Chong,92080201,92080201,7.550367742371922,99.76770132780075
92080202,บ้านห้วยลึก,Ban Huai Luek,92080202,92080202,7.512997196512679,99.76301416754723
92080203,บ้านหนักไทร,Ban Nak Sai,92080203,92080203,7.539867407323407,99.75271582603455
92080204,บ้านไสขนุน,Ban Sai Khanun,92080204,92080204,7.537183120233295,99.75689068436623
92080205,บ้านกรงไหน,Ban Krong Nai,92080205,92080205,7.504520968494207,99.76400524377823
92080206,บ้านทุ่งใหญ่,Ban Thung Yai,92080206,92080206,7.536818832342308,99.75388392806053
92080207,บ้านไสท้อน,Ban Sai Thon,92080207,92080207,7.54550980694142,99.75828409194946
