id,name.th,name.en,name.slug,code.dopa,geo.lat,geo.lon
50140101,บ้านทุ่งยาว,Ban Thung Yao,50140101,50140101,18.86961301842254,99.04206052422523
50140102,บ้านป่าลาน,Ban Pa Lan,50140102,50140102,18.86857367999945,99.0555614233017
50140103,บ้านข้าวแท่น,Ban Khao Thaen,50140103,50140103,18.861678857949517,99.05807599425316
50140104,บ้านสันทรายหลวง,Ban San Sai Luang,50140104,50140104,18.853631367755302,99.04825776815414
50140105,บ้านท่อ,Ban Tho,50140105,50140105,18.84417973795667,99.04480308294296
50140106,บ้านสันป่าสัก,Ban San Pa Sak,50140106,50140106,18.85936275343789,99.03232008218765
50140107,บ้านต้นซาง,Ban Ton Sang,50140107,50140107,18.86961301842254,99.04206052422523
50140108,บ้านปินดก,Ban Pin Dok,50140108,50140108,18.857871545937787,99.03908461332321
50140109,บ้านสันทรายก้อม,Ban San Sai Kom,50140109,50140109,18.844752156083352,99.03881371021271
