id,name.th,name.en,name.slug,code.dopa,geo.lat,geo.lon
17050101,บ้านท่าหาดสามัคคี,Ban Tha Hat Samakkhi,17050101,17050101,14.759599637691903,100.39705485105515
17050102,บ้านสวนกล้วยพัฒนา,Ban Suan Kluai Phatthana,17050102,17050102,14.766466362943582,100.37975326180458
17050103,บ้านสวนกล้วย,Ban Suan Kluai,17050103,17050103,14.765515798047032,100.3775967657566
17050104,บ้านจำปาทอง,Ban Champa Thong,17050104,17050104,14.788400821913626,100.3994245827198
17050105,บ้านเสมาทอง,Ban Sema Thong,17050105,17050105,14.783839051870164,100.39953723549843
17050106,บ้านศิษย์หลวงปู่หยัดพัฒนา,Ban Sit Luang Pu Yat Phatthana,17050106,17050106,14.764442030790548,100.39087235927582
17050107,บ้านศิษย์หลวงพ่อหินร่วมใจ,Ban Sit Luang Pho Hin Ruam Chai,17050107,17050107,14.76862554334106,100.38855895400047
17050108,บ้านขุนโลก,Ban Khun Lok,17050108,17050108,14.764134683389406,100.39426803588867
