id,name.th,name.en,name.slug,code.dopa,geo.lat,geo.lon
42090401,บ้านหนองงิ้ว,Ban Nong Ngio,42090401,42090401,17.334796689175143,101.62911280989647
42090402,บ้านตากแดด,Ban Tak Daet,42090402,42090402,17.33289175423341,101.6328464448452
42090403,บ้านเล้า,Ban Lao,42090403,42090403,17.348740006040824,101.62565678358078
42090404,บ้านน้ำจันทร์,Ban Nam Chan,42090404,42090404,17.34841230160963,101.5780945122242
42090405,บ้านกกบก,Ban Kok Bok,42090405,42090405,17.391303318034552,101.57602518796921
42090406,บ้านหนองหญ้าปล้อง,Ban Nong Ya Plong,42090406,42090406,17.35950144295065,101.60435199737549
42090407,บ้านเหล่าแปน,Ban Lao Paen,42090407,42090407,17.336081997012574,101.62610739469528
42090408,บ้านกกกอก,Ban Kok Kok,42090408,42090408,17.426952422666208,101.54290661215782
42090409,บ้านหมากแข้ง,Ban Mak Khaeng,42090409,42090409,17.415566656580705,101.55303061008453
