id,name.th,name.en,name.slug,code.dopa,geo.lat,geo.lon
13011201,บ้านเกริน,Ban Kroen,13011201,13011201,13.97559748953159,100.53400844335556
13011202,บ้านโคกชพลู,Ban Khok Chaphlu,13011202,13011202,13.988259821918005,100.53757980465889
13011203,บ้านกางซอง,Ban Kang Song,13011203,13011203,13.993469004621495,100.53829193115234
13011204,บ้านบางกะดี,Ban Bang Kadi,13011204,13011204,13.996105433324878,100.54930910468102
13011205,บ้านบางงิ้ว,Ban Bang Ngio,13011205,13011205,13.984036952948276,100.5512161552906
