id,name.th,name.en,name.slug,code.dopa,geo.lat,geo.lon
73061501,บ้านวัดเทียนดัด,Ban Wat Thian Dat,73061501,73061501,13.704658240479153,100.24821370840073
73061502,บ้านวัดเชิงเทียน,Ban Wat Choeng Thian,73061502,73061502,13.692577227220708,100.23293852806091
73061503,บ้านบางประแดง,Ban Bang Pradaeng,73061503,73061503,13.686623790373698,100.233314037323
73061504,บ้านสวนผัก,Ban Suan Phak,73061504,73061504,13.67954045062501,100.24713814258575
73061505,บ้านสวนส้ม,Ban Suan Som,73061505,73061505,13.69506853098404,100.24684309959412
