id,name.th,name.en,name.slug,code.dopa,geo.lat,geo.lon
38070301,บ้านนาแสง,Ban Na Saeng,38070301,38070301,18.0864186281393,103.83550465106964
38070302,บ้านดงเกษม,Ban Dong Kasem,38070302,38070302,18.05552909531989,103.8383236527443
38070303,บ้านนาคำแคน,Ban Na Kham Khaen,38070303,38070303,18.121445173064277,103.86915698647499
38070304,บ้านคำไชยวาน,Ban Kham Chai Wan,38070304,38070304,18.07057548057533,103.8164435327053
38070305,บ้านเกษมพัฒนา,Ban Kasem Phatthana,38070305,38070305,18.050433865983162,103.84278416633606
38070306,บ้านคำแคนพัฒนา,Ban Kham Khaen Phatthana,38070306,38070306,18.126868447786656,103.87527644634247
38070307,บ้านนาแสงสาคร,Ban Na Saeng Sakhon,38070307,38070307,18.09101946413339,103.8249260187149
38070308,บ้านแสงเจริญ,Ban Saeng Charoen,38070308,38070308,18.0905987775756,103.82708787918091
38070309,บ้านเกษมสามัคคี,Ban Kasem Samakkhi,38070309,38070309,18.053458379289623,103.84165495634079
