id,name.th,name.en,name.slug,code.dopa,geo.lat,geo.lon
86070501,บ้านไร่ล่าง,Ban Rai Lang,86070501,86070501,10.28668353447972,99.1354376077652
86070502,บ้านโพธิ์ศรี,Ban Pho Si,86070502,86070502,10.259421809019438,99.12633016705513
86070503,บ้านโขยง,Ban Khoyong,86070503,86070503,10.24513218483833,99.10774648189545
86070504,บ้านท่านา,Ban Tha Na,86070504,86070504,10.237442073327331,99.12226930260658
86070505,บ้านเชิงคีรี,Ban Choeng Khiri,86070505,86070505,10.252277077503216,99.10771161317825
86070506,บ้านในไร่,Ban Nai Rai,86070506,86070506,10.254979795044925,99.10290509462357
