id,name.th,name.en,name.slug,code.dopa,geo.lat,geo.lon
72011801,บ้านหัวถนน,Ban Hua Thanon,72011801,72011801,14.514236359004709,100.12076988816261
72011802,บ้านกิโลแปด,Ban Kilo Paet,72011802,72011802,14.515469744074469,100.13654664158821
72011803,บ้านหัวเกาะ,Ban Hua Ko,72011803,72011803,13.72706875088845,100.5340875685215
72011804,บ้านหัวเวียง,Ban Hua Wiang,72011804,72011804,14.481455660087374,100.12230545282364
72011805,บ้านสนามชัย,Ban Sanam Chai,72011805,72011805,14.502478608551712,100.14079660177231
72011806,บ้านดอนโพ,Ban Don Pho,72011806,72011806,14.50606987815086,100.16377106308937
