id,name.local,name.en,name.slug,code.id,zip_codes,geo.lat,geo.lon
320406,บ้านผือ,Ban Phue,ban-phue-320406,320406,32180,15.123,103.682
320404,บุแกรง,Bu Kraeng,bu-kraeng-320404,320404,32180,15.079,103.683
320401,จอมพระ,Chom Phra,chom-phra-320401,320401,32180,15.107,103.599
320408,ชุมแสง,Chum Saeng,chum-saeng-320408,320408,32180,15.178,103.53
320403,กระหาด,Krahat,krahat-320403,320403,32180,15.13,103.529
320407,ลุ่มระวี,Lum Rawi,lum-rawi-320407,320407,32180,15.162,103.602
320402,เมืองลีง,Mueang Ling,mueang-ling-320402,320402,32180,15.17,103.465
320405,หนองสนิท,Nong Sanit,nong-sanit-320405,320405,32180,15.16,103.655
320409,เป็นสุข,Pen Suk,pen-suk-320409,320409,32180,15.136,103.565
