id,name.th,name.en,name.slug,code.dopa,geo.lat,geo.lon
22020901,บ้านสะโทย,Ban Sathoi,22020901,22020901,12.560833743983807,102.26904764771461
22020902,บ้านจังกิ้น,Ban Wang Kin,22020902,22020902,12.550919141116152,102.27368921041489
22020903,บ้านตันหาร,Ban Tan Han,22020903,22020903,12.560850761061849,102.2899380326271
22020904,บ้านดอน,Ban Don,22020904,22020904,12.589303048275564,102.30234056711197
22020905,บ้านร้อยรู,Ban Roi Ru,22020905,22020905,12.546840088754532,102.30189666152
22020906,บ้านตกปก-ตาลึง,Ban Tok Pok - Talueng,22020906,22020906,12.51739333176934,102.32705175876617
22020907,บ้านหนองบัว,Ban Nong Bua,22020907,22020907,12.587721939358826,102.3236346244812
22020908,บ้านหนองกวาง,Ban Nong Kwang,22020908,22020908,12.569404972691638,102.29581207036972
22020909,บ้านตกปก,Ban Tok Pok,22020909,22020909,12.542688971363855,102.30469822883606
