id,name.local,name.en,name.slug,code.id,zip_codes,geo.lat,geo.lon
490603,บางทรายน้อย,Bang Sai Noi,bang-sai-noi-490603,490603,49150,16.667,104.707
490604,ชะโนด,Chanot,chanot-490604,490604,49150,16.68,104.733
490605,ดงหมู,Dong Mu,dong-mu-490605,490605,49150,16.807,104.708
490602,ป่งขาม,Pong Kham,pong-kham-490602,490602,49150,16.763,104.729
490601,หว้านใหญ่,Wan Yai,wan-yai-490601,490601,49150,16.716,104.728
