id,name.th,name.en,name.slug,code.dopa,geo.lat,geo.lon
95010901,บ้านปีซัด,Ban Pi Sad,95010901,95010901,6.581751573282361,101.19743138551712
95010902,บ้านน้ำเย็น,Ban Nam Yen,95010902,95010902,6.57904573423475,101.2071181833744
95010903,บ้านป่าพ้อ,Ban Pa Pho,95010903,95010903,6.598095539937599,101.19470357894897
95010904,บ้านปอเยาะ,Ban Po Yao,95010904,95010904,6.578070509457941,101.18696674704552
95010905,บ้านลูกา,Ban Luka,95010905,95010905,6.564255951924856,101.1861003935337
95010906,บ้านต้นพิกุล,Ban Ton Phikun,95010906,95010906,6.56277175348053,101.19173437356949
95010907,บ้านสีคง,Ban Likhon,95010907,95010907,6.58821968121249,101.23427823185921
