id,name.th,name.en,name.slug,code.dopa,geo.lat,geo.lon
73060201,บ้านทรงคนอง,Ban Song Khanong,73060201,73060201,13.77931948162655,100.27096554636955
73060202,บ้านทรงคนอง,Ban Song Khanong,73060202,73060202,13.775500497135493,100.252585709095
73060203,บ้านคลองยาว,Ban Khlong Yao,73060203,73060203,13.778795872847777,100.24845510721207
73060204,บ้านเหนือ,Ban Nuea,73060204,73060204,13.767448122746327,100.26025280356407
73060205,บ้านคลองประดู่,Ban Khlong Pradu,73060205,73060205,13.72706875088845,100.5340875685215
73060206,บ้านคลองคาม,Ban Khlong Kham,73060206,73060206,13.787613704929981,100.25808155536652
