id,name.th,name.en,name.slug,code.dopa,geo.lat,geo.lon
50200301,บ้านสันดวงดี,Ban San Duang Di,50200301,50200301,19.639788562541195,98.62946033477783
50200302,บ้านสามปู,Ban Sam Pu,50200302,50200302,19.637982341147094,98.6250963807106
50200303,บ้านม่วงป็อก,Ban Muang Pok,50200303,50200303,19.626692365566058,98.62923502922058
50200304,บ้านมหาธาตุ,Ban Maha That,50200304,50200304,19.62218398514743,98.62018659710884
50200305,บ้านปางป๋อ,Ban Pang Po,50200305,50200305,19.61010585421167,98.62221837043762
