id,name.th,name.en,name.slug,code.dopa,geo.lat,geo.lon
62020201,บ้านหนองคล้า,Ban Nong Khla,62020201,62020201,16.47184363675275,99.83747497200966
62020202,บ้านวังโขน,Ban Wang Khon,62020202,62020202,16.430367480524165,99.83894348144531
62020203,บ้านแม่บัว,Ban Mae Bua,62020203,62020203,16.446313575779282,99.80116054415703
62020204,บ้านหัวยาง,Ban Hua Yang,62020204,62020204,16.450877079660543,99.79062214493752
62020205,บ้านใหม่เจริญพร,Ban Mai Charoen Phon,62020205,62020205,16.4400610925678,99.80586647987366
62020206,บ้านใหม่ท้ายวัง,Ban Mai Thai Wang,62020206,62020206,16.42548318833948,99.8767814040184
62020207,บ้านโปร่งตะคลอง,Ban Prong Ta Khlong,62020207,62020207,16.488633767080103,99.84802410006523
62020208,บ้านวังสามัคคี,Ban Wang Samakkhi,62020208,62020208,16.435345550321923,99.83659788966179
