id,name.th,name.en,name.slug,code.dopa,geo.lat,geo.lon
80030101,บ้านสี่กั๊ก,Ban Si Kak,80030101,80030101,8.355312562786073,99.80129465460777
80030102,บ้านเขาแก้ว,Ban Khao Kaeo,80030102,80030102,8.360000034547607,99.7705042362213
80030103,บ้านคีรีกันทร์,Ban Sirikan,80030103,80030103,8.35700033775185,99.75990615785122
80030104,บ้านร่อน,Ban Ron,80030104,80030104,8.359905827899803,99.74103078246117
80030105,บ้านคันเบ็ด,Ban Khan Bet,80030105,80030105,8.36768377052208,99.75920006632805
80030106,บ้านอ่าวอ้ายไทร (สานขุน),Ban Ao Ai Sai (Sam Khun),80030106,80030106,8.35868113940701,99.72837343811989
