id,name.th,name.en,name.slug,code.dopa,geo.lat,geo.lon
19101101,บ้านสระแก้ว,Ban Sa Kaeo,19101101,19101101,14.549900481881231,100.84210708737373
19101102,บ้านโคกคำ,Ban Khok Kham,19101102,19101102,14.529209188806531,100.83990231156349
19101103,บ้านบึงโง้ง,Ban Bueng Ngong,19101103,19101103,14.552483674277829,100.82296550273895
19101104,บ้านศาลารีลาว,Ban Sala Ri Lao,19101104,19101104,14.55252651088185,100.83344757556915
19101105,บ้านนาห้วย,Ban Na Huai,19101105,19101105,14.533179097116507,100.82483768463135
19101106,บ้านเมืองเก่า,Ban Mueang Kao,19101106,19101106,14.559398432964173,100.82886904478073
19101107,บ้านกง,Ban Kong,19101107,19101107,14.557369589681276,100.8205609023571
19101108,บ้านโคกสมี,Ban Khok Sami,19101108,19101108,14.522862120600571,100.82439914345741
19101109,บ้านหนองไก่,Ban Nong Kai,19101109,19101109,14.521236701777203,100.81377491354942
