id,name.th,name.en,name.slug,code.dopa,geo.lat,geo.lon
24021401,บ้านหัวไทร,Ban Hua Sai,24021401,24021401,13.778145,101.203606
24021402,บ้านกล้วย,Ban Kluai,24021402,24021402,13.799363,101.195752
24021403,บ้านคูมอญ,Ban Khu Mon,24021403,24021403,13.797919,101.209731
24021404,บ้านทางข้ามน้อย,Ban Thang Kham Noi,24021404,24021404,13.808140,101.236238
24021405,บ้านน้ำฉ่า,Ban Nam Cha,24021405,24021405,13.8204090,101.2373879
24021406,บ้านลาดบัวขาว,Ban Lat Bua Khao,24021406,24021406,13.827803,101.217396
24021407,บ้านลาดโคก,Ban Lat Khok,24021407,24021407,13.8084753,101.1905224
