id,name.th,name.en,name.slug,code.dopa,geo.lat,geo.lon
61050901,บ้านดงขวาง,Ban Dong Khwang,61050901,61050901,15.318852599726336,99.9276052415371
61050902,บ้านขุนแก้ว,Ban Khun Kaeo,61050902,61050902,15.312144630452913,99.96260806918144
61050903,บ้านลานคา,Ban Lan Kha,61050903,61050903,15.302469047300757,99.92355778813362
61050904,บ้านใหม่,Ban Mai,61050904,61050904,15.305475252306008,99.93737116456032
61050905,บ้านทุ่งปาจาน,Ban Thung Pa Chan,61050905,61050905,15.301289319947578,99.90397498011589
61050906,บ้านคูเมือง,Ban Khu Mueang,61050906,61050906,15.315559435361878,99.90409031510353
