id,name.th,name.en,name.slug,code.dopa,geo.lat,geo.lon
71060701,บ้านถ้ำ,Ban Tham,71060701,71060701,13.970849911367914,99.57793772220612
71060702,บ้านเขาน้อย,Ban Khao Noi,71060702,71060702,13.965904413373659,99.59063932299614
71060703,บ้านห้วยน้ำโจน,Ban Huai Nam Chon,71060703,71060703,13.94422756436272,99.58103969693184
71060704,บ้านหนองตะโก,Ban Nong Tako,71060704,71060704,13.921058221444767,99.6063382923603
71060705,บ้านดอนคาม,Ban Don Kham,71060705,71060705,13.938884503592606,99.59315657615662
71060706,บ้านช่องไม้รัด,Ban Chong Mai Rat,71060706,71060706,13.919688814521757,99.6028782427311
71060707,บ้านถ้ำแก้ว,Ban Tham Kaeo,71060707,71060707,13.953256470146714,99.59278374910355
71060708,บ้านอู่ตะเภา,Ban U Taphao,71060708,71060708,13.896790400631094,99.58467409014702
