id,name.th,name.en,name.slug,code.dopa,geo.lat,geo.lon
64030301,บ้านเนินยาง,Ban Noen Yang,64030301,64030301,16.892645563731836,99.78127866983414
64030302,บ้านวังผักบุ้ง,Ban Wang Phak Bung,64030302,64030302,16.892776453864723,99.77310732007027
64030303,บ้านป้อม,Ban Pom,64030303,64030303,16.92943622934846,99.79619711637497
64030304,บ้านหนองปรือ,Ban Nong Prue,64030304,64030304,16.910926955804264,99.78927299380302
64030305,บ้านนาไผ่ล้อม,Ban Na Phai Lom,64030305,64030305,16.935894672807695,99.78387907147408
64030306,บ้านตะพังมะพลับ,Ban Taphang Maphlap,64030306,64030306,16.951057159291867,99.75285664200783
64030307,บ้านเด่นสามัคคี,Ban Den Samakkhi,64030307,64030307,13.72706875088845,100.5340875685215
64030308,บ้านโคกกระเชียง,Ban Khok Krachiang,64030308,64030308,16.901340577531048,99.76161137223244
