id,name.th,name.en,name.slug,code.dopa,geo.lat,geo.lon
58030101,บ้านเมืองพร้าว,Ban Mueang Phrao,58030101,58030101,19.35992053140118,98.43848168849945
58030102,บ้านเจ้าหม้อ,Ban Chao Mo,58030102,58030102,19.358160529305145,98.43823090195656
58030103,บ้านป่าขาม,Ban Pa Kham,58030103,58030103,19.35998632550373,98.44190955162048
58030104,บ้านเมืองแพร่,Ban Mueang Phrae,58030104,58030104,19.35649540559456,98.44381257891655
58030105,บ้านน้ำฮู,Ban Nam Hu,58030105,58030105,19.365001782400164,98.41311872005463
58030106,บ้านห้วยปู,Ban Huai Pu,58030106,58030106,19.368482398543406,98.43779236078262
58030107,บ้านใหม่สหสัมพันธ์,Ban Mai Saha Samphan,58030107,58030107,19.375163809231886,98.4078186750412
58030108,บ้านแสงทองเวียงใต้,Ban Saeng Thong Wiang Tai,58030108,58030108,19.35441271173568,98.43476817011833
