id,name.th,name.en,name.slug,code.dopa,geo.lat,geo.lon
23010201,บ้านแหลมตะโคย,Ban Laem Takhoy,23010201,23010201,12.207278,102.491863
23010202,บ้านท่าตะเภา,Ban Tha Taphao,23010202,23010202,12.1943203,102.5066210
23010203,บ้านหนองเสม็ด,Ban Nong Samet,23010203,23010203,12.218365,101.495314
23010204,บ้านตีนเนิน,Ban Tin Noen,23010204,23010204,12.221390,102.500026
23010205,บ้านเกาะกรันเกรา,Ban Ko Kran Krao,23010205,23010205,12.237988,102.505295
23010206,บ้านโคก,Ban Khok,23010206,23010206,12.194441,102.506802
23010207,บ้านเกาะกันเกราน้อย,Ban Ko Kan Krao Noi,23010207,23010207,12.238299,102.512104
