id,name.th,name.en,name.slug,code.dopa,geo.lat,geo.lon
26020701,บ้านเนินต้นโพธิ์,Ban Noen Ton Pho,26020701,26020701,14.20749335099429,101.350769251585
26020702,บ้านโคกสว่าง,Ban Khok Sawang,26020702,26020702,14.208136891902685,101.3651767373085
26020703,"บ้านน้อย, นอก, ซับเมย","Ban Noi, Nok, Sap Moei",26020703,26020703,14.226268392028688,101.36406898498535
26020704,"บ้านเนินสูง, วังบอน","Ban Noen Sung, Wang Bon",26020704,26020704,14.219197708912393,101.37355327606201
26020705,บ้านนาหินลาด,Ban Na Hin Lat,26020705,26020705,14.203728274989233,101.3429693877697
26020706,บ้านท่ามะปราง,Ban Tha Maprang,26020706,26020706,14.223858222629636,101.35693967342377
26020707,บ้านวังบอน,Ban Wang Bon,26020707,26020707,14.22379842306214,101.38404339551926
