id,name.th,name.en,name.slug,code.dopa,geo.lat,geo.lon
66010701,บ้านวังทับยา,Ban Wang Thapya,66010701,66010701,16.433929321743015,100.29444292187691
66010702,บ้านโรงช้าง,Ban Rong Chang,66010702,66010702,16.424270135986344,100.28998643159866
66010703,บ้านหัวเมือง,Ban Hua Mueang,66010703,66010703,16.42262356288574,100.28780311346054
66010704,บ้านท่าฉนวน,Ban Tha Chanuan,66010704,66010704,16.412418357781274,100.28778836131096
66010705,บ้านคลองโพธิ์,Ban Khlong Pho,66010705,66010705,16.435282521295004,100.23939192295074
66010706,บ้านโรงช้าง,Ban Rong Chang,66010706,66010706,16.433461102212306,100.29014468193054
66010707,บ้านวังทองดี,Ban Wang Thong Di,66010707,66010707,16.432038428252707,100.30043631792068
