id,name.local,name.en,name.slug,code.id,zip_codes,geo.lat,geo.lon
331402,พิงพวย,Phing Phuai,phing-phuai-331402,331402,33240,14.744,104.453
331403,สระเยาว์,Sa Yao,sa-yao-331403,331403,33240,14.785,104.515
331407,สะพุง,Saphung,saphung-331407,331407,33240,14.828,104.474
331401,ศรีแก้ว,Si Kaeo,si-kaeo-331401,331401,33240,14.766,104.476
331406,ศรีโนนงาม,Si Non Ngam,si-non-ngam-331406,331406,33240,14.806,104.419
331405,เสืองข้าว,Sueang Khao,sueang-khao-331405,331405,33240,14.813,104.555
331404,ตูม,Tum,tum-331404,331404,33240,14.866,104.488
