id,name.th,name.en,name.slug,code.dopa,geo.lat,geo.lon
77080401,บ้านเนินกรวด,Ban Noen Kruat,77080401,77080401,12.269576031286547,99.80742752552032
77080402,บ้านทุ่งเคล็ด,Ban Thung Khalet,77080402,77080402,12.260996233111308,99.83854115009308
77080403,บ้านหนองเป่าปี่,Ban Nong Pao Pi,77080403,77080403,12.261059137795295,99.78109762072563
77080404,บ้านศาลาลัย,Ban Salalai,77080404,77080404,12.250770090935792,99.87649574875832
77080405,บ้านหนองน้ำกลัด,Ban Nong Nam Klat,77080405,77080405,12.254518280832727,99.86151292920113
77080406,บ้านหนองไพรวัลย์,Ban Nong Phrai Wan,77080406,77080406,12.269966551576609,99.85084846615791
77080407,บ้านต้นไทร,Ban Ton Sai,77080407,77080407,12.257041070969631,99.87581849098206
77080408,บ้านป่าหมาก,Ban Pa Mak,77080408,77080408,12.275622478512675,99.5767106115818
