id,name.local,name.en,name.slug,code.id,zip_codes,geo.lat,geo.lon
303103,โนนประดู่,Non Pradu,non-pradu-303103,303103,30430,15.521,102.479
303105,หนองตาดใหญ่,Nong Tat Yai,nong-tat-yai-303105,303105,30430,15.617,102.591
303102,โพนทอง,Phon Thong,phon-thong-303102,303102,30430,15.54,102.59
303104,สามเมือง,Sam Mueang,sam-mueang-303104,303104,30430,15.591,102.537
303101,สีดา,Sida,sida-303101,303101,30430,15.564,102.588
