id,name.th,name.en,name.slug,code.dopa,geo.lat,geo.lon
34141301,บ้านดอนส้มป่อย,Ban Don Som Poi,34141301,34141301,15.505502567014725,104.5970307290554
34141302,บ้านผือ,Ban Phue,34141302,34141302,15.558047039022021,104.62240308523178
34141303,บ้านหนองคู,Ban Nong Khu,34141303,34141303,15.537850045476713,104.65069904923439
34141304,บ้านทรายมูล,Ban Sai Mun,34141304,34141304,15.536764685251184,104.64753404259682
34141305,บ้านหนองบัว,Ban Nong Bua,34141305,34141305,15.544770374567609,104.5813961327076
34141306,บ้านทุ่งมณี,Ban Thung Mani,34141306,34141306,15.531915380999461,104.61009576916695
34141307,บ้านนาเลิง,Ban Na Loeng,34141307,34141307,15.545787214387445,104.60361286997795
34141308,บ้านทุ่งมณี,Ban Thung Mani,34141308,34141308,15.531702179553418,104.61112037301064
34141309,บ้านผือ,Ban Phue,34141309,34141309,15.55848113893431,104.62297573685646
