id,name.th,name.en,name.slug,code.dopa,geo.lat,geo.lon
35060701,บ้านโนนทราย,Ban Non Sai,35060701,35060701,15.533664916658273,104.31141570210457
35060702,บ้านแดง,Ban Daeng,35060702,35060702,15.542212102248135,104.31901037693024
35060703,บ้านเลียบ,Ban Liap,35060703,35060703,15.545804010936997,104.32588621973991
35060704,บ้านยางกลาง,Ban Yang Klang,35060704,35060704,15.514237002280446,104.31548327207565
35060705,บ้านหว้าน,Ban Wan,35060705,35060705,15.519549332752048,104.29885223507881
35060706,บ้านเลียบ,Ban Liap,35060706,35060706,15.542212102248135,104.31901037693024
35060707,บ้านโนนทราย,Ban Non Sai,35060707,35060707,15.536507557407875,104.31344076991081
