id,name.local,name.en,name.slug,code.id,zip_codes,geo.lat,geo.lon
910501,กำแพง,Kamphaeng,kamphaeng-910501,910501,91110,6.933,99.777
910503,เขาขาว,Khao Khao,khao-khao-910503,910503,91110,6.923,99.848
910502,ละงู,La-ngu,la-ngu-910502,910502,91110,6.842,99.826
910506,แหลมสน,Laem Son,laem-son-910506,910506,91110,6.946,99.713
910505,น้ำผุด,Nam Phut,nam-phut-910505,910505,91110,6.973,99.85
910504,ปากน้ำ,Pak Nam,pak-nam-910504,910504,91110,6.872,99.731
