id,name.th,name.en,name.slug,code.dopa,geo.lat,geo.lon
15061401,บ้านคลองพูล,Ban Khlong Phun,15061401,15061401,14.508875598149036,100.3143060207367
15061402,บ้านห้วยรี,Ban Huai Ri,15061402,15061402,14.494064994108017,100.2749003469944
15061403,บ้านลาดหญ้าไทร,Ban Lat Ya Sai,15061403,15061403,14.511494324623955,100.29168024659157
15061404,บ้านคลองสำโรง,Ban Khlong Samrong,15061404,15061404,14.516396725802233,100.27438536286354
15061405,บ้านหนองสองห้อง,Ban Nong Song Hong,15061405,15061405,14.52448882572273,100.27337551116943
15061406,บ้านหลักแก้ว,Ban Lak Kaeo,15061406,15061406,14.521022488341828,100.30523344874382
15061407,บ้านหลักแก้ว,Ban Lak Kaeo,15061407,15061407,14.529041718903192,100.3026182949543
15061408,บ้านวัดกรด,Ban Wat Krot,15061408,15061408,14.536360944024755,100.29294490814209
