id,name.th,name.en,name.slug,code.dopa,geo.lat,geo.lon
20040301,บ้านหนองเกตุใหญ่,Ban Nong Ket Yai,20040301,20040301,12.980434742085725,100.9395007789135
20040302,บ้านหนองปลาไหล,Ban Nong Pla Lai,20040302,20040302,12.967254961537227,100.9437346458435
20040303,บ้านมาบบอน,Ban Map Bon,20040303,20040303,12.976535115776246,100.95819309353828
20040304,บ้านแกรก,Ban Kraek,20040304,20040304,12.98406510327859,100.96672788262367
20040305,บ้านหนองหัวแรด,Ban Nong Hua Raet,20040305,20040305,12.993998012645976,100.9567742049694
20040306,บ้านหนองเกตุน้อย,Ban Nong Ket Noi,20040306,20040306,12.996226034725519,100.93620300292969
20040307,บ้านหนองเกตุ,Ban Nong Ket,20040307,20040307,12.989473955571226,100.93554720282555
20040308,บ้านหนองเกตุใหญ่,Ban Nong Ket Yai,20040308,20040308,12.967098132973401,100.92796593904495
20040309,บ้านหนองเหียง,Ban Nong Hiang,20040309,20040309,12.980858156274063,100.93884497880936
