id,name.th,name.en,name.slug,code.dopa,geo.lat,geo.lon
12020901,บ้านคลองบางนา,Ban Khlong Bang Na,12020901,12020901,13.812921767879565,100.3889612853527
12020902,บ้านประตูน้ำฉิมพลี,Ban Pratu Nam Chimphli,12020902,12020902,13.80582531609346,100.39593771100044
12020903,บ้านคลองขุดมหาสวัสดิ์,Ban Khlong Khut Maha Sawat,12020903,12020903,13.802812937888586,100.37560120224953
12020904,บ้านคลองขุดมหาสวัสดิ์,Ban Khlong Khut Maha Sawat,12020904,12020904,13.803768880539561,100.35744532942772
12020905,บ้านเจริญสุข,Ban Charoen Suk,12020905,12020905,13.811362885169572,100.33892869949341
12020906,บ้านนราภิรมย์,Ban Naraphirom,12020906,12020906,13.813196557317998,100.33056020736694
