id,name.th,name.en,name.slug,code.dopa,geo.lat,geo.lon
20061401,บ้านหนองโสน,Ban Nong Sano,20061401,20061401,13.410840099206775,101.16545140743256
20061402,บ้านหนองช้าง,Ban Nong Chang,20061402,20061402,13.41656824538278,101.15807265043259
20061403,บ้านหนองขนวน,Ban Nong Khanuan,20061403,20061403,13.377458638245045,101.15625008940697
20061404,บ้านหนองโคลน,Ban Nong Khlon,20061404,20061404,13.40805229112201,101.14969611167908
20061405,บ้านหนองม่วงใหม่,Ban Nong Muang Mai,20061405,20061405,13.384012139013516,101.1431273818016
20061406,บ้านหนองม่วงเก่า,Ban Nong Muang Kao,20061406,20061406,13.391275187413088,101.13821357488632
20061407,บ้านหนองขยาด,Ban Nong Khayat,20061407,20061407,13.406645981652144,101.15140467882156
20061408,บ้านหนองเหียง,Ban Nong Hiang,20061408,20061408,13.377102450434974,101.15508869290352
