id,name.th,name.en,name.slug,code.dopa,geo.lat,geo.lon
51030501,บ้านหนองสูน,Ban Nong Sun,51030501,51030501,18.32741620388151,98.68414252996445
51030502,บ้านหนองปลาสะวาย,Ban Nong Pla Sawai,51030502,51030502,18.338314673898957,98.70875850319862
51030503,บ้านท่ากอม่วง,Ban Tha Ko Muang,51030503,51030503,18.361289467544793,98.69774535298347
51030504,บ้านหนองเขียด,Ban Nong Khiat,51030504,51030504,18.374045274452534,98.68803575634956
51030505,บ้านห้วยสะแหล,Ban Huai Salae,51030505,51030505,18.363659456286424,98.70632573962212
51030506,บ้านหนองเจริญ,Ban Nong Charoen,51030506,51030506,18.322816515001108,98.68524894118309
51030507,บ้านสันเจดีย์ - ริมปิง,Ban San Chedi - Rim Ping,51030507,51030507,18.336990752044557,98.70987966656685
51030508,บ้านปากล้อง,Ban Pak Long,51030508,51030508,18.344474596167288,98.70135962963104
