id,name.th,name.en,name.slug,code.dopa,geo.lat,geo.lon
30160701,บ้านกงรถ,Ban Kong Rot,30160701,30160701,15.037867551575133,102.73745521903038
30160702,บ้านหัวทำนบ,Ban Hua Thamnop,30160702,30160702,15.058234544505778,102.76455223560333
30160703,บ้านซ่าเลือด,Ban Sa Lueat,30160703,30160703,15.002460930120014,102.7524796128273
30160704,บ้านหนองบัวรอง,Ban Nong Bua Rong,30160704,30160704,15.037999659668918,102.78908908367157
30160705,บ้านโนนขี้ตุ่น,Ban Non Khi Tum,30160705,30160705,15.037782069823773,102.75499418377876
30160706,บ้านสี่แยก,Ban Si Yaek,30160706,30160706,14.99881307352568,102.7492207288742
30160707,บ้านโคกแค,Ban Khok Khae,30160707,30160707,15.052088129444217,102.7132523059845
30160708,บ้านหนองซำ,Ban Nong Sam,30160708,30160708,15.048388021218363,102.76559695601463
30160709,บ้านหัวทำนบพัฒนา,Ban Hua Thamnop Phatthana,30160709,30160709,15.062136506518309,102.76515573263168
