id,name.th,name.en,name.slug,code.dopa,geo.lat,geo.lon
55130301,บ้านสะเกิน,Ban Sakoen,55130301,55130301,19.35422924107504,100.52660018205643
55130302,บ้านยอด,Ban Yot,55130302,55130302,19.393708633218804,100.57761579751968
55130303,บ้านผาหลัก,Ban Pha Lak,55130303,55130303,19.381255407685984,100.6019501388073
55130304,บ้านปางส้าน,Ban Pang San,55130304,55130304,19.435962036545313,100.60217007994652
55130305,บ้านผาสิงห์,Ban Pha Sing,55130305,55130305,19.4054841765148,100.60143247246742
55130306,บ้านน้ำเกาะ,Ban Nam Ko,55130306,55130306,19.35211615031556,100.58745950460434
