id,name.th,name.en,name.slug,code.dopa,geo.lat,geo.lon
47100601,บ้านห้วยทราย,Ban Huai Sai,47100601,47100601,17.781245175380338,103.38686898350716
47100602,บ้านห้วยหลัว,Ban Huai Lua,47100602,47100602,17.819068344932557,103.3910022675991
47100603,บ้านเหล่าผักใส่,Ban Lao Phak Sai,47100603,47100603,17.855319774343617,103.41361328959465
47100604,บ้านพนาสวรรค์,Ban Phana Sawan,47100604,47100604,17.845661448140795,103.42300102114677
47100605,บ้านเทพพิทักษ์,Ban Thep Phithak,47100605,47100605,17.820236584290456,103.39713245630264
47100606,บ้านประชาสรร,Ban Prachasan,47100606,47100606,17.817689429608915,103.39790090918541
47100607,บ้านสามเขา,Ban Sam Khao,47100607,47100607,17.781661489657708,103.38610857725143
47100608,บ้านเหล่าเจริญ,Ban Lao Charoen,47100608,47100608,17.85680562414146,103.41638132929802
47100609,บ้านไชยยานนท์,Ban Chai Ya Non,47100609,47100609,17.765490926063727,103.41209515929222
