id,name.th,name.en,name.slug,code.dopa,geo.lat,geo.lon
94020601,บ้านนาประดู่,Ban Na Pradu,94020601,94020601,6.676836887482246,101.14641577005386
94020602,บ้านกล้วย,Ban Kluai,94020602,94020602,6.6918044411253,101.1303560435772
94020603,บ้านห้วยเปี๊ยะ,Ban Huai Pia,94020603,94020603,6.677762632709852,101.12862065434456
94020604,บ้านยางแดง,Ban Yang Daeng,94020604,94020604,6.714410078237941,101.13254204392433
94020605,บ้านควนประ,Ban Khuan Pra,94020605,94020605,6.701478428857096,101.15697830915451
94020606,บ้านศาลาลาก,Ban Sala Lak,94020606,94020606,6.680157574107805,101.14603087306023
94020607,บ้านสลาม,Ban Salam,94020607,94020607,6.691027903162641,101.13965258002281
94020608,สลาม,,94020608,94020608,6.706748893265811,101.13720506429672
