id,name.local,name.en,name.slug,code.id,zip_codes,geo.lat,geo.lon
670206,บ้านกล้วย,Ban Kluai,ban-kluai-670206,670206,67190,16.05,100.744
670201,ชนแดน,Chon Daen,chon-daen-670201,670201,67150,16.158,100.895
670202,ดงขุย,Dong Khui,dong-khui-670202,670202,67190,16.131,100.677
670205,ลาดแค,Lat Khae,lat-khae-670205,670205,67150,15.983,100.839
670204,พุทธบาท,Phutthabat,phutthabat-670204,670204,67150,16.271,100.892
670210,ศาลาลาย,Sala Lai,sala-lai-670210,670210,67150,16.092,100.832
670208,ซับพุทรา,Sap Phutsa,sap-phutsa-670208,670208,67150,16.035,100.928
670209,ตะกุดไร,Takut Rai,takut-rai-670209,670209,67190,16.18,100.726
670203,ท่าข้าม,Tha Kham,tha-kham-670203,670203,67150,16.204,100.792
