id,name.local,name.en,name.slug,code.id,zip_codes,geo.lat,geo.lon
700601,บางแพ,Bang Phae,bang-phae-700601,700601,70160,13.691,99.951
700606,ดอนคา,Don Kha,don-kha-700606,700606,70160,13.668,100.006
700605,ดอนใหญ่,Don Yai,don-yai-700605,700605,70160,13.709,100.002
700603,หัวโพ,Hua Pho,hua-pho-700603,700603,70160,13.654,99.978
700607,โพหัก,Pho Hak,pho-hak-700607,700607,70160,13.64,100.043
700602,วังเย็น,Wang Yen,wang-yen-700602,700602,70160,13.705,99.909
700604,วัดแก้ว,Wat Kaeo,wat-kaeo-700604,700604,70160,13.657,99.918
