id,name.th,name.en,name.slug,code.dopa,geo.lat,geo.lon
50250301,บ้านขุนแม่รวม,Ban Khun Mae Ruam,50250301,50250301,18.915319763851855,98.19942846894264
50250302,บ้านกิ่วโป่ง,Ban Kio Pong,50250302,50250302,19.040731413952347,98.27371895313263
50250303,บ้านแม่ละอุป,Ban Mae La-up,50250303,50250303,18.99780692098078,98.27130362391472
50250304,บ้านห้วยยา,Ban Huai Ya,50250304,50250304,18.99170619206949,98.2701663672924
50250305,บ้านห้วยเขียดแห้ง,Ban Huai Khiat Haeng,50250305,50250305,18.956342671156925,98.23018535971642
50250306,บ้านแจ่มหลวง,Ban Chaem Luang,50250306,50250306,19.03360155572878,98.28873798251152
50250307,บ้านเสาแดง,Ban Sao Daeng,50250307,50250307,18.97737348180121,98.2324706017971
