id,name.th,name.en,name.slug,code.dopa,geo.lat,geo.lon
25060201,บ้านใต้วัด,Ban Tai Wat,25060201,25060201,13.9951867207332,101.21132791042328
25060202,บ้านบางกระพ้อ,Ban Bang Krapho,25060202,25060202,13.979764553940102,101.20186910033226
25060203,บ้านบางมะดัน,Ban Bang Madan,25060203,25060203,13.97095012167699,101.21126756072044
25060204,บ้านบางกระเบา,Ban Bang Krabao,25060204,25060204,13.970045624450675,101.20456740260124
25060205,บ้านท้องคุ้ง,Ban Thong Khung,25060205,25060205,13.970376189316507,101.20279982686043
25060206,บ้านแหลมลิง,Ban Laem Ling,25060206,25060206,13.968645273536616,101.20562955737114
25060207,บ้านคลองหอทอง,Ban Khlong Ho Thong,25060207,25060207,13.958868608814766,101.21631145477295
25060208,บ้านบางหอย,Ban Bang Hoi,25060208,25060208,14.011285781274466,101.18254110217094
25060209,บ้านตาลหกต้น,Ban Tan Hok Ton,25060209,25060209,13.996546570219168,101.20459958910942
