id,name.th,name.en,name.slug,code.dopa,geo.lat,geo.lon
70060601,บ้านนาโพธิ์-ลำพยา,Ban Na Pho - Lam Phaya,70060601,70060601,13.680922995602057,100.0310218334198
70060602,บ้านดอนพรม,Ban Don Phrom,70060602,70060602,13.681867708281747,100.01939445734024
70060603,บ้านดอนแห้วหมู,Ban Don Haeo Mu,70060603,70060603,13.674307294507058,99.99745935201645
70060604,บ้านดอนคา,Ban Don Kha,70060604,70060604,13.681689190452149,100.03922134637833
70060605,บ้านตากแดด,Ban Tak Daet,70060605,70060605,13.66832342369076,100.06274163722992
70060606,บ้านตาลตอ,Ban Tan To,70060606,70060606,13.686067398885916,100.04772529006004
70060607,บ้านป่าหลวง,Ban Pa Luang,70060607,70060607,13.666078129811494,100.04628092050552
