id,name.th,name.en,name.slug,code.dopa,geo.lat,geo.lon
50051301,บ้านปางอั๋น,Ban Pang An,50051301,50051301,19.054511050828673,99.36047494411469
50051302,บ้านห้วยหม้อ,Ban Huai Mo,50051302,50051302,19.0401964316589,99.3351200222969
50051303,บ้านแม่หวาน,Ban Mae Wan,50051303,50051303,18.962052782109645,99.23505619168282
50051304,บ้านโป่งกุ่ม,Ban Pong Kum,50051304,50051304,18.90383144341884,99.23725694417953
50051305,บ้านปางแฟน,Ban Pang Phaen,50051305,50051305,19.017820711916357,99.30084943771362
50051306,บ้านโป่งสามัคคี,Ban Pong Samakkhi,50051306,50051306,18.909850381382,99.24579441547394
