id,name.th,name.en,name.slug,code.dopa,geo.lat,geo.lon
33050801,บ้านตาอุด,Ban Ta Ut,33050801,33050801,14.675671936967182,104.27537217736244
33050802,บ้านตาอุดใหม่,Ban Mai,33050802,33050802,14.668411837386861,104.2787517607212
33050803,บ้านจำนรรจ์,Ban Cham Nan,33050803,33050803,14.675885999864247,104.28214475512505
33050804,บ้านเดื่อทำนบ,Ban Duea Thamnop,33050804,33050804,14.673942560548202,104.27017271518707
33050805,บ้านตาอุดใต้,Ban Ta Ut Tai,33050805,33050805,14.66644887060399,104.27951216697693
33050806,บ้านคลองกลาง,Ban Khlong Klang,33050806,33050806,14.67001022165865,104.27368238568306
33050807,บ้านโก,Ban Ko,33050807,33050807,14.668856843271364,104.26868811249733
33050808,บ้านหัวนอน,Ban Hua Non,33050808,33050808,14.65959326890732,104.2754365503788
33050809,บ้านเดื่อนอก,Ban Duea Nok,33050809,33050809,14.672158680828288,104.26294416189194
