id,name.th,name.en,name.slug,code.dopa,geo.lat,geo.lon
13040301,บ้านบึงสัมพันธ์,Ban Bueng Samphan,13040301,13040301,14.230649270580157,100.84564760327339
13040302,บ้านบึงสมบูรณ์,Ban Bueng Sombun,13040302,13040302,14.188057553747685,100.8383010327816
13040303,บ้านคชสาร,Ban Khotcha San,13040303,13040303,14.164931087149391,100.82300707697868
13040304,บ้านเจริญบุญ,Ban Charoen Bun,13040304,13040304,14.19710153712366,100.82422614097595
13040305,บ้านแสนสุขสกัดห้า,Ban Saen Suk Sakat Ha,13040305,13040305,14.24188057107331,100.8235689997673
13040306,บ้านระพีพัฒน์,Ban Raphiphat,13040306,13040306,14.231964817525562,100.80192759633064
13040307,บ้านบึงกาสาม,Ban Bueng Ka Sam,13040307,13040307,14.206445480467995,100.80227226018906
13040308,บ้านเจริญสุขพัฒนา,Ban Charoen Suk Phatthana,13040308,13040308,14.186815863097682,100.8333295583725
13040309,บ้านหนองบัวทอง,Ban Nong Bua Thong,13040309,13040309,14.13509828901417,100.82387074828148
