id,name.th,name.en,name.slug,code.dopa,geo.lat,geo.lon
18050301,บ้านท่าข้าม,Ban Tha Kham,18050301,18050301,15.096239690594402,100.19837826490402
18050302,บ้านท่าวัว,Ban Tha Wua,18050302,18050302,15.091930477197359,100.20147755742073
18050303,บ้านท่าช้าง,Ban Tha Chang,18050303,18050303,15.08812488223516,100.19898310303688
18050304,บ้านคลองรี,Ban Khlong Ri,18050304,18050304,15.088702394397428,100.20417720079422
18050305,บ้านท่าสะเดา,Ban Tha Sadao,18050305,18050305,15.087406227016594,100.20644500851631
18050306,บ้านบางไก่เถื่อน,Ban Bang Kai Thuean,18050306,18050306,15.086327592190932,100.21099269390106
18050307,บ้านคลองมะขวาด,Ban Khlong Makhwat,18050307,18050307,15.088039420660808,100.20780086517334
18050308,บ้านท่ากร่าง,Ban Tha Krang,18050308,18050308,15.091767326174768,100.20618751645088
18050309,บ้านบางยายอ้น,Ban Bang Yai An,18050309,18050309,15.08980044009914,100.20392507314682
