id,name.th,name.en,name.slug,code.dopa,geo.lat,geo.lon
92021201,บ้านหาดทรายขาว,Ban Hat Sai Khao,92021201,92021201,7.315175839407344,99.490025639534
92021202,บ้านนาเกลือเหนือ,Ban Na Kluea Nuea,92021202,92021202,7.36075110090192,99.4750414788723
92021203,บ้านนาเกลือใต้,Ban Na Kluea Tai,92021203,92021203,7.347550131755694,99.47924718260765
92021204,บ้านพระม่วง,Ban Phra Muang,92021204,92021204,7.293338924351106,99.48075324296951
92021205,บ้านท่าโต๊ะเมฆ,Ban Tha To Mek,92021205,92021205,7.315090707307986,99.44157019257545
92021206,บ้านแหลมสะท้อน,Ban Laem Sathon,92021206,92021206,7.306915289764923,99.461300522089
