id,name.th,name.en,name.slug,code.dopa,geo.lat,geo.lon
83020250,ชุมชนนาใน,,83020250,83020250,7.896946180994632,98.30101042985916
83020251,ชุมชนชายวัด,,83020251,83020251,7.90203254168949,98.31134498119354
83020252,ชุมชนโคกมะขาม,,83020252,83020252,7.904362496384641,98.30313205718994
83020253,ชุมชนไสน้ำเย็น,,83020253,83020253,7.897073706081672,98.2993783056736
83020254,ชุมชนกะหลิม,,83020254,83020254,7.911187567314156,98.2953268289566
83020255,ชุมชนหาดป่าตอง,,83020255,83020255,7.887712463072277,98.29154625535011
83020256,ชุมชนบ้านมอญ,,83020256,83020256,7.899706558976378,98.31030026078224
