id,name.th,name.en,name.slug,code.dopa,geo.lat,geo.lon
84081001,บ้านทำเนียบ,Ban Thamniap,84081001,84081001,8.94798706853871,98.99471148848534
84081002,บ้านบางขนุน,Ban Bang Khanun,84081002,84081002,8.885379065994975,98.95997151732445
84081003,บ้านเบื้องแบบ,Ban Bueang Baep,84081003,84081003,8.940280723140013,98.99082496762276
84081004,บ้านน้ำราด,Ban Nam Rat,84081004,84081004,8.881115157946347,98.9860787987709
84081005,บ้านควนทอง,Ban Khuan Thong,84081005,84081005,8.950455131252836,99.01852816343307
84081006,บ้านแสงอรุณ,Ban Saeng Arun,84081006,84081006,8.917041468516757,99.01286602020264
84081007,บ้านคลองขนาน,Ban Khlong Khanan,84081007,84081007,8.937473437315377,98.96645709872246
84081008,บ้านกลางใหม่,Ban Klang Mai,84081008,84081008,8.886142271151645,99.02709513902664
84081009,บ้านเคี่ยมงาม,Ban Khiam Ngam,84081009,84081009,8.83656906632952,99.01043727993965
