id,name.th,name.en,name.slug,code.dopa,geo.lat,geo.lon
55040701,บ้านพืชเจริญ,Ban Phuet Charoen,55040701,55040701,18.380597182202983,100.67261561751366
55040702,บ้านน้ำพุ,Ban Nam Phu,55040702,55040702,18.369109543229023,100.65228715538979
55040703,บ้านน้ำสระ,Ban Nam Sa,55040703,55040703,18.39235130177895,100.61717972159386
55040704,บ้านวังกอก,Ban Wang Kok,55040704,55040704,18.40180644839785,100.60773834586143
55040705,บ้านเปา,Ban Pao,55040705,55040705,18.404466012528435,100.59090077877045
55040706,บ้านไทยงาม,Ban Thai Ngam,55040706,55040706,18.38696939912632,100.58952614665031
55040707,บ้านพืชมงคล,Ban Phuet Mongkhon,55040707,55040707,18.388621275512936,100.66857352852821
