id,name.th,name.en,name.slug,code.dopa,geo.lat,geo.lon
24110201,บ้านพลับ,Ban Phlap,24110201,24110201,13.786583455463582,101.17886781692505
24110202,บ้านลาดปลาค้าว,Ban Lat Pla Khao,24110202,24110202,13.801575676596242,101.1755982041359
24110203,บ้านคลองเขื่อน,Ban Khlong Khuean,24110203,24110203,13.760734559498738,101.19186446070671
24110204,บ้านหัวลำพู,Ban Hua Lam Phu,24110204,24110204,13.774437630868041,101.16584166884422
24110205,บ้านวังควาย,Ban Wang Khwai,24110205,24110205,13.795361920909682,101.15188613533974
24110206,บ้านหัวลำพูเก่า,Ban Hua Lam Phu Kao,24110206,24110206,13.77236528825359,101.17158025503159
