id,name.th,name.en,name.slug,code.dopa,geo.lat,geo.lon
80210101,บ้านโรงเหล็ก,Ban Rong Lek,80210101,80210101,8.72356908490106,99.74552482366562
80210102,บ้านเขาเหล็ก,Ban Khao Lek,80210102,80210102,8.759729428018248,99.7283747792244
80210103,บ้านสวนกลาง,Ban Suan Klang,80210103,80210103,8.725859697478114,99.76861327886581
80210104,บ้านพังหรัน,Ban Phang Ran,80210104,80210104,8.721070339300212,99.77741494774818
80210105,บ้านทอนผักกูด,Ban Thon Phak Kut,80210105,80210105,8.719243659525201,99.78829935193062
80210106,บ้านในทอน,Ban Nai Thon,80210106,80210106,8.71560618060207,99.76571246981621
80210107,บ้านถ้ำโคก,Ban Tham Khok,80210107,80210107,8.734059657118102,99.74040314555168
80210108,บ้านพัฒนา,Ban Phatthana,80210108,80210108,8.728095947470933,99.73530694842339
80210109,บ้านเขาโพธิ์,Ban Khao Pho,80210109,80210109,8.746344677886936,99.75797832012177
