id,name.th,name.en,name.slug,code.dopa,geo.lat,geo.lon
21030601,บ้านสมอโพรง,Ban Samo Phrong,21030601,21030601,12.664633928434318,101.585443764925
21030602,บ้านอ่าวเจริญ,Ban Ao Charoen,21030602,21030602,12.64920915271692,101.56456276774406
21030603,บ้านหนองสะพาน,Ban Nong Saphan,21030603,21030603,12.642174266156424,101.52228578925133
21030604,บ้านคลองทุเรียน,Ban Khlong Thurian,21030604,21030604,12.681288969039114,101.54831528663635
21030605,บ้านเหลาชะโอน,Ban Lao Cha-on,21030605,21030605,12.652908409832573,101.52742758393288
21030606,บ้านในชาก,Ban Nai Chak,21030606,21030606,12.676170495965248,101.53426453471184
21030607,บ้านชากคา,Ban Chak Kha,21030607,21030607,12.702035263425184,101.52287989854813
