id,name.th,name.en,name.slug,code.dopa,geo.lat,geo.lon
19080401,บ้านโปรงสว่าง,Ban Prong Sawang,19080401,19080401,14.710698919065395,100.70179402828217
19080402,บ้านโปรงใหม่,Ban Prong Mai,19080402,19080402,14.710420033019025,100.70210382342339
19080403,บ้านโปรงเก่า,Ban Prong Kao,19080403,19080403,14.715935424835653,100.70326790213585
19080404,บ้านโปรงหัวถนน,Ban Prong Hua Thanon,19080404,19080404,14.71357726167053,100.7003228366375
19080405,บ้านโพนกกโก,Ban Phon Kok Ko,19080405,19080405,14.736587071123962,100.70701897144318
