id,name.th,name.en,name.slug,code.dopa,geo.lat,geo.lon
70011201,บ้านน้ำพุ,Ban Nam Phu,70011201,70011201,13.531900383797195,99.60839956998825
70011202,บ้านหนองโรงเลื่อย,Ban Nong Rong Lueai,70011202,70011202,13.517678592675084,99.61934834718704
70011203,บ้านเขานกกระจิบ,Ban Khao Nok Krachip,70011203,70011203,13.529739852834972,99.63868573307991
70011204,บ้านเขาหัวคน,Ban Khao Hua Khon,70011204,70011204,13.543220358827705,99.62655678391457
70011205,บ้านหนองแช่เสา,Ban Nong Chae Sao,70011205,70011205,13.55793082752017,99.64559778571129
70011206,บ้านหนองนางแพรว,Ban Nong Nang Phraeo,70011206,70011206,13.570408523256846,99.64014753699303
