id,name.th,name.en,name.slug,code.dopa,geo.lat,geo.lon
14071401,บ้านดาวคะนอง,Ban Dao Khanong,14071401,14071401,14.407365425708766,100.54625406861305
14071402,บ้านโพธิ์สามต้น,Ban Pho Sam Ton,14071402,14071402,14.413306644875707,100.54651692509651
14071403,บ้านโพธิ์สามต้น,Ban Pho Sam Ton,14071403,14071403,14.419412660763324,100.54595097899437
14071404,บ้านม่วง,Ban Muang,14071404,14071404,14.426754984999866,100.54741814732552
14071405,บ้านม่วง,Ban Muang,14071405,14071405,14.430460474396046,100.54775208234787
14071406,บ้านหัวหาด,Ban Hua Hat,14071406,14071406,14.43296972977937,100.55116653442383
14071407,บ้านคลองท่อ,Ban Khlong Tho,14071407,14071407,14.435356872986295,100.55085808038712
14071408,บ้านวัดสบสวรรค์,Ban Wat Sop Sawan,14071408,14071408,14.431485220305891,100.55496722459793
