id,name.th,name.en,name.slug,code.dopa,geo.lat,geo.lon
96110501,บ้านจือแร,Ban Chue Rae,96110501,96110501,6.050828776786511,101.86087846755981
96110502,บ้านตะโล๊ะบูเก๊ะ,Ban Talo Buke,96110502,96110502,6.052387791410733,101.84781208634377
96110503,บ้านดอเฮะ,Ban Do He,96110503,96110503,6.03928072613133,101.85570985078812
96110504,บ้านบาลูกา,Ban Baluka,96110504,96110504,6.0388646236220485,101.86683297157288
96110505,บ้านกูวา,Ban Kuwa,96110505,96110505,6.038237801930828,101.87322199344635
96110506,บ้านกำปงปือแน,Ban Kam Pong Bue Nae,96110506,96110506,6.0482268527159215,101.84816882014275
96110507,บ้านบือแนลูวัส,Ban Bue Nae Lu Wat,96110507,96110507,6.05658070491648,101.84758141636848
