id,name.th,name.en,name.slug,code.dopa,geo.lat,geo.lon
57071001,บ้านป่ากว๋าว,Ban Pa Kwao,57071001,57071001,20.24063155634002,99.85525399446487
57071002,บ้านสันกอง,Ban San Kong,57071002,57071002,20.26934682019239,99.85959783196449
57071003,บ้านป่าสักขวาง,Ban Pa Sak Khwang,57071003,57071003,20.263774790916038,99.87746000289917
57071004,บ้านฮ่องแฮ่,Ban Hong Hae,57071004,57071004,20.25938898887264,99.88750353455544
57071005,บ้านดงมะตืน,Ban Dong Matuen,57071005,57071005,20.25332591045285,99.84662801027298
57071006,บ้านห้วยไร่,Ban Huai Rai,57071006,57071006,20.263146997248615,99.84159618616104
57071007,บ้านสันกอง,Ban San Kong,57071007,57071007,20.262745660888093,99.85694110393524
57071008,บ้านดอนชัย,Ban Don Chai,57071008,57071008,20.251857600819314,99.8545016348362
57071009,บ้านสันกองใหม่,Ban San Kong Mai,57071009,57071009,20.259819270975736,99.85735014081001
