id,name.th,name.en,name.slug,code.dopa,geo.lat,geo.lon
47120701,บ้านโพนสูง,Ban Phon Sung,47120701,47120701,17.49225073470981,103.43138661235571
47120702,บ้านคำชน,Ban Kham Chan,47120702,47120702,17.55532187242494,103.40695034712552
47120703,บ้านยางชุม,Ban Yang Chum,47120703,47120703,17.50629906177598,103.41189667582512
47120704,บ้านโพนสวาง,Ban Phon Sawang,47120704,47120704,17.51287007253561,103.40988669544458
47120705,บ้านค้อ,Ban Kho,47120705,47120705,17.5071320019459,103.41788738965988
47120706,บ้านดงต้อง,Ban Dong Tong,47120706,47120706,17.55673029344745,103.39549362659454
47120707,บ้านดอนเชียงยืน,Ban Don Chiang Yuen,47120707,47120707,17.590420126900757,103.38894031941891
47120708,บ้านคำบก,Ban  Kham Bok,47120708,47120708,17.528943762002758,103.41092370450497
47120709,บ้านดอนเจริญ,Ban Don Charoen,47120709,47120709,17.588045810176975,103.39252140372993
