id,name.th,name.en,name.slug,code.dopa,children_count.villages,zip_codes,geo.lat,geo.lon
481005,บ้านค้อ,Ban Kho,ban-kho,481005,20,48190,17.473,104.264
481002,นาหัวบ่อ,Na Hua Bo,na-hua-bo,481002,10,48190,17.482,104.368
481003,นาขมิ้น,Na Khamin,na-khamin,481003,16,48190,17.523,104.513
481006,โพนจาน,Phon Chan,phon-chan,481006,12,48190,17.409,104.424
481001,โพนสวรรค์,Phon Sawan,phon-sawan,481001,15,48190,17.444,104.504
