id,name.th,name.en,name.slug,code.dopa,geo.lat,geo.lon
40200101,บ้านโนนคอม,Ban Non Khom,40200101,40200101,16.635504419043517,101.91730946302414
40200102,บ้านเซินเหนือ,Ban Soen Nuea,40200102,40200102,16.63156208117842,101.9164028763771
40200103,บ้านเซินใต้,Ban Soen Tai,40200103,40200103,16.634644770140387,101.92689701914787
40200104,บ้านท่าขาม,Ban Tha Kham,40200104,40200104,16.640443791859944,101.94439172744751
40200105,บ้านป่ากล้วย,Ban Pa Kluai,40200105,40200105,16.64993155365417,101.94445207715034
40200106,บ้านป่ากล้วย,Ban Pa Kluai,40200106,40200106,16.650173110254364,101.94139301776886
40200107,บ้านหนองนกทา,Ban Nong Nok Tha,40200107,40200107,16.650706332522336,101.94916740059853
40200108,บ้านหนองบัวทอง,Ban Nong Bua Thong,40200108,40200108,16.6463852621288,101.9553391635418
