id,name.th,name.en,name.slug,code.dopa,geo.lat,geo.lon
49020701,บ้านร่มเกล้า,Ban Rom Klao,49020701,49020701,16.38783258880549,104.45322141051292
49020702,บ้านร่มเกล้า (ผัง 1),Ban Rom Klao (Phang 1),49020702,49020702,16.373410324006652,104.4494180381298
49020703,"บ้านร่มเกล้า (ผัง 3,4)","Ban Rom Klao (Phang 3,4)",49020703,49020703,16.382845583243146,104.44812789559364
49020704,บ้านหนองนกเขียน,Ban Nong Nok Khian,49020704,49020704,16.349686987842965,104.43044811487198
49020705,บ้านคำนางโอก,Ban Kham Nang Ok,49020705,49020705,16.414591173538565,104.45412129163742
49020706,บ้านสุริโย,Ban Suriyo,49020706,49020706,16.409999801337744,104.45549592375755
49020707,บ้านโพธิ์ไทร,Ban Pho Sai,49020707,49020707,16.414941085944257,104.45388525724411
