id,name.th,name.en,name.slug,code.dopa,geo.lat,geo.lon
39050601,บ้านทรายทอง,Ban Sai Thong,39050601,39050601,17.538967915335636,102.28360265493393
39050602,บ้านภูวงษ์,Ban Phu Wong,39050602,39050602,17.54125304421123,102.25503042340279
39050603,บ้านภูทอง,Ban Phu Thong,39050603,39050603,17.56823763533735,102.27283626794815
39050604,บ้านศรีสุวรรณ,Ban Si Suwan,39050604,39050604,17.568511245451564,102.277040630579
39050605,บ้านพนมพัฒนา,Ban Phanom Phatthana,39050605,39050605,17.5554657198314,102.28023245930672
39050606,บ้านสุวรรณคูหา,Ban Suwannakhuha,39050606,39050606,17.565233011076124,102.27646932005882
39050607,บ้านหนองกุงใต้,Ban Nong Kung Tai,39050607,39050607,17.560572548385018,102.29203283786774
39050608,บ้านหนองกุง,Ban Nong Kung,39050608,39050608,17.572537357662057,102.28656247258186
