id,name.th,name.en,name.slug,code.dopa,geo.lat,geo.lon
52101101,บ้านสันดอนแก้ว,Ban San Don Kaeo,52101101,52101101,17.996278375437917,99.49043869972229
52101102,บ้านด่าน,Ban Dan,52101102,52101102,17.997681412263933,99.50541213154793
52101103,บ้านแม่วะ,Ban Mae Wa,52101103,52101103,18.01389077992109,99.48082700371742
52101104,บ้านสบแม่นาง,Ban Sop Mae Nang,52101104,52101104,18.007316147241323,99.4963851571083
52101105,บ้านสันป่าเปา,Ban San Pa Pao,52101105,52101105,18.00520660109883,99.50565353035927
52101106,บ้านอ้อ,Ban O,52101106,52101106,17.995481190450832,99.51537787914276
52101107,บ้านแม่ทาน,Ban Mae Than,52101107,52101107,17.98069626369516,99.45304334163666
52101108,บ้านเด่น,Ban Den,52101108,52101108,18.025752556636032,99.48560938239098
52101109,บ้านแม่ทาน,Ban Mae Than,52101109,52101109,17.975532536175674,99.44927617907524
