id,name.th,name.en,name.slug,code.dopa,geo.lat,geo.lon
40190301,บ้านนางิ้ว,Ban Na Ngio,40190301,40190301,16.92422466586275,102.80947521328926
40190302,บ้านนาง้อง,Ban Na Ngong,40190302,40190302,16.95460161027551,102.79962748289108
40190303,บ้านโนนสวรรค์,Ban Non Sawan,40190303,40190303,16.954424581736227,102.77473792433739
40190304,บ้านแสงสว่าง,Ban Saeng Sawang,40190304,40190304,16.961004030360723,102.75135710835457
40190305,บ้านดงเย็น,Ban Dong Yen,40190305,40190305,16.97201886356626,102.73443907499313
40190306,บ้านขามป้อม,Ban Kham Pom,40190306,40190306,16.96773717565192,102.74132162332535
40190307,บ้านนาโพธิ์,Ban Na Pho,40190307,40190307,16.92243740764871,102.80906349420547
