id,name.th,name.en,name.slug,code.dopa,children_count.villages,zip_codes,geo.lat,geo.lon
361306,ดงบัง,Dong Bang,dong-bang,361306,9,36180,16.587,101.955
361308,ดงกลาง,Dong Klang,dong-klang,361308,9,36180,16.533,101.983
361304,ห้วยยาง,Huai Yang,huai-yang,361304,19,36180,16.536,101.896
361301,คอนสาร,Khon San,khon-san,361301,9,36180,16.610,101.921
361303,โนนคูณ,Non Khun,non-khun,361303,11,36180,16.485,101.981
361305,ทุ่งลุยลาย,Thung Luilai,thung-luilai,361305,7,36180,16.522,101.634
361307,ทุ่งนาเลา,Thung Na Lao,thung-na-lao,361307,11,36180,16.590,101.864
361302,ทุ่งพระ,Thung Phra,thung-phra,361302,10,36180,16.649,101.642
