id,name.th,name.en,name.slug,code.dopa,geo.lat,geo.lon
40161601,บ้านดินดำ,Ban Din Dam,40161601,40161601,16.719130185961305,102.4286337196827
40161602,บ้านหนองทุ่ม,Ban Nong Thum,40161602,40161602,16.71308308162155,102.40339681506157
40161603,บ้านกุดดุก,Ban Kut Duk,40161603,40161603,16.76404846202741,102.42947995662689
40161604,บ้านกุดดุก,Ban Kut Duk,40161604,40161604,16.76571009111968,102.43422746658325
40161605,บ้านวังชัย,Ban Wang Chai,40161605,40161605,16.731763237249943,102.42956578731537
40161606,บ้านโนนสวรรค์,Ban Non Sawan,40161606,40161606,16.70926051408751,102.39951968193054
40161607,บ้านดินดำ,Ban Din Dam,40161607,40161607,16.720103767257882,102.42547273635864
