id,name.th,name.en,name.slug,code.dopa,geo.lat,geo.lon
19040601,บ้านหนองโพธิ์,Ban Nong Pho,19040601,19040601,14.351896894940852,100.99315971136093
19040602,บ้านทุ่งขุยปู,Ban Thung Khui Pu,19040602,19040602,14.355482798418276,100.98501920700073
19040603,บ้านหนองไผ่,Ban Nong Phai,19040603,19040603,14.375276990973394,101.00614964962006
19040604,บ้านสมานมิตร,Ban Saman Mit,19040604,19040604,14.373667381650437,101.02408558130264
19040605,บ้านเจริญธรรม,Ban Charoen Tham,19040605,19040605,14.37618117320924,101.00240260362625
19040606,บ้านราษฏร์เจริญ,Ban Rat Charoen,19040606,19040606,14.393288495011626,100.99822774529457
19040607,บ้านเขาน้อยจอมสวรรค์,Ban Khao Noi Chom Sawan,19040607,19040607,14.397460877110063,101.0169281065464
19040608,บ้านหนองปรือ,Ban Nong Prue,19040608,19040608,14.365343736786157,100.98530888557434
