id,name.th,name.en,name.slug,code.dopa,geo.lat,geo.lon
57060301,บ้านสันมะค่า,Ban San Makha,57060301,57060301,19.451748273248693,100.01075506210327
57060302,บ้านวังผา,Ban Wang Pha,57060302,57060302,19.446161362863375,100.03998711705208
57060303,บ้านสันบัวคำ,Ban San Bua Kham,57060303,57060303,19.44783821493022,100.01151949167252
57060304,บ้านสันติธรรม,Ban Santi Tham,57060304,57060304,19.454639025503564,100.00951990485191
57060305,บ้านวังน้อย,Ban Wang Noi,57060305,57060305,19.462983475819236,100.05027741193771
57060306,บ้านวังอวน,Ban Wang Uan,57060306,57060306,19.461120901237432,100.01926705241203
57060307,บ้านสันป่าคาม,Ban San Pa Kham,57060307,57060307,19.458251761123048,100.00940188765526
57060308,บ้านวังศิลา,Ban Wang Sila,57060308,57060308,19.44604628414499,100.04587724804878
5706039,บ้านวังแสงทอง,,5706039,5706039,19.462983475819236,100.05027741193771
