id,name.th,name.en,name.slug,code.dopa,geo.lat,geo.lon
21031301,บ้านตลาดตอนล่าง,Ban Talat Ton Lang,21031301,21031301,12.703170850793011,101.70360580086708
21031302,บ้านตลาดตอนบน,Ban Talat Ton Bon,21031302,21031302,12.712254058824568,101.70607075095177
21031303,บ้านดอนมะกอกล่าง,Ban Don Makok Lang,21031303,21031303,12.717331251364607,101.70378148555756
21031304,บ้านนาซา,Ban Na Sa,21031304,21031304,12.724081496983477,101.71839416027069
21031305,บ้านดอนมะกอกบน,Ban Don Makok Bon,21031305,21031305,12.735446621066599,101.70165717601776
21031306,บ้านแหลมสน,Ban Laem Son,21031306,21031306,12.69710822077454,101.70080691576004
21031307,บ้านแสมผู้,Ban Saem Phu,21031307,21031307,12.70969253022489,101.70843109488487
21031308,บ้านตลาดตอนกลาง,Ban Talat Ton Klang,21031308,21031308,12.70705248036048,101.70440644025803
