id,name.th,name.en,name.slug,code.dopa,geo.lat,geo.lon
35090101,บ้านไทยเจริญ,Ban Thai Charoen,35090101,35090101,16.06840582474916,104.43626582622528
35090102,บ้านห้วยยาง,Ban Huai Yang,35090102,35090102,16.04218400105927,104.40635651350021
35090103,บ้านป่าตาว,Ban Pa Tao,35090103,35090103,16.0562645161228,104.41405713558197
35090104,บ้านสามแยกภูกอย,Ban Sam Yaek Phu Koi,35090104,35090104,16.13275873845207,104.45503458380699
35090105,บ้านพืชคาม,Ban Phuet Kham,35090105,35090105,16.05572709048167,104.45562601089478
35090106,บ้านเทพเจริญ,Ban Thep Charoen,35090106,35090106,16.065555177502,104.43622156977654
