id,name.th,name.en,name.slug,code.dopa,geo.lat,geo.lon
23040401,บ้านหนองบอน,Ban Nong Bon,23040401,23040401,12.680269731197926,102.46385246515274
23040402,บ้านตรอกเกษร,Ban Trok Keson,23040402,23040402,12.696116520881867,102.45144322514534
23040403,บ้านเนินพัฒนา,Ban Noen Phatthana,23040403,23040403,12.67824432733399,102.46040850877762
23040404,บ้านคอแล,Ban Kho Lae,23040404,23040404,12.635493823440333,102.46628522872925
23040405,บ้านมะอึกแรด,Ban Ma-uek Raet,23040405,23040405,12.681040374819874,102.45668828487396
